名称,大类,中类,小类,地址,省,市,区,WGS84_经度,WGS84_纬度
成都长乐家玉林商圈精致公寓分店,住宿服务,住宿服务相关,住宿服务相关,九峰山风景名胜区,四川省,成都市,彭州市,103.8687426,31.38399592
彭州金坪山庄,住宿服务,住宿服务相关,住宿服务相关,龙门山镇九峰村16组,四川省,成都市,彭州市,103.8849249,31.33853082
九峰・银河湾,住宿服务,旅馆招待所,旅馆招待所,彭白路附近,四川省,成都市,彭州市,103.8799139,31.33104981
响水洞山庄,住宿服务,宾馆酒店,宾馆酒店,彭白路附近,四川省,成都市,彭州市,103.8727919,31.31806075
丹卉山庄,住宿服务,宾馆酒店,宾馆酒店,彭白路附近,四川省,成都市,彭州市,103.87397,31.3227273
楼外楼山庄,住宿服务,住宿服务相关,住宿服务相关,彭白路附近,四川省,成都市,彭州市,103.8758517,31.32590503
彭州凤祥山庄,住宿服务,住宿服务相关,住宿服务相关,龙门山镇九峰村十四组,四川省,成都市,彭州市,103.8720262,31.3167584
彭州市龙门山镇景鸿山庄,住宿服务,宾馆酒店,宾馆酒店,九峰村8组,四川省,成都市,彭州市,103.8556104,31.29991387
石山沟度假屋(九峰村店),住宿服务,住宿服务相关,住宿服务相关,九峰村8组彭白路221号(村委会附近北边20米),四川省,成都市,彭州市,103.8617678,31.3004767
九云天,住宿服务,住宿服务相关,住宿服务相关,彭白路北150米,四川省,成都市,彭州市,103.8595846,31.3007495
彭州君来避暑雅居,住宿服务,住宿服务相关,住宿服务相关,龙门山镇风景区内(近宝山二路),四川省,成都市,彭州市,103.7673066,31.29065366
石山沟度假屋,住宿服务,住宿服务相关,住宿服务相关,,四川省,成都市,彭州市,103.8472686,31.2887416
彭州市龙门山镇鑫港山庄,住宿服务,住宿服务相关,住宿服务相关,彭白路偏坡坪,四川省,成都市,彭州市,103.8493442,31.29184789
彭州九银山庄,住宿服务,住宿服务相关,住宿服务相关,龙门山镇九峰村7组,四川省,成都市,彭州市,103.8533979,31.29693254
彭州惠众幸福城养身度假酒店,住宿服务,住宿服务相关,住宿服务相关,九峰村十七组102号,四川省,成都市,彭州市,103.8198104,31.28147707
彭州凤鸣湖双喜农家乐,住宿服务,住宿服务相关,住宿服务相关,龙门山镇风景区,四川省,成都市,彭州市,103.7722148,31.27561254
彭州广金坝农家乐,住宿服务,住宿服务相关,住宿服务相关,团山村罗圈湾(近九银桥),四川省,成都市,彭州市,103.8215304,31.26781784
金螺湾山庄,住宿服务,住宿服务相关,住宿服务相关,九银桥北侧,四川省,成都市,彭州市,103.8207485,31.27478752
回龙山庄,住宿服务,宾馆酒店,宾馆酒店,龙门镇,四川省,成都市,彭州市,103.7860704,31.25740331
彭州丽鑫苑,住宿服务,住宿服务相关,住宿服务相关,龙门山镇风景区,四川省,成都市,彭州市,103.7841307,31.26131218
彭州开心苑,住宿服务,住宿服务相关,住宿服务相关,龙门山镇风景区(近宝山二路),四川省,成都市,彭州市,103.7843728,31.26533581
彭州明馨苑,住宿服务,住宿服务相关,住宿服务相关,龙门山镇风景区(近宝山二路),四川省,成都市,彭州市,103.7840235,31.26321525
彭州福来全景,住宿服务,住宿服务相关,住宿服务相关,龙门山镇风景区,四川省,成都市,彭州市,103.7841158,31.25971184
彭州龙吟阁,住宿服务,住宿服务相关,住宿服务相关,龙门山镇风景区(近宝山二路),四川省,成都市,彭州市,103.7860489,31.26646149
彭州平钒人家,住宿服务,住宿服务相关,住宿服务相关,龙门山镇风景区(近宝山二路),四川省,成都市,彭州市,103.7838954,31.26211755
彭州龙头山庄,住宿服务,住宿服务相关,住宿服务相关,龙门山镇风景区近宝山二路,四川省,成都市,彭州市,103.7840263,31.26658286
彭州宽心苑,住宿服务,住宿服务相关,住宿服务相关,龙门山镇风景区,四川省,成都市,彭州市,103.7837701,31.26380469
彭州六棵树休闲庄,住宿服务,住宿服务相关,住宿服务相关,龙门山镇风景区,四川省,成都市,彭州市,103.7845022,31.25974931
彭州叶家院,住宿服务,住宿服务相关,住宿服务相关,龙门山镇风景区内(近宝山二路),四川省,成都市,彭州市,103.7830524,31.25986346
成都自然居,住宿服务,住宿服务相关,住宿服务相关,龙门山镇团山村4组17号,四川省,成都市,彭州市,103.8076109,31.25767565
成都川川农家乐,住宿服务,住宿服务相关,住宿服务相关,彭州龙门山镇团山村2组35号,四川省,成都市,彭州市,103.8078995,31.25742126
彭州荣程休闲苑宾馆,住宿服务,住宿服务相关,住宿服务相关,彭州龙门山镇团山村四组34号,四川省,成都市,彭州市,103.8079025,31.25749324
彭州一麦阳光乡村酒店,住宿服务,宾馆酒店,宾馆酒店,彭州龙门山镇宝山村太阳湾风景区,四川省,成都市,彭州市,103.7714552,31.25307626
彭州大果树休闲庄,住宿服务,住宿服务相关,住宿服务相关,"龙门山镇宝山村三合坪,太阳湾景区内",四川省,成都市,彭州市,103.7736059,31.25270334
彭州明兴苑,住宿服务,住宿服务相关,住宿服务相关,龙门山镇风景区,四川省,成都市,彭州市,103.7861226,31.2538179
彭州付姐农家乐,住宿服务,住宿服务相关,住宿服务相关,龙门山镇风景区,四川省,成都市,彭州市,103.7854907,31.25571627
彭州长城山庄,住宿服务,住宿服务相关,住宿服务相关,彭州龙门山镇风景区,四川省,成都市,彭州市,103.7863028,31.25363121
彭州红豆山庄,住宿服务,住宿服务相关,住宿服务相关,龙门山镇风景区(近宝山三路),四川省,成都市,彭州市,103.7878971,31.25058564
彭州二泉农家乐,住宿服务,住宿服务相关,住宿服务相关,龙门山镇风景区,四川省,成都市,彭州市,103.787081,31.25015773
彭州彬欧银杏苑,住宿服务,住宿服务相关,住宿服务相关,龙门山镇风景区,四川省,成都市,彭州市,103.7865221,31.25282085
彭州鼎弘园,住宿服务,住宿服务相关,住宿服务相关,龙门山镇风景区(近宝山三路),四川省,成都市,彭州市,103.785663,31.2535894
彭州阳光雨露,住宿服务,住宿服务相关,住宿服务相关,龙门山镇风景区(近宝山二路),四川省,成都市,彭州市,103.7881784,31.2534328
彭州兰香晓筑农家乐,住宿服务,住宿服务相关,住宿服务相关,团山村七组,四川省,成都市,彭州市,103.7936142,31.25409428
彭州生态园,住宿服务,住宿服务相关,住宿服务相关,龙门山镇风景区内(近宝山二路),四川省,成都市,彭州市,103.7901922,31.25269791
彭州袁仕农家乐,住宿服务,住宿服务相关,住宿服务相关,龙门山镇风景区内(近彭白路),四川省,成都市,彭州市,103.7970949,31.24987843
彭州张二姐休闲庄,住宿服务,住宿服务相关,住宿服务相关,龙门山镇风景区内(近彭白路),四川省,成都市,彭州市,103.7940891,31.25248269
彭州曙云农家乐,住宿服务,住宿服务相关,住宿服务相关,龙门山镇风景区内(近彭白路),四川省,成都市,彭州市,103.7962356,31.2496072
彭州吴三妹农家乐,住宿服务,住宿服务相关,住宿服务相关,龙门山镇风景区内(近宝山三路),四川省,成都市,彭州市,103.7883245,31.25513028
彭州银江苑度假会所,住宿服务,住宿服务相关,住宿服务相关,彭州龙门山镇风景区内,四川省,成都市,彭州市,103.7911636,31.25363389
翠屏山庄,住宿服务,宾馆酒店,宾馆酒店,龙门山镇三沟村,四川省,成都市,彭州市,103.8015684,31.24990964
彭州旅家连锁管理家庭公寓,住宿服务,住宿服务相关,住宿服务相关,龙门山镇山沟村凤鸣湖旁,四川省,成都市,彭州市,103.804217,31.25124752
彭州秀秀苑,住宿服务,住宿服务相关,住宿服务相关,龙门山镇风景区内(近宝山路),四川省,成都市,彭州市,103.8000998,31.25199533
彭州望湖苑,住宿服务,住宿服务相关,住宿服务相关,龙门山镇风景区内(近彭白路),四川省,成都市,彭州市,103.8032701,31.25614482
彭州伍二娃休闲屋,住宿服务,住宿服务相关,住宿服务相关,龙门山镇风景区内,四川省,成都市,彭州市,103.7993735,31.25566359
彭州云静苑休闲庄,住宿服务,住宿服务相关,住宿服务相关,团山村8组(近鑫花苑),四川省,成都市,彭州市,103.7998264,31.25151609
缘妍客栈,住宿服务,旅馆招待所,旅馆招待所,龙门山镇宝山村太阳湾景区,四川省,成都市,彭州市,103.7815527,31.23692757
宝山别院,住宿服务,旅馆招待所,旅馆招待所,宝山村,四川省,成都市,彭州市,103.7833237,31.23788827
彭州明敬园,住宿服务,住宿服务相关,住宿服务相关,宝山村7组(近彭白路),四川省,成都市,彭州市,103.7881078,31.24104107
彭州山乡木楼居,住宿服务,住宿服务相关,住宿服务相关,宝山村7组山府佳园西南侧,四川省,成都市,彭州市,103.78348,31.23700185
彭州八哥休闲苑,住宿服务,住宿服务相关,住宿服务相关,宝山村7组(近宝山三路),四川省,成都市,彭州市,103.7875661,31.2402167
彭州贤闲居,住宿服务,住宿服务相关,住宿服务相关,宝山村7组(近彭白路),四川省,成都市,彭州市,103.7877313,31.2409536
彭州紫荆苑休闲庄,住宿服务,住宿服务相关,住宿服务相关,宝山村7组(近彭白路),四川省,成都市,彭州市,103.7879526,31.24075299
彭州瑞晨苑,住宿服务,住宿服务相关,住宿服务相关,龙门山镇宝山村7组,四川省,成都市,彭州市,103.7878574,31.2413276
彭州锦苑休闲庄,住宿服务,住宿服务相关,住宿服务相关,宝山村7组(近宝山三路),四川省,成都市,彭州市,103.7873708,31.24095611
彭州鑫西苑农家乐,住宿服务,住宿服务相关,住宿服务相关,宝山村7组(近彭白路),四川省,成都市,彭州市,103.7879116,31.24049005
彭州黄河苑,住宿服务,住宿服务相关,住宿服务相关,宝山村7组(近宝山三路),四川省,成都市,彭州市,103.7874819,31.24264752
彭州李四妹农家乐,住宿服务,住宿服务相关,住宿服务相关,宝山村7组(近彭白路),四川省,成都市,彭州市,103.7873968,31.24163285
彭州优氧美居,住宿服务,住宿服务相关,住宿服务相关,宝山村7组(近彭白路),四川省,成都市,彭州市,103.7881288,31.24077022
彭州峻熙小院,住宿服务,住宿服务相关,住宿服务相关,宝山村7组(近彭白路),四川省,成都市,彭州市,103.7876351,31.24132431
彭州梧桐小筑,住宿服务,住宿服务相关,住宿服务相关,宝山村7组(近彭白路),四川省,成都市,彭州市,103.7877673,31.24089167
彭州屹岚一家,住宿服务,住宿服务相关,住宿服务相关,龙门山镇宝山村7组(近彭白路),四川省,成都市,彭州市,103.788209,31.24064138
锦绿园,住宿服务,宾馆酒店,宾馆酒店,国坪路,四川省,成都市,彭州市,103.7952902,31.24659804
永红乡村酒店,住宿服务,住宿服务相关,住宿服务相关,龙门山镇团山村3组,四川省,成都市,彭州市,103.795142,31.24658282
成都彭州旭梅家氏院,住宿服务,住宿服务相关,住宿服务相关,彭州龙门山镇团山村2组64号,四川省,成都市,彭州市,103.7969689,31.24557009
彭州鑫宇山庄,住宿服务,住宿服务相关,住宿服务相关,龙门山镇风景区内(近彭白路),四川省,成都市,彭州市,103.7914645,31.24299892
彭州天龙沟鱼P,住宿服务,住宿服务相关,住宿服务相关,龙门山镇风景区内(近彭白路),四川省,成都市,彭州市,103.790991,31.23754163
彭州鑫麟源休闲庄,住宿服务,住宿服务相关,住宿服务相关,龙门山镇风景区内(近宝山二路),四川省,成都市,彭州市,103.788363,31.24332042
彭州幸福家园,住宿服务,住宿服务相关,住宿服务相关,龙门山镇风景区内(近彭白路),四川省,成都市,彭州市,103.7892304,31.23951128
彭州林佳小院,住宿服务,住宿服务相关,住宿服务相关,宝山村7组(近彭白路),四川省,成都市,彭州市,103.7886516,31.24032912
彭州清馨苑,住宿服务,住宿服务相关,住宿服务相关,宝山村7组(近彭白路),四川省,成都市,彭州市,103.7884833,31.2407707
彭州太阳湾休闲苑,住宿服务,住宿服务相关,住宿服务相关,宝山村7组(近彭白路),四川省,成都市,彭州市,103.7884524,31.23922034
彭州王七七人家,住宿服务,住宿服务相关,住宿服务相关,宝山村7组(近彭白路),四川省,成都市,彭州市,103.788236,31.24044151
彭州馨雅乡村酒店,住宿服务,住宿服务相关,住宿服务相关,龙门山镇风景区内(近彭白路),四川省,成都市,彭州市,103.7898313,31.23998891
彭州雪梅苑乡村农家,住宿服务,住宿服务相关,住宿服务相关,龙门山镇风景区内(近彭白路),四川省,成都市,彭州市,103.7990593,31.2463011
宝山温泉度假酒店,住宿服务,宾馆酒店,四星级宾馆,龙门山镇宝山村职工技术培训学校宝山分校斜对面,四川省,成都市,彭州市,103.773632,31.22806218
仙泉山麓温泉酒店(龙门山店),住宿服务,宾馆酒店,宾馆酒店,龙门山镇彭白路(政府旁),四川省,成都市,彭州市,103.7777298,31.23111788
太阳雨乡村酒店,住宿服务,宾馆酒店,宾馆酒店,龙门山镇宝山村彭白路,四川省,成都市,彭州市,103.7739492,31.22943486
德源山庄,住宿服务,宾馆酒店,宾馆酒店,,四川省,成都市,彭州市,103.7727962,31.23001654
天龙湾酒店,住宿服务,宾馆酒店,宾馆酒店,龙门山镇宝山村12组36号,四川省,成都市,彭州市,103.7727582,31.2302564
彭州富贵苑乡村酒店,住宿服务,住宿服务相关,住宿服务相关,彭白路宝山温泉度假酒店旁,四川省,成都市,彭州市,103.7732417,31.22781793
彭州贵仙乐休闲庄,住宿服务,住宿服务相关,住宿服务相关,龙门山镇风景区(近宝山二路),四川省,成都市,彭州市,103.7763014,31.22860753
彭州和坪雪艳山庄,住宿服务,住宿服务相关,住宿服务相关,龙门山镇风景区,四川省,成都市,彭州市,103.7758199,31.23074508
彭州富香园,住宿服务,住宿服务相关,住宿服务相关,彭州龙门山镇团山村9组24号,四川省,成都市,彭州市,103.7756948,31.23128872
彭州永花园,住宿服务,住宿服务相关,住宿服务相关,龙门山镇团三村2组41号,四川省,成都市,彭州市,103.7760481,31.23067534
刘二哥乡村酒店,住宿服务,宾馆酒店,宾馆酒店,龙门山镇宝山村8组,四川省,成都市,彭州市,103.7800161,31.23356329
彭州千叶树休闲苑,住宿服务,旅馆招待所,旅馆招待所,龙门山镇宝山村8组,四川省,成都市,彭州市,103.7805176,31.23469536
成都彭州世洪客栈,住宿服务,旅馆招待所,旅馆招待所,彭州宝山村4组,四川省,成都市,彭州市,103.7798429,31.23363806
成都彭州怡然小屋,住宿服务,旅馆招待所,旅馆招待所,宝山村5组,四川省,成都市,彭州市,103.7839217,31.23168876
三友居客栈,住宿服务,旅馆招待所,旅馆招待所,龙门山镇彭白路,四川省,成都市,彭州市,103.7879207,31.23640086
成都彭州馨香家苑,住宿服务,宾馆酒店,宾馆酒店,龙门山镇宝山村8组,四川省,成都市,彭州市,103.7811333,31.23459611
彭州雪月山庄,住宿服务,旅馆招待所,旅馆招待所,宝山村6组(近国税路),四川省,成都市,彭州市,103.7806418,31.23409177
彭州平祥苑,住宿服务,宾馆酒店,宾馆酒店,龙门山镇宝山村8组,四川省,成都市,彭州市,103.7806778,31.23403683
瑞苑,住宿服务,旅馆招待所,旅馆招待所,龙门山镇宝山村十组66号,四川省,成都市,彭州市,103.7787017,31.2316187
李陈农家小院,住宿服务,旅馆招待所,旅馆招待所,龙门山镇宝山村7组,四川省,成都市,彭州市,103.780877,31.23352829
宝山民宿,住宿服务,住宿服务相关,住宿服务相关,宝山一路附近,四川省,成都市,彭州市,103.7842209,31.23644102
彭州瑞阳农家乐,住宿服务,住宿服务相关,住宿服务相关,宝山村11组,四川省,成都市,彭州市,103.7810692,31.23418422
彭州唐家大院,住宿服务,住宿服务相关,住宿服务相关,宝山村4组,四川省,成都市,彭州市,103.7876414,31.23604464
彭州朝阳美居休闲苑住宿,住宿服务,住宿服务相关,住宿服务相关,龙门山镇宝山村山府佳园,四川省,成都市,彭州市,103.7806237,31.23409175
彭州石榴园,住宿服务,住宿服务相关,住宿服务相关,宝山村7组(近彭白路),四川省,成都市,彭州市,103.7847126,31.23563
彭州市龙门山镇墨香缘山庄,住宿服务,住宿服务相关,住宿服务相关,宝山村9组国税路45幢,四川省,成都市,彭州市,103.7788238,31.23294224
成都彭州锦绣农庄,住宿服务,住宿服务相关,住宿服务相关,宝山一路颜家大院东南侧70米,四川省,成都市,彭州市,103.7828223,31.23346262
彭州仁义苑,住宿服务,住宿服务相关,住宿服务相关,彭州龙门山镇宝山村9组,四川省,成都市,彭州市,103.7786486,31.23268816
彭州世程休闲苑,住宿服务,住宿服务相关,住宿服务相关,龙门山镇风景区内(近宝山一路),四川省,成都市,彭州市,103.7829654,31.23514005
彭州李杰休闲庄,住宿服务,住宿服务相关,住宿服务相关,宝山村9组64号,四川省,成都市,彭州市,103.7791792,31.23386322
彭州馨乐园,住宿服务,住宿服务相关,住宿服务相关,宝山村7组(近彭白路),四川省,成都市,彭州市,103.7822655,31.23659456
彭州都家木楼居,住宿服务,住宿服务相关,住宿服务相关,宝山村7组(锦江区),四川省,成都市,彭州市,103.7810222,31.23322359
彭州静香苑客栈,住宿服务,住宿服务相关,住宿服务相关,彭州龙门山镇宝山村7组,四川省,成都市,彭州市,103.7813566,31.23338791
彭州缘来逸家宾馆,住宿服务,住宿服务相关,住宿服务相关,彭州龙门山镇宝山村7组,四川省,成都市,彭州市,103.7811413,31.23378348
彭州任家大院农家乐,住宿服务,住宿服务相关,住宿服务相关,龙门山镇宝山村9组,四川省,成都市,彭州市,103.7806828,31.23384892
彭州林家小院,住宿服务,住宿服务相关,住宿服务相关,龙门山镇宝山村8组,四川省,成都市,彭州市,103.7806277,31.23408875
彭州揽月居,住宿服务,住宿服务相关,住宿服务相关,国税路37号(哥俩好农家乐东北50米),四川省,成都市,彭州市,103.7803825,31.23368165
彭州馨悦居,住宿服务,住宿服务相关,住宿服务相关,龙门山镇风景区内(近彭白路),四川省,成都市,彭州市,103.7896983,31.2341573
彭州香樟林,住宿服务,住宿服务相关,住宿服务相关,龙门山镇风景区内(近彭白路),四川省,成都市,彭州市,103.788757,31.23448585
彭州小鱼洞宇洁农家乐,住宿服务,住宿服务相关,住宿服务相关,彭白路太子村2组20号(太子村卫生站北1000米),四川省,成都市,彭州市,103.7680033,31.21715747
成都彭州安澜山地温泉度假庄园,住宿服务,住宿服务相关,住宿服务相关,白水河宝山旅游景区内,四川省,成都市,彭州市,103.7626881,31.22610297
天宝温泉酒店,住宿服务,宾馆酒店,五星级宾馆,龙门山镇宝山村,四川省,成都市,彭州市,103.7713062,31.22626893
彭州小鱼洞蓬莱客栈,住宿服务,旅馆招待所,旅馆招待所,太子村1组45号(近彭白路),四川省,成都市,彭州市,103.7689338,31.21993789
太子宾馆(彭白路),住宿服务,宾馆酒店,宾馆酒店,彭白路东50米,四川省,成都市,彭州市,103.7705748,31.22360053
彭州小鱼洞陈二姐小院,住宿服务,旅馆招待所,旅馆招待所,彭白路太子村1组23号,四川省,成都市,彭州市,103.7697012,31.22102999
成都幸福花园农家乐,住宿服务,住宿服务相关,住宿服务相关,龙门山镇彭白路天宝温泉酒店东50米,四川省,成都市,彭州市,103.7720148,31.22621856
怡家小院,住宿服务,住宿服务相关,住宿服务相关,龙门山镇天宝温泉对面,四川省,成都市,彭州市,103.7718536,31.22673019
彭州小鱼洞丽色天香农家乐,住宿服务,住宿服务相关,住宿服务相关,太子村190号(近彭白路),四川省,成都市,彭州市,103.7690289,31.21912534
彭州小鱼洞鑫鑫农家乐,住宿服务,住宿服务相关,住宿服务相关,太子村194号(近彭白路),四川省,成都市,彭州市,103.7695962,31.21963854
彭州小鱼洞小牟农家乐,住宿服务,住宿服务相关,住宿服务相关,太子村195号(近彭白路),四川省,成都市,彭州市,103.7688907,31.2198339
彭州鸿洋休闲苑,住宿服务,住宿服务相关,住宿服务相关,龙门山镇彭白路天宝温泉酒店东50米,四川省,成都市,彭州市,103.7724701,31.2263499
彭州小鱼洞快乐老家,住宿服务,住宿服务相关,住宿服务相关,太子村211号(近彭白路),四川省,成都市,彭州市,103.7694441,31.21951748
彭州小鱼洞红运休闲庄,住宿服务,住宿服务相关,住宿服务相关,彭白路太子村246号(太子村卫生站北500米),四川省,成都市,彭州市,103.7699294,31.22211268
彭州小鱼洞艳艳农家乐,住宿服务,住宿服务相关,住宿服务相关,彭白路太子村2组78号新红农家乐小区内(太子村卫生站北500米),四川省,成都市,彭州市,103.7684905,31.21833629
彭州月亮山鱼庄,住宿服务,住宿服务相关,住宿服务相关,国坪村2组(龙门风景区内),四川省,成都市,彭州市,103.7788795,31.21947639
彭州小鱼洞锦凤农庄,住宿服务,住宿服务相关,住宿服务相关,中坝村5组(鲁家坡东面),四川省,成都市,彭州市,103.7424432,31.21512358
彭州小鱼洞铭园农家乐,住宿服务,住宿服务相关,住宿服务相关,中坝村1组(花花庙北面),四川省,成都市,彭州市,103.7420754,31.21533756
彭州小鱼洞如意居,住宿服务,住宿服务相关,住宿服务相关,中坝村2组(花花庙北面),四川省,成都市,彭州市,103.7435207,31.21408085
彭州小鱼洞芙蓉居农家乐,住宿服务,住宿服务相关,住宿服务相关,中坝村5组(花花庙北面),四川省,成都市,彭州市,103.7430009,31.21487358
彭州小鱼洞银杏园农家乐,住宿服务,住宿服务相关,住宿服务相关,中坝村5组(花花庙北面),四川省,成都市,彭州市,103.7431639,31.21450272
彭州小鱼洞思源人家,住宿服务,住宿服务相关,住宿服务相关,中坝村5组(鲁家坡东面),四川省,成都市,彭州市,103.7399436,31.21343001
彭州小鱼洞雅居苑,住宿服务,住宿服务相关,住宿服务相关,中坝村1组(花花庙北面),四川省,成都市,彭州市,103.7430639,31.21470465
彭州小鱼洞龙源山庄,住宿服务,住宿服务相关,住宿服务相关,小鱼洞镇1号桥(黑泥沟东面),四川省,成都市,彭州市,103.7407714,31.20806427
新红家园,住宿服务,旅馆招待所,旅馆招待所,小鱼洞镇太子村1组,四川省,成都市,彭州市,103.7649318,31.21106819
太子民宿,住宿服务,旅馆招待所,旅馆招待所,小渔洞镇彭白路,四川省,成都市,彭州市,103.7624058,31.20702461
彭州小鱼洞小家巴适住宿,住宿服务,旅馆招待所,旅馆招待所,彭白路太子村5组85号,四川省,成都市,彭州市,103.7624208,31.20747141
彭州小鱼洞兄弟鱼庄,住宿服务,宾馆酒店,宾馆酒店,彭白路太子村106号(太子村村民委员会旁),四川省,成都市,彭州市,103.7624517,31.20915564
成都彭州朋朋农家乐,住宿服务,旅馆招待所,旅馆招待所,小鱼洞镇太子村1组,四川省,成都市,彭州市,103.7648948,31.21096722
成都琪乐居农家院,住宿服务,住宿服务相关,住宿服务相关,彭白路东50米,四川省,成都市,彭州市,103.762967,31.20757966
胖娃鱼庄,住宿服务,住宿服务相关,住宿服务相关,太子村10组91号,四川省,成都市,彭州市,103.7623527,31.20808609
彭州奇鑫家苑住宿,住宿服务,住宿服务相关,住宿服务相关,小鱼洞镇太子村四组,四川省,成都市,彭州市,103.7649628,31.21122814
吴家院子,住宿服务,住宿服务相关,住宿服务相关,彭白路小鱼洞太子村105号(红爷庙东面),四川省,成都市,彭州市,103.7661443,31.21434046
彭州小鱼洞香泽苑农家乐,住宿服务,住宿服务相关,住宿服务相关,彭白路太子村3组21号(卫生站斜对面300米),四川省,成都市,彭州市,103.7663264,31.21476639
彭州小鱼洞卿家大院,住宿服务,住宿服务相关,住宿服务相关,彭白路太子村10组81号(静心花园对面),四川省,成都市,彭州市,103.7624058,31.20724451
彭州小鱼洞七妹鱼庄,住宿服务,住宿服务相关,住宿服务相关,彭白路太子村103号(红爷庙东面),四川省,成都市,彭州市,103.7635812,31.20942614
彭州小鱼洞瑶瑶农家乐,住宿服务,住宿服务相关,住宿服务相关,太子村196号(近彭白路),四川省,成都市,彭州市,103.7634841,31.21028768
彭州小鱼洞小杨休闲庄,住宿服务,住宿服务相关,住宿服务相关,彭白路太子村5组89号(太子村村民议事会南500米河边第二家),四川省,成都市,彭州市,103.7625708,31.20820915
彭州小鱼洞滴洞沟温馨家园农家乐,住宿服务,住宿服务相关,住宿服务相关,彭白路太子村5组90号(太子村村民议事会南500米河边第三家),四川省,成都市,彭州市,103.7625778,31.2080932
彭州小鱼洞波涛园农家乐,住宿服务,住宿服务相关,住宿服务相关,彭白路太子村4组35号(卫生站斜对面300米),四川省,成都市,彭州市,103.765581,31.21338453
彭州自游人归园田居住宿,住宿服务,住宿服务相关,住宿服务相关,小鱼洞镇彭白路太子村3组,四川省,成都市,彭州市,103.7668176,31.21574827
彭州小鱼洞吴家院农家乐,住宿服务,住宿服务相关,住宿服务相关,太子村105号,四川省,成都市,彭州市,103.7635582,31.20923222
彭州小鱼洞瑞朋人家,住宿服务,住宿服务相关,住宿服务相关,彭白路太子村60号(红爷庙东面),四川省,成都市,彭州市,103.7652149,31.21188199
彭州姊妹农家乐,住宿服务,住宿服务相关,住宿服务相关,太子村1组(近彭白路),四川省,成都市,彭州市,103.762976,31.20762864
彭州龙门驿站,住宿服务,住宿服务相关,住宿服务相关,小渔洞镇太子村12组(近彭白路),四川省,成都市,彭州市,103.7630961,31.20719991
彭州小鱼洞何家大院冷水鱼农家乐,住宿服务,住宿服务相关,住宿服务相关,彭白路太子村5组86号(太子村民议事会斜对面500米河边第一家),四川省,成都市,彭州市,103.7690651,31.21366988
阿讷西假日酒店,住宿服务,宾馆酒店,宾馆酒店,白鹿中法风情小镇樵人街15号,四川省,成都市,彭州市,103.9125587,31.20734402
轩尼诗,住宿服务,宾馆酒店,宾馆酒店,兴鹿街100号,四川省,成都市,彭州市,103.9129523,31.20818239
白鹿镇鹿缘酒店,住宿服务,宾馆酒店,宾馆酒店,彭州白鹿镇兴鹿街157号,四川省,成都市,彭州市,103.913307,31.20895681
清雅阁,住宿服务,旅馆招待所,旅馆招待所,白鹿法式风情小镇清河街75号(卢瓦尔城堡前行100米),四川省,成都市,彭州市,103.9144988,31.21054331
时光小筑,住宿服务,旅馆招待所,旅馆招待所,白鹿镇兴鹿街110-112号,四川省,成都市,彭州市,103.9130892,31.20829726
成都索菲亚酒店,住宿服务,宾馆酒店,宾馆酒店,白鹿镇兴鹿街107号,四川省,成都市,彭州市,103.9128264,31.20835439
埃菲尔旅馆,住宿服务,旅馆招待所,旅馆招待所,白鹿镇兴鹿街132号,四川省,成都市,彭州市,103.9133599,31.20872689
成都彭州欣怡酒店,住宿服务,宾馆酒店,宾馆酒店,白鹿镇樵人街61-65号,四川省,成都市,彭州市,103.9134379,31.20824207
迎宾酒店,住宿服务,宾馆酒店,宾馆酒店,白鹿镇云林巷64-68号,四川省,成都市,彭州市,103.9123808,31.20835564
望江客栈,住宿服务,旅馆招待所,旅馆招待所,白鹿风情小镇清河街67号,四川省,成都市,彭州市,103.9144349,31.21034145
邻家住宿,住宿服务,旅馆招待所,旅馆招待所,小夫路8号附近,四川省,成都市,彭州市,103.9134528,31.20934754
千喜饭店,住宿服务,宾馆酒店,宾馆酒店,白鹿镇樵人街7号,四川省,成都市,彭州市,103.91433,31.20914907
爱尚驴途,住宿服务,住宿服务相关,住宿服务相关,小夫路10号附近,四川省,成都市,彭州市,103.9135288,31.2091196
走走停停精品客栈,住宿服务,住宿服务相关,住宿服务相关,清河街8-10号,四川省,成都市,彭州市,103.914354,31.20939594
法兰情缘客栈,住宿服务,住宿服务相关,住宿服务相关,白鹿镇樵人街80号,四川省,成都市,彭州市,103.9135158,31.20816006
彭州巴黎驿站,住宿服务,住宿服务相关,住宿服务相关,中法风情小镇樵人街82号(香榭丽酒店北20米),四川省,成都市,彭州市,103.9130512,31.20789347
郭家小区民宿,住宿服务,住宿服务相关,住宿服务相关,小夫路西50米,四川省,成都市,彭州市,103.9178892,31.21350242
成都雅居阁酒店,住宿服务,住宿服务相关,住宿服务相关,兴鹿街137号,四川省,成都市,彭州市,103.9130472,31.20858715
彭州白鹿镇银杏小憩,住宿服务,住宿服务相关,住宿服务相关,白鹿镇清河街8-10号老政府银杏树旁50米斜坡处,四川省,成都市,彭州市,103.9141722,31.20922914
成都蜗牛时光酒店,住宿服务,住宿服务相关,住宿服务相关,白鹿镇中法风情小镇樵人街110号,四川省,成都市,彭州市,103.9127465,31.20765476
彭州枫丹白露酒店,住宿服务,住宿服务相关,住宿服务相关,兴鹿街141号,四川省,成都市,彭州市,103.9131751,31.208731
彭州聚友休闲庄,住宿服务,住宿服务相关,住宿服务相关,白鹿镇白鹿场兴鹿街175号(欧鹿休闲庄南面30米),四川省,成都市,彭州市,103.9137615,31.20964021
彭州鹿膳园客栈,住宿服务,住宿服务相关,住宿服务相关,白鹿镇漓源街11-17号,四川省,成都市,彭州市,103.9144069,31.21037245
成都白鹿镇梧桐语休闲庄住宿,住宿服务,住宿服务相关,住宿服务相关,清河街121号,四川省,成都市,彭州市,103.9146257,31.21003247
彭州随心酒店,住宿服务,住宿服务相关,住宿服务相关,白鹿镇兴鹿街137号,四川省,成都市,彭州市,103.9130782,31.20871107
彭州四季之家客栈,住宿服务,住宿服务相关,住宿服务相关,白鹿镇樵人街44、46、48号,四川省,成都市,彭州市,103.9124858,31.20727509
梧桐语休闲庄,住宿服务,住宿服务相关,住宿服务相关,清河街121号,四川省,成都市,彭州市,103.9146617,31.21004244
塔尔西出租屋,住宿服务,住宿服务相关,住宿服务相关,欣怡酒店(小夫路西),四川省,成都市,彭州市,103.91333,31.20797126
逸闲居,住宿服务,住宿服务相关,住宿服务相关,兴鹿街162号,四川省,成都市,彭州市,103.9131111,31.20910486
柳泉休闲庄(白鹿店),住宿服务,住宿服务相关,住宿服务相关,白鹿镇金桥村一组兴鹿街157号,四川省,成都市,彭州市,103.913316,31.20906076
欣瑞农家乐,住宿服务,住宿服务相关,住宿服务相关,白鹿镇清河街111号,四川省,成都市,彭州市,103.9147646,31.21023828
彭州白鹿镇玲珑住宿,住宿服务,住宿服务相关,住宿服务相关,彭州白鹿镇兴鹿街169号,四川省,成都市,彭州市,103.9129184,31.20725185
彭州香榭丽酒店,住宿服务,住宿服务相关,住宿服务相关,白鹿镇樵人街97号,四川省,成都市,彭州市,103.9131352,31.2077145
彭州兴鹿出租屋,住宿服务,住宿服务相关,住宿服务相关,白鹿镇兴鹿街162-168号,四川省,成都市,彭州市,103.913309,31.20896081
黎洋出租屋(白鹿店),住宿服务,住宿服务相关,住宿服务相关,彭州成都彭州市白鹿镇兴鹿街108号,四川省,成都市,彭州市,103.9129873,31.20821436
彭州鸢尾花乡村酒店,住宿服务,住宿服务相关,住宿服务相关,白鹿镇兴鹿街5号(白鹿广场旁),四川省,成都市,彭州市,103.9117174,31.2073155
玉带桥客栈,住宿服务,住宿服务相关,住宿服务相关,罗中公路,四川省,成都市,彭州市,103.7431214,31.20312305
彭州小鱼洞镇二桥新苑庄,住宿服务,住宿服务相关,住宿服务相关,中坝村1组11号,四川省,成都市,彭州市,103.7446048,31.20290991
彭州小鱼洞柯家庄度假村,住宿服务,住宿服务相关,住宿服务相关,罗阳村二组(黑泥沟东面),四川省,成都市,彭州市,103.7413202,31.20540837
彭州小鱼洞蓝天苑,住宿服务,住宿服务相关,住宿服务相关,中坝村1组(花花庙北面),四川省,成都市,彭州市,103.7452386,31.20267994
彭州小鱼洞涛苑农家乐,住宿服务,住宿服务相关,住宿服务相关,复兴场社区2组(福兴山庄北面),四川省,成都市,彭州市,103.7548543,31.19912834
祥龙溪生态农庄,住宿服务,住宿服务相关,住宿服务相关,彭白路太子村88号(小鱼洞镇府北1公里),四川省,成都市,彭州市,103.762743,31.20569742
花田居,住宿服务,宾馆酒店,宾馆酒店,书院路,四川省,成都市,彭州市,103.9081981,31.20085317
欧漫闲情假日港湾,住宿服务,宾馆酒店,宾馆酒店,白鹿镇左岸路116,四川省,成都市,彭州市,103.9092503,31.20455
高山人家客栈(白鹿镇店),住宿服务,旅馆招待所,旅馆招待所,白鹿镇左岸路108-112号游客接待中心旁(白鹿河畔),四川省,成都市,彭州市,103.9093492,31.20454196
红月风情驿站,住宿服务,旅馆招待所,旅馆招待所,白鹿中法小镇游客接待中心边左岸路96号-106号,四川省,成都市,彭州市,103.9091844,31.20436211
彭州市鹿港风情假日客栈,住宿服务,旅馆招待所,旅馆招待所,白鹿镇左岸路88号,四川省,成都市,彭州市,103.9091984,31.20414221
逸览芳庭主题酒店,住宿服务,宾馆酒店,宾馆酒店,五龙路12号,四川省,成都市,彭州市,103.9104335,31.20442252
阳光民宿,住宿服务,旅馆招待所,旅馆招待所,小夫路西150米,四川省,成都市,彭州市,103.9105853,31.20628956
成都彭州白鹿镇鹿园茶庄住宿,住宿服务,宾馆酒店,宾馆酒店,兴鹿街,四川省,成都市,彭州市,103.910977,31.20681312
鹿之乐客栈,住宿服务,住宿服务相关,住宿服务相关,白鹿镇清河街60号,四川省,成都市,彭州市,103.912251,31.20622572
茶庄酒店,住宿服务,住宿服务相关,住宿服务相关,白鹿镇左岸路178-182号,四川省,成都市,彭州市,103.9101317,31.20569606
彭州鑫悦出租屋,住宿服务,住宿服务相关,住宿服务相关,白鹿镇兴鹿街116号(时光小筑对面),四川省,成都市,彭州市,103.9119612,31.2068206
彭州蜀味香山庄客栈,住宿服务,住宿服务相关,住宿服务相关,左岸路168号,四川省,成都市,彭州市,103.9100557,31.20560914
美客来,住宿服务,住宿服务相关,住宿服务相关,白鹿镇白茶巷119一122号(白鹿镇卫生院后面),四川省,成都市,彭州市,103.910951,31.20643631
蟠龙谷客栈,住宿服务,旅馆招待所,旅馆招待所,复兴路75号,四川省,成都市,彭州市,103.756812,31.19013922
华营租住栈,住宿服务,旅馆招待所,旅馆招待所,丙人北街25号,四川省,成都市,彭州市,103.7561579,31.18947733
彭州吕氏春秋农家乐,住宿服务,住宿服务相关,住宿服务相关,彭州小鱼洞镇太子村1组,四川省,成都市,彭州市,103.7565998,31.19332362
彭州小鱼洞王鸭子休闲庄,住宿服务,住宿服务相关,住宿服务相关,彭白路丙人北街62号(邓家大院对面),四川省,成都市,彭州市,103.7563559,31.19016906
彭州小鱼洞桥头老家农家乐,住宿服务,住宿服务相关,住宿服务相关,罗阳村8组17号(小鱼洞大桥遗址北800米),四川省,成都市,彭州市,103.7614491,31.19222115
彭州凌云阁酒店,住宿服务,宾馆酒店,宾馆酒店,书院路白鹿中法传统风情小镇,四川省,成都市,彭州市,103.9105729,31.19191741
鹿回头酒店,住宿服务,宾馆酒店,宾馆酒店,小夫路附近,四川省,成都市,彭州市,103.9098494,31.19254745
彭州乐家民宿,住宿服务,住宿服务相关,住宿服务相关,白鹿镇小夫路小都巷13-15号,四川省,成都市,彭州市,103.9098764,31.19142198
成都彭州白鹿镇鹿园茶庄住宿,住宿服务,住宿服务相关,住宿服务相关,塘坝二路与小夫路交叉口北50米,四川省,成都市,彭州市,103.9099464,31.19209862
成都欣园山庄,住宿服务,住宿服务相关,住宿服务相关,彭州白鹿镇塘坝村5组,四川省,成都市,彭州市,103.9302393,31.19267973
彭州朋朋农家乐,住宿服务,住宿服务相关,住宿服务相关,太子村1组(近彭白路),四川省,成都市,彭州市,103.7583346,31.18318714
彭州皂桷树乡村酒店,住宿服务,住宿服务相关,住宿服务相关,小渔洞镇江桥村6组彭白路32号(近有园鱼庄),四川省,成都市,彭州市,103.7820378,31.17772186
尚河居酒店,住宿服务,宾馆酒店,宾馆酒店,万白路与小夫路交叉口西南150米,四川省,成都市,彭州市,103.9061762,31.17935223
江桥乡村酒店,住宿服务,宾馆酒店,宾馆酒店,江桥村6组1号,四川省,成都市,彭州市,103.7844728,31.17690325
川熊猫,住宿服务,宾馆酒店,宾馆酒店,榕城路1547号,四川省,成都市,彭州市,103.8003367,31.17236065
缘聚田园乡村酒店,住宿服务,住宿服务相关,住宿服务相关,黄花路附近,四川省,成都市,彭州市,103.8094209,31.17384347
彭州旺雄公寓,住宿服务,住宿服务相关,住宿服务相关,通济镇三明路130号(近通济镇客运中心),四川省,成都市,彭州市,103.8159987,31.17007527
彭州堂客家国际青年旅舍,住宿服务,住宿服务相关,住宿服务相关,白鹿镇小夫路花牌村停车场旁边,四川省,成都市,彭州市,103.895652,31.17055419
彭州青春农家乐,住宿服务,住宿服务相关,住宿服务相关,白鹿镇清河街119号,四川省,成都市,彭州市,103.8971969,31.17243647
彭州美菱公寓,住宿服务,住宿服务相关,住宿服务相关,通济镇市场路66号美菱厨卫楼上(近闽东路),四川省,成都市,彭州市,103.8272163,31.16125069
彭州聚缘庄乡村酒店,住宿服务,住宿服务相关,住宿服务相关,通济镇市场路118号,四川省,成都市,彭州市,103.8276772,31.16129354
全友客栈,住宿服务,旅馆招待所,旅馆招待所,通济镇仙溪北街48号,四川省,成都市,彭州市,103.8303065,31.1606488
彭州紫阳花民宿,住宿服务,旅馆招待所,旅馆招待所,通济镇滨江路65号,四川省,成都市,彭州市,103.8301182,31.15852253
旺雄公寓,住宿服务,旅馆招待所,旅馆招待所,通济镇滨江街130号,四川省,成都市,彭州市,103.8322855,31.15943412
清静出租屋,住宿服务,旅馆招待所,旅馆招待所,仙溪北街与崇德路交叉口东北200米,四川省,成都市,彭州市,103.8313215,31.1618581
聚雅出租屋,住宿服务,旅馆招待所,旅馆招待所,仙溪北街136-138号附近,四川省,成都市,彭州市,103.832081,31.16036527
名雅客栈,住宿服务,住宿服务相关,住宿服务相关,仙溪北街136-138号,四川省,成都市,彭州市,103.8322594,31.16070943
实惠公寓,住宿服务,住宿服务相关,住宿服务相关,"通济镇崇德路108号,近景山路",四川省,成都市,彭州市,103.8293225,31.16196729
三姐宾馆(思文街),住宿服务,宾馆酒店,宾馆酒店,思文街161号附近,四川省,成都市,彭州市,103.8615073,31.16164425
高山源泉农家乐,住宿服务,住宿服务相关,住宿服务相关,通济镇小夫路天生桥村天生桥村委会旁,四川省,成都市,彭州市,103.881468,31.16435267
彭州叶三姐农家乐,住宿服务,旅馆招待所,旅馆招待所,龙门山镇团结8组26号,四川省,成都市,彭州市,103.9530184,31.1606789
彭州转角农家乐,住宿服务,住宿服务相关,住宿服务相关,彭州宝山村4组,四川省,成都市,彭州市,103.9530184,31.16068589
彭州长寿山庄农家乐,住宿服务,住宿服务相关,住宿服务相关,龙门山镇凤鸣湖团山8组,四川省,成都市,彭州市,103.9530194,31.16067989
尚颐园酒店,住宿服务,宾馆酒店,宾馆酒店,通济镇官田村樱花谷,四川省,成都市,彭州市,103.8598363,31.15016771
彭州薰衣草客栈,住宿服务,住宿服务相关,住宿服务相关,白鹿镇中法风情小镇,四川省,成都市,彭州市,103.8593216,31.15017696
樱花谷尚颐园,住宿服务,住宿服务相关,住宿服务相关,彭州通济镇官田村樱花谷,四川省,成都市,彭州市,103.8635135,31.1523807
鑫河茶园出租屋,住宿服务,旅馆招待所,旅馆招待所,会元街与湔红路交叉口西150米,四川省,成都市,彭州市,104.0035831,31.14713281
龙都山庄,住宿服务,宾馆酒店,宾馆酒店,龙池镇龙池国家森林公园,四川省,成都市,都江堰市,103.5788473,31.13785608
驿家人客栈,住宿服务,旅馆招待所,旅馆招待所,白八路东50米,四川省,成都市,都江堰市,103.6867756,31.13779039
左邻右舍乡村酒店,住宿服务,宾馆酒店,宾馆酒店,白八路东50米,四川省,成都市,都江堰市,103.6871218,31.1381006
都江堰虹茶馆住宿,住宿服务,住宿服务相关,住宿服务相关,都江堰虹口乡瓦子坪风情小镇内,四川省,成都市,都江堰市,103.6877373,31.13914096
都江堰虹口高山居,住宿服务,住宿服务相关,住宿服务相关,虹口乡光荣村7组,四川省,成都市,都江堰市,103.6893055,31.14051645
都江堰林涧忆客栈,住宿服务,住宿服务相关,住宿服务相关,虹口乡瓦子坪风情小镇虹口新村24栋1号,四川省,成都市,都江堰市,103.7280848,31.14258109
成都彭州桂花苑,住宿服务,旅馆招待所,旅馆招待所,彭州龙门山镇团山村8组59号,四川省,成都市,彭州市,103.8812387,31.14518726
望月阁,住宿服务,宾馆酒店,宾馆酒店,龙门山镇宝山村8组,四川省,成都市,彭州市,103.88022,31.14432491
甘家木楼居,住宿服务,旅馆招待所,旅馆招待所,龙门山镇宝山村7组,四川省,成都市,彭州市,103.8802089,31.14512349
彭州山乡木楼居,住宿服务,旅馆招待所,旅馆招待所,龙门山镇宝山村7组,四川省,成都市,彭州市,103.8812407,31.14517926
彭州平祥苑,住宿服务,住宿服务相关,住宿服务相关,龙门山镇宝山村6组14号,四川省,成都市,彭州市,103.8812377,31.14518625
彭州后花园休闲庄,住宿服务,住宿服务相关,住宿服务相关,宝山村8组(近太阳湾),四川省,成都市,彭州市,103.8812807,31.14528224
彭州乡里人家,住宿服务,住宿服务相关,住宿服务相关,彭州宝山村8组,四川省,成都市,彭州市,103.8812407,31.14518126
彭州光德苑,住宿服务,住宿服务相关,住宿服务相关,彭州宝山村3组,四川省,成都市,彭州市,103.8806043,31.14381248
彭州皂楠树乡村酒店,住宿服务,住宿服务相关,住宿服务相关,小鱼洞镇江桥村6组,四川省,成都市,彭州市,103.8812377,31.14518625
玉龙假日酒店,住宿服务,宾馆酒店,宾馆酒店,楠林路,四川省,成都市,彭州市,103.9361821,31.14139352
彭州龙门阵住宿,住宿服务,住宿服务相关,住宿服务相关,红岩镇会元街91号,四川省,成都市,彭州市,104.0036011,31.14460806
彭州林家小院,住宿服务,住宿服务相关,住宿服务相关,龙门山镇宝山村8组,四川省,成都市,彭州市,104.011084,31.13730334
龙城大酒店,住宿服务,宾馆酒店,宾馆酒店,,四川省,成都市,都江堰市,103.5772666,31.13567098
都江堰和谐人家农家乐,住宿服务,住宿服务相关,住宿服务相关,虹口乡高原村四组,四川省,成都市,都江堰市,103.6737609,31.12963299
都江堰兄弟山庄农家乐,住宿服务,住宿服务相关,住宿服务相关,虹口乡高原新村三组,四川省,成都市,都江堰市,103.6737629,31.12965697
虹口思龙山庄,住宿服务,住宿服务相关,住宿服务相关,高原新村,四川省,成都市,都江堰市,103.6739315,31.12934781
都江堰青城山成都虹口兄弟河鲜客栈,住宿服务,住宿服务相关,住宿服务相关,都江堰高原新村,四川省,成都市,都江堰市,103.673713,31.12913434
都江堰虹口邓家大院,住宿服务,住宿服务相关,住宿服务相关,高原新村(高原新村大桥头),四川省,成都市,都江堰市,103.6742965,31.12964096
和谐人家客栈农家乐,住宿服务,住宿服务相关,住宿服务相关,都江堰虹口乡高原村四组2号,四川省,成都市,都江堰市,103.6737619,31.12963299
王子饭店,住宿服务,宾馆酒店,宾馆酒店,虹口乡瓦子坪风情小镇内,四川省,成都市,都江堰市,103.6863367,31.13696761
玲珑民宿,住宿服务,住宿服务相关,住宿服务相关,白八路东50米,四川省,成都市,都江堰市,103.6860254,31.13656039
都江堰虹口优客之家,住宿服务,住宿服务相关,住宿服务相关,虹口乡瓦子坪小区,四川省,成都市,都江堰市,103.6849351,31.13508814
都江堰溪岭雪酒店,住宿服务,宾馆酒店,宾馆酒店,虹口乡光荣村4组,四川省,成都市,都江堰市,103.692691,31.13357116
寿阳泉乡村酒店,住宿服务,宾馆酒店,宾馆酒店,彭白路东50米,四川省,成都市,彭州市,103.8470186,31.13645248
风情居,住宿服务,旅馆招待所,旅馆招待所,,四川省,成都市,都江堰市,103.5666921,31.12430576
都江堰山水人佳休闲庄,住宿服务,住宿服务相关,住宿服务相关,虹口乡红色村2组(近飞红路),四川省,成都市,都江堰市,103.6539498,31.11845539
山水邻居,住宿服务,宾馆酒店,宾馆酒店,白八路北50米,四川省,成都市,都江堰市,103.6640139,31.11864347
喜来乐客栈,住宿服务,宾馆酒店,宾馆酒店,白八路西50米,四川省,成都市,都江堰市,103.6657495,31.11953668
都江堰虹口静苑乡村农家乐,住宿服务,住宿服务相关,住宿服务相关,虹口景区,四川省,成都市,都江堰市,103.6641605,31.11783062
虹都水岸酒店,住宿服务,宾馆酒店,四星级宾馆,飞虹路高原大桥桥头,四川省,成都市,都江堰市,103.6751236,31.12658199
都江堰虹口矿泉山庄,住宿服务,住宿服务相关,住宿服务相关,白八路与飞虹路交叉口西南150米,四川省,成都市,都江堰市,103.6741632,31.1226649
都江堰虹口秀水山庄,住宿服务,住宿服务相关,住宿服务相关,虹口乡高原大桥头,四川省,成都市,都江堰市,103.6765491,31.12536292
贵临驿站,住宿服务,住宿服务相关,住宿服务相关,新兴镇海窝子社区鹿坪街64号,四川省,成都市,彭州市,103.8458181,31.12128839
桥头堡客栈,住宿服务,住宿服务相关,住宿服务相关,海窝子顺瞿街97号附近,四川省,成都市,彭州市,103.8477476,31.12129269
海窝子客栈,住宿服务,住宿服务相关,住宿服务相关,海窝子瞿上街与鹿坪街交叉口西北50米,四川省,成都市,彭州市,103.8473228,31.12133494
成都闲庭民宿,住宿服务,住宿服务相关,住宿服务相关,新兴镇瞿上街1号,四川省,成都市,彭州市,103.8506354,31.12625889
稻亚人家客栈,住宿服务,住宿服务相关,住宿服务相关,新兴镇梯云街215号(海窝子瞿上街佛林寺旁),四川省,成都市,彭州市,103.8495265,31.12582129
成都华月山庄,住宿服务,住宿服务相关,住宿服务相关,新兴镇海窝子,四川省,成都市,彭州市,103.8496237,31.12538268
彭州庆丰客栈,住宿服务,住宿服务相关,住宿服务相关,海窝子古镇鹿坪街中场(余老五家具铺直行150米),四川省,成都市,彭州市,103.8489116,31.12208823
庙坝绿苑,体育休闲服务,休闲场所,休闲场所|住宿服务,虹口乡红色村四组,四川省,成都市,都江堰市,103.6352371,31.10741033
山景豪宜酒店,住宿服务,宾馆酒店,宾馆酒店,虹口乡桐麻坎街1号,四川省,成都市,都江堰市,103.650987,31.11398011
玖天精品客栈,住宿服务,旅馆招待所,旅馆招待所,龙池国家森林公园,四川省,成都市,都江堰市,103.5567684,31.1066963
雅客山居,住宿服务,旅馆招待所,旅馆招待所|住宿服务,虹口乡庙坝,四川省,成都市,都江堰市,103.6362521,31.10704404
江南忆庄园酒店,住宿服务,宾馆酒店,宾馆酒店,虹口乡白八路庙坝,四川省,成都市,都江堰市,103.636329,31.10474517
庙坝休闲山庄,住宿服务,宾馆酒店,宾馆酒店,虹口乡忆江南假日酒店西北60米,四川省,成都市,都江堰市,103.6360954,31.10575697
绿叶山庄,住宿服务,宾馆酒店,宾馆酒店,虹口乡庙坝左手上行60米,四川省,成都市,都江堰市,103.6366483,31.10667765
成都都江堰虹口茗香苑客栈,住宿服务,旅馆招待所,旅馆招待所,乡庙坝红色村5组,四川省,成都市,都江堰市,103.6350815,31.10527571
雅吉农家乐,住宿服务,宾馆酒店,宾馆酒店,虹口乡庙坝,四川省,成都市,都江堰市,103.6352232,31.10656581
爱德森酒店(虹口店),住宿服务,宾馆酒店,宾馆酒店,红色村4组28号,四川省,成都市,都江堰市,103.6359408,31.10573221
成都唐家院子客栈,住宿服务,旅馆招待所,旅馆招待所,虹口乡庙坝红色村五组,四川省,成都市,都江堰市,103.6361613,31.10671735
松桂园,住宿服务,宾馆酒店,宾馆酒店|体育休闲服务,庙坝大桥50米,四川省,成都市,都江堰市,103.6363988,31.10642316
成都都江堰虹口绿水缘农庄,住宿服务,住宿服务相关,住宿服务相关,庙坝红色村5组,四川省,成都市,都江堰市,103.6352062,31.1060771
庐虹韵,住宿服务,住宿服务相关,住宿服务相关,龙池镇白八路红色社区5组3号,四川省,成都市,都江堰市,103.6351104,31.10610322
都江堰唐永忠家宴客栈,住宿服务,住宿服务相关,住宿服务相关,虹口乡观漂园3栋1号,四川省,成都市,都江堰市,103.633922,31.1009647
都江堰漂流年香园农家乐,住宿服务,住宿服务相关,住宿服务相关,虹口乡庙坝红色村4组15号,四川省,成都市,都江堰市,103.6353839,31.10613481
惠强山庄,住宿服务,住宿服务相关,住宿服务相关,虹口乡庙坝红色村村委会(近虹口漂流),四川省,成都市,都江堰市,103.6353639,31.10603189
老百姓山庄,体育休闲服务,休闲场所,休闲场所|住宿服务,都江堰+庙坝红色村5组,四川省,成都市,都江堰市,103.6344228,31.10597228
半山假日酒店,住宿服务,宾馆酒店,宾馆酒店,都江堰龙池镇光荣村13组14号(蒲虹公路18公里处),四川省,成都市,都江堰市,103.6468511,31.10432452
半边街出租屋,住宿服务,住宿服务相关,住宿服务相关,五省宫街与普照寺正街交叉口东南100米,四川省,成都市,彭州市,103.7765992,31.10317842
鑫美乡村酒店,住宿服务,宾馆酒店,宾馆酒店,兴泉村彭敖路敖平加油站西北100米,四川省,成都市,彭州市,103.9889783,31.10253976
都江堰虹口森林居客栈,住宿服务,旅馆招待所,旅馆招待所,都江堰深溪村深溪沟口,四川省,成都市,都江堰市,103.6153999,31.09004463
成都都江堰虹口溪静苑宾馆,住宿服务,宾馆酒店,宾馆酒店,白八路西200米,四川省,成都市,都江堰市,103.6284266,31.09429169
深溪桥头园,住宿服务,宾馆酒店,宾馆酒店,白八路西200米,四川省,成都市,都江堰市,103.627666,31.09356104
都江堰虹口雅园山庄,住宿服务,住宿服务相关,住宿服务相关,龙池镇虹口社区深溪村一组26号,四川省,成都市,都江堰市,103.6283697,31.09362113
都江堰桂花苑客栈,住宿服务,住宿服务相关,住宿服务相关,虹口乡深溪沟社区内,四川省,成都市,都江堰市,103.6280932,31.09454797
虹口深溪木楼庄,住宿服务,住宿服务相关,住宿服务相关,虹口深溪村1组,四川省,成都市,都江堰市,103.6278319,31.08938112
虹口棕树园,住宿服务,住宿服务相关,住宿服务相关,虹口乡深溪村,四川省,成都市,都江堰市,103.6277009,31.09528506
成都都江堰虹口溪静苑宾馆,住宿服务,宾馆酒店,宾馆酒店,白八路西200米,四川省,成都市,都江堰市,103.6284266,31.09429169
成都虹口喜来乐客栈,住宿服务,住宿服务相关,住宿服务相关,虹口乡白八路光荣村5组,四川省,成都市,都江堰市,103.6310248,31.09502792
伴山客栈,住宿服务,旅馆招待所,旅馆招待所,正街177号,四川省,成都市,彭州市,103.7677638,31.08702845
彭州丹霞山金明饭店,住宿服务,住宿服务相关,住宿服务相关,彭白路丹霞山景区内半山腰(丹景山南面),四川省,成都市,彭州市,103.8284948,31.09273914
彭州红梅饭店,住宿服务,住宿服务相关,住宿服务相关,"丹景山镇丹景山景区内圣迹寺旁,近彭白路,圣迹寺旁",四川省,成都市,彭州市,103.8352934,31.0895136
牡丹客栈,住宿服务,旅馆招待所,旅馆招待所,彭白路丹景山景区游客中心100米,四川省,成都市,彭州市,103.8418299,31.09147642
彭州战友休闲山庄住宿,住宿服务,住宿服务相关,住宿服务相关,丹景山镇丹景山风景区内丹缘休闲园内(近彭白路),四川省,成都市,彭州市,103.8416285,31.09162998
成都牡丹之香农家乐,住宿服务,住宿服务相关,住宿服务相关,彭白路西150米,四川省,成都市,彭州市,103.8418239,31.09124354
王姐客栈,住宿服务,旅馆招待所,旅馆招待所,敖平镇移民桥S106与敖兴街交叉口东北侧,四川省,成都市,彭州市,103.9851965,31.09473635
兴隆出租屋,住宿服务,住宿服务相关,住宿服务相关,九龙江路与川西旅游环线交叉口东50米,四川省,成都市,彭州市,103.9844434,31.09152534
玉龙客栈,住宿服务,旅馆招待所,旅馆招待所,龙池旅游路,四川省,成都市,都江堰市,103.5639574,31.08493529
丹景旅馆,住宿服务,旅馆招待所,旅馆招待所,丹景路59,四川省,成都市,彭州市,103.8489004,31.07834989
邓家大院,住宿服务,旅馆招待所,旅馆招待所,龙池旅游路附近,四川省,成都市,都江堰市,103.564125,31.0766281
田园故事风情吧,住宿服务,旅馆招待所,旅馆招待所,龙池旅游路附近,四川省,成都市,都江堰市,103.5640069,31.0752457
虹霞山庄,住宿服务,住宿服务相关,住宿服务相关,白八路西50米,四川省,成都市,都江堰市,103.6270241,31.07048352
云顶山庄,体育休闲服务,休闲场所,休闲场所|住宿服务,都江堰虹口乡九虹村,四川省,成都市,都江堰市,103.6378083,31.07208681
地磅房旅馆,住宿服务,旅馆招待所,旅馆招待所,川西旅游环线与彭白路交叉口北50米,四川省,成都市,彭州市,103.8511617,31.0713565
远德旅馆,住宿服务,旅馆招待所,旅馆招待所,丹景山镇南郡路251号,四川省,成都市,彭州市,103.8511556,31.07135449
碧波休闲村,住宿服务,住宿服务相关,住宿服务相关,建设路与花村街交叉口东100米,四川省,成都市,彭州市,103.8508649,31.07650117
义善乡村酒店,住宿服务,宾馆酒店,宾馆酒店,沙湾村,四川省,成都市,都江堰市,103.6175223,31.06151058
都江堰季轩阁酒店,住宿服务,住宿服务相关,住宿服务相关,白八路金宴度假村北100米,四川省,成都市,都江堰市,103.6176281,31.06245396
都江堰桥头饭店,住宿服务,住宿服务相关,住宿服务相关,都江堰虹口乡棕花村一组(棕花生态旅游区),四川省,成都市,都江堰市,103.6160343,31.06117406
都江堰虹口左邻右舍乡村酒店,住宿服务,住宿服务相关,住宿服务相关,都江堰虹口乡八角庙,四川省,成都市,都江堰市,103.619773,31.06257389
杨家大院,住宿服务,住宿服务相关,住宿服务相关,007乡道南50米,四川省,成都市,彭州市,103.9332352,31.06532513
源民居,住宿服务,住宿服务相关,住宿服务相关,三界镇,四川省,成都市,彭州市,104.0586534,31.05825381
都江堰虹口虹印象,住宿服务,旅馆招待所,旅馆招待所,紫坪铺镇沙湾村1组,四川省,成都市,都江堰市,103.6130182,31.05686783
雪峰农家乐,住宿服务,宾馆酒店,宾馆酒店,沙湾村2组5号,四川省,成都市,都江堰市,103.6098438,31.05561263
都江堰虹口罗姐住宿,住宿服务,住宿服务相关,住宿服务相关,都江堰沙湾村二组,四川省,成都市,都江堰市,103.6102374,31.05592722
都江堰虹口周春国住宿,住宿服务,住宿服务相关,住宿服务相关,都江堰沙湾村2组,四川省,成都市,都江堰市,103.6103772,31.05603707
马军农家乐,住宿服务,住宿服务相关,住宿服务相关,蒲阳镇蒲张路复线兴隆小区北400米,四川省,成都市,都江堰市,103.6819071,31.04910954
双龙旅馆,住宿服务,宾馆酒店,宾馆酒店,兴府街与彭白路交叉口西北100米,四川省,成都市,彭州市,103.8645683,31.04895493
佳和住宿,住宿服务,旅馆招待所,旅馆招待所,隆丰镇集贤东街41号,四川省,成都市,彭州市,103.8712064,31.05065603
佳富酒店,住宿服务,宾馆酒店,宾馆酒店,军乐镇军屯路271号,四川省,成都市,彭州市,103.9772709,31.04879706
金富源酒店,住宿服务,宾馆酒店,宾馆酒店,彭敖路158号,四川省,成都市,彭州市,103.9773297,31.04745265
彭州心语之家住宿,住宿服务,旅馆招待所,旅馆招待所,军乐镇军屯路148号,四川省,成都市,彭州市,103.9772709,31.04721496
鸿运出租屋,住宿服务,旅馆招待所,旅馆招待所,军屯东街与彭什路交叉口西100米,四川省,成都市,彭州市,103.982546,31.05207984
舒馨雅居,住宿服务,宾馆酒店,宾馆酒店,军乐镇柳河北路46号(近柳河东路),四川省,成都市,彭州市,103.9795229,31.05028871
成都家兴出租屋,住宿服务,住宿服务相关,住宿服务相关,军乐镇小马公路鸿昌机械厂对面,四川省,成都市,彭州市,103.9968085,31.05140822
沙湾畔岛客栈,住宿服务,旅馆招待所,旅馆招待所,都江堰沙湾村7组14号,四川省,成都市,都江堰市,103.6015692,31.04685211
沙湾乡村酒店,住宿服务,宾馆酒店,宾馆酒店,白八路南50米,四川省,成都市,都江堰市,103.6031081,31.04691363
兴鑫住宿,住宿服务,旅馆招待所,旅馆招待所,堰华路与金凤路交叉口东南50米,四川省,成都市,都江堰市,103.6782805,31.03765381
仙玉客栈,住宿服务,旅馆招待所,旅馆招待所,蒲阳镇兴鑫小区鑫晶路2号,四川省,成都市,都江堰市,103.6800901,31.03725263
鸿乐轩农家休闲庄,住宿服务,住宿服务相关,住宿服务相关,楠芗村2组13号,四川省,成都市,都江堰市,103.6932649,31.03707899
成都彭州陶香苑乡村酒店,住宿服务,住宿服务相关,住宿服务相关,桂花镇桂花东路,四川省,成都市,彭州市,103.7970761,31.03753175
彭州胖大妈避暑名宿,住宿服务,住宿服务相关,住宿服务相关,桂花镇过观音桥直走右边小区里,四川省,成都市,彭州市,103.8100315,31.04674241
中华蝴蝶城生态宾馆,住宿服务,宾馆酒店,宾馆酒店,隆丰镇大宝村新彭白路旁(成彭高速出口第一个红灯路口左拐一直前行12公里即到),四川省,成都市,彭州市,103.8261994,31.03934752
隆丰客栈,住宿服务,宾馆酒店,宾馆酒店,新华路与隆裕街交叉口西南100米,四川省,成都市,彭州市,103.8672991,31.04439198
华悦酒店,住宿服务,宾馆酒店,宾馆酒店,军乐镇乐兴西街158号,四川省,成都市,彭州市,103.973222,31.04671573
佳缘出租屋,住宿服务,旅馆招待所,旅馆招待所,乐兴西街17号,四川省,成都市,彭州市,103.9763054,31.04592845
星期8出租屋,住宿服务,住宿服务相关,住宿服务相关,军屯东街军乐镇卫生院西南200米,四川省,成都市,彭州市,103.9722713,31.04574693
青城云岭酒店,住宿服务,宾馆酒店,五星级宾馆,灵岩山风景区灵岩寺,四川省,成都市,都江堰市,103.6134568,31.02941
都江堰青城山成都青城后山华盛居山庄,住宿服务,住宿服务相关,住宿服务相关,市青城山镇青城后山五龙沟口,四川省,成都市,都江堰市,103.6157428,31.03314609
成都长沙威廉古堡别墅(寻龙山别墅店),住宿服务,住宿服务相关,住宿服务相关,寻龙山别墅14栋,四川省,成都市,都江堰市,103.6287275,31.03594079
都江堰蒲洪商务客栈,住宿服务,旅馆招待所,旅馆招待所,蒲阳镇滨河路1号(综合市场内),四川省,成都市,都江堰市,103.6862502,31.03657163
黄水河茶旅社,住宿服务,旅馆招待所,旅馆招待所,上阳街166号附8号,四川省,成都市,都江堰市,103.6831806,31.0354249
松江旅馆,住宿服务,宾馆酒店,宾馆酒店,蒲阳镇上阳街57号,四川省,成都市,都江堰市,103.6819397,31.03350829
吉祥住宿,住宿服务,旅馆招待所,旅馆招待所,堰华路与金凤路交叉口东南200米,四川省,成都市,都江堰市,103.678906,31.03674214
天天租住房,住宿服务,住宿服务相关,住宿服务相关,上阳街65号附近,四川省,成都市,都江堰市,103.6820574,31.033638
彭州丰乐园农家乐,住宿服务,住宿服务相关,住宿服务相关,盘龙新街12号,四川省,成都市,彭州市,103.7635389,31.0315367
远来旅店,住宿服务,旅馆招待所,旅馆招待所,桂花镇S106,四川省,成都市,彭州市,103.7863843,31.03633495
十字口旅馆,住宿服务,住宿服务相关,住宿服务相关,金桂西街12,四川省,成都市,彭州市,103.7901405,31.0357464
都江堰候旨山庄,住宿服务,住宿服务相关,住宿服务相关,213国道北50米,四川省,成都市,都江堰市,103.5621525,31.02671928
都江堰紫坪人家精品农家乐,住宿服务,宾馆酒店,宾馆酒店,岷江村4组12号,四川省,成都市,都江堰市,103.5980613,31.01949527
茶马驿栈东林轩,住宿服务,旅馆招待所,旅馆招待所,龙池旅游路附近,四川省,成都市,都江堰市,103.5886445,31.02020391
楠木林兄弟休闲庄,住宿服务,旅馆招待所,旅馆招待所,灵岩古街北50米,四川省,成都市,都江堰市,103.6135339,31.02662053
棠果旅居,住宿服务,住宿服务相关,住宿服务相关,香雪海路侏罗纪公园655号1栋1-2层,四川省,成都市,都江堰市,103.6370142,31.01861914
花雨休闲山庄,住宿服务,住宿服务相关,住宿服务相关,香雪海路141号附近,四川省,成都市,都江堰市,103.6358296,31.018442
都江堰清幽山庄,住宿服务,住宿服务相关,住宿服务相关,内二环文荟路北侧沿共建路前行八百米,四川省,成都市,都江堰市,103.6360281,31.02118114
图宿馆,住宿服务,住宿服务相关,住宿服务相关,玉垒路51,四川省,成都市,都江堰市,103.6544258,31.0176744
浪琴商务酒店,住宿服务,宾馆酒店,四星级宾馆,蒲阳镇九鼎大道经济开发区万都大厦4层,四川省,成都市,都江堰市,103.6628028,31.02543833
都江堰万都商务酒店,住宿服务,宾馆酒店,宾馆酒店,九鼎大道1号万都大厦11楼(蒲阳大道铁桥旁),四川省,成都市,都江堰市,103.6626562,31.02547059
易忆酒店,住宿服务,住宿服务相关,住宿服务相关,驾虹路6号,四川省,成都市,都江堰市,103.7259696,31.01975408
彭州蝴蝶城木屋酒店,住宿服务,住宿服务相关,住宿服务相关,隆丰镇大宝村新彭白路旁,四川省,成都市,彭州市,103.8285751,31.01903954
成都市彭州升平镇发哥出租屋,住宿服务,住宿服务相关,住宿服务相关,升平镇菊家店(彭州考场前行100米),四川省,成都市,彭州市,104.0156097,31.02486673
高升旅馆,住宿服务,旅馆招待所,旅馆招待所,三界镇三界西街,四川省,成都市,彭州市,104.1038891,31.0254981
高升出租屋,住宿服务,旅馆招待所,旅馆招待所,三界南街与三界西街交叉口西100米,四川省,成都市,彭州市,104.1038891,31.0254981
上境灵岩森林酒店,住宿服务,宾馆酒店,四星级宾馆,百花岭路32号,四川省,成都市,都江堰市,103.6145052,31.01362621
御垒山居酒店,住宿服务,宾馆酒店,宾馆酒店,建设路413号,四川省,成都市,都江堰市,103.6147821,31.00794324
新华海颐山居酒店,住宿服务,宾馆酒店,宾馆酒店,灌口镇建设路413号(原彩印厂电话打不通就给酒店门卫),四川省,成都市,都江堰市,103.6157848,31.00819129
都江古堰二王庙宾馆(东北门),住宿服务,宾馆酒店,三星级宾馆,公园路青城山・都江堰风景名胜区内二王庙后门侧,四川省,成都市,都江堰市,103.610583,31.00735556
月亮湾酒店(百花岭路),住宿服务,宾馆酒店,宾馆酒店,百花岭路6号,四川省,成都市,都江堰市,103.6166624,31.0128129
森达山庄,住宿服务,宾馆酒店,三星级宾馆,观景路竹林寺侧,四川省,成都市,都江堰市,103.6174473,31.01474911
树朋农家,住宿服务,住宿服务相关,住宿服务相关,灵岩山庄背后,四川省,成都市,都江堰市,103.6147538,31.0155739
锦弘・国堰宾馆,住宿服务,宾馆酒店,四星级宾馆,观景路729号,四川省,成都市,都江堰市,103.6273111,31.00849121
都江堰蜀印智慧酒店,住宿服务,宾馆酒店,四星级宾馆,观景路833号,四川省,成都市,都江堰市,103.6222445,31.00943646
玉瑞酒店,住宿服务,宾馆酒店,宾馆酒店,观景路980号,四川省,成都市,都江堰市,103.621888,31.01031434
观景福松客栈,住宿服务,旅馆招待所,旅馆招待所,灌口镇观景路713号,四川省,成都市,都江堰市,103.6283772,31.00803015
鑫麟客栈,住宿服务,旅馆招待所,旅馆招待所,观景路792号(国宴宾馆斜对面),四川省,成都市,都江堰市,103.6271294,31.00953683
蜀印酒店,住宿服务,宾馆酒店,宾馆酒店,观景路835号附近,四川省,成都市,都江堰市,103.6222195,31.00970234
莲花源茶居客栈,住宿服务,住宿服务相关,住宿服务相关,都江堰外北街362-364号,四川省,成都市,都江堰市,103.6278961,31.0081187
梦之旅商务客栈,住宿服务,旅馆招待所,旅馆招待所,观景路688-690号,四川省,成都市,都江堰市,103.6292327,31.00746938
春美客栈,住宿服务,旅馆招待所,旅馆招待所,文荟路939号春天花园1号楼203室,四川省,成都市,都江堰市,103.6365544,31.01225047
春雨客栈,住宿服务,旅馆招待所,旅馆招待所,文荟路939号春天花园1号楼3单元303室,四川省,成都市,都江堰市,103.6366442,31.01215139
成都一个狗窝窝普通公寓,住宿服务,宾馆酒店,宾馆酒店,外北街与观景路二段交叉口东南150米,四川省,成都市,都江堰市,103.6292587,31.0075403
成都大屋民宿,住宿服务,住宿服务相关,住宿服务相关,香雪海路83号附近,四川省,成都市,都江堰市,103.630593,31.01318733
成都温馨家居公寓,住宿服务,住宿服务相关,住宿服务相关,银杏路85号1栋1单元,四川省,成都市,都江堰市,103.6325175,31.00962776
都江堰豪华民宿,住宿服务,住宿服务相关,住宿服务相关,灌口镇银杏路85号一栋一单元6号,四川省,成都市,都江堰市,103.6308836,31.00963498
成都luckyforeveric普通公寓,住宿服务,住宿服务相关,住宿服务相关,灵岩山香雪海路83号都江森林别墅(平义一巷),四川省,成都市,都江堰市,103.6292394,31.01412856
都江堰熊猫疯青年旅舍,住宿服务,住宿服务相关,住宿服务相关,灌口镇香雪海路灵岩公寓2-2-306,四川省,成都市,都江堰市,103.6304373,31.01286972
都江堰奇迹奇缘私人森林会所,住宿服务,住宿服务相关,住宿服务相关,香雪海路都江森林别墅19号,四川省,成都市,都江堰市,103.6303294,31.01430004
杨家将青椒鸡,住宿服务,住宿服务相关,住宿服务相关,文荟路与香雪海路交叉口西北50米,四川省,成都市,都江堰市,103.6334035,31.01555414
都江堰马家湾休闲山庄,住宿服务,住宿服务相关,住宿服务相关,灌口镇百花村七组20号,四川省,成都市,都江堰市,103.6320261,31.01678434
花缦酒店,住宿服务,宾馆酒店,宾馆酒店,文荟路803号,四川省,成都市,都江堰市,103.63869,31.00987859
锦致邻家(都江堰店),住宿服务,宾馆酒店,宾馆酒店,蒲阳大道800号(钱江美域售楼中心对面),四川省,成都市,都江堰市,103.6386681,31.00996358
成都舒适之居普通公寓,住宿服务,住宿服务相关,住宿服务相关,高桥阳光,四川省,成都市,都江堰市,103.6574598,31.00903975
金龙假日酒店(彭州店),住宿服务,宾馆酒店,四星级宾馆,彭关公路3公里处,四川省,成都市,彭州市,103.8972936,31.01234022
彭州市泰然商务酒店,住宿服务,宾馆酒店,宾馆酒店,什彭路东200米,四川省,成都市,彭州市,104.0035254,31.01200515
幸福驿站(幸福路),住宿服务,宾馆酒店,宾馆酒店,幸福路194号,四川省,成都市,都江堰市,103.6165181,31.00049809
都江古堰二王庙宾馆,住宿服务,宾馆酒店,三星级宾馆,百花岭路3号,四川省,成都市,都江堰市,103.6111424,31.00693845
南苑宾馆,住宿服务,旅馆招待所,旅馆招待所,南街80号1栋3楼,四川省,成都市,都江堰市,103.614279,30.99982929
都江堰豪家酒店(景区古城店),住宿服务,宾馆酒店,宾馆酒店,文庙街9号附4,四川省,成都市,都江堰市,103.6157531,31.00232768
燕南客栈,住宿服务,旅馆招待所,旅馆招待所,龙池商住城南街94号3层(罗记多味小食西对面),四川省,成都市,都江堰市,103.614269,30.99980332
明和酒店(幸福路店),住宿服务,宾馆酒店,宾馆酒店,幸福路197号,四川省,成都市,都江堰市,103.6164492,31.00020531
明和青年旅舍(书院街),住宿服务,旅馆招待所,青年旅舍,书院街80号,四川省,成都市,都江堰市,103.6165989,31.00437279
云生园客栈,住宿服务,旅馆招待所,旅馆招待所,南街宝瓶巷,四川省,成都市,都江堰市,103.6139195,30.99966666
尚庭客栈,住宿服务,旅馆招待所,旅馆招待所,南街龙池商住城11栋2层(距南桥10米左右),四川省,成都市,都江堰市,103.6142611,30.99977134
南桥景区旅店,住宿服务,旅馆招待所,旅馆招待所,龙池商住城8栋一单元2楼,四川省,成都市,都江堰市,103.6148303,31.00025762
古桥客栈(商业街),住宿服务,旅馆招待所,旅馆招待所,商业街179号,四川省,成都市,都江堰市,103.6141322,30.99951159
新月府邸(都江堰景区店),住宿服务,旅馆招待所,旅馆招待所,都江堰西街48-54号,四川省,成都市,都江堰市,103.6133132,31.00054261
新时尚酒店(楼外楼小吃街),住宿服务,宾馆酒店,宾馆酒店,经五桂桥街进入楼外楼小吃街直行五十米左边巷道,四川省,成都市,都江堰市,103.6180631,30.99990306
桥兴宾馆,住宿服务,宾馆酒店,宾馆酒店,都江堰南街龙池商住城11栋3层17号南,四川省,成都市,都江堰市,103.614305,30.99984726
人和旅馆(南街),住宿服务,旅馆招待所,旅馆招待所,幸福路229号2栋3楼1号(龙池里面),四川省,成都市,都江堰市,103.615102,31.00070114
随缘小憩客栈,住宿服务,旅馆招待所,旅馆招待所,幸福路229号4栋附4,四川省,成都市,都江堰市,103.6153656,31.0002362
宝瓶旅馆,住宿服务,旅馆招待所,旅馆招待所,南街龙池(三楼右边)清真寺对面,四川省,成都市,都江堰市,103.6147354,31.00048856
都江堰南街客栈,住宿服务,旅馆招待所,旅馆招待所,南街龙池商住城11栋3楼8号,四川省,成都市,都江堰市,103.614315,30.99985625
缘聚青年旅舍,住宿服务,旅馆招待所,青年旅舍,都江堰南桥商业街二楼2140号,四川省,成都市,都江堰市,103.6143679,30.99962534
成都都江堰福来登宾馆,住宿服务,宾馆酒店,宾馆酒店,观景路二王庙后门侧,四川省,成都市,都江堰市,103.6111085,31.00616491
森林雪客栈,住宿服务,旅馆招待所,旅馆招待所,灌口镇幸福路247号,四川省,成都市,都江堰市,103.6152548,31.00083794
月季客栈,住宿服务,旅馆招待所,旅馆招待所,都江堰南街34-36号(都江堰景区),四川省,成都市,都江堰市,103.61432,31.00056684
天扬客栈,住宿服务,旅馆招待所,旅馆招待所,灌口镇市西街46号,四川省,成都市,都江堰市,103.6131564,31.0005957
岷江苑住宿,住宿服务,旅馆招待所,旅馆招待所,"南街60号(古街、西街对面,距离南桥50米)",四川省,成都市,都江堰市,103.6144158,31.00018998
水源小溪客栈,住宿服务,旅馆招待所,旅馆招待所,幸福路龙池商住城8栋,四川省,成都市,都江堰市,103.6144079,30.99985518
南桥河边住宿,住宿服务,旅馆招待所,旅馆招待所,商业街141号,四川省,成都市,都江堰市,103.6147614,30.99941515
都江堰寻找青年旅舍,住宿服务,旅馆招待所,青年旅舍,井福街23号井福公寓一单元5-10(近幸福路),四川省,成都市,都江堰市,103.6164742,31.00095286
都江堰时光记忆精品主题屋,住宿服务,住宿服务相关,住宿服务相关,杨柳河边楼外楼小吃街龙门牛肉旁,四川省,成都市,都江堰市,103.618125,30.99967314
都江堰明和国际青年旅舍,住宿服务,住宿服务相关,住宿服务相关,都江堰书院街61号(文庙公园对面),四川省,成都市,都江堰市,103.6174987,31.00356147
都江堰南桥心悦酒店,住宿服务,住宿服务相关,住宿服务相关,南桥社区龙池商住城4单元1号(距都江堰景区70米),四川省,成都市,都江堰市,103.6151239,31.00083205
龙池客栈江边套房,住宿服务,住宿服务相关,住宿服务相关,新堰坎80号附近,四川省,成都市,都江堰市,103.6160389,30.9980549
南堰客栈,住宿服务,住宿服务相关,住宿服务相关,幸福路229号龙池商住城2栋2楼4号,四川省,成都市,都江堰市,103.6147414,31.00053053
明和快捷酒店(杨柳河店),住宿服务,宾馆酒店,宾馆酒店,杨柳河街142号,四川省,成都市,都江堰市,103.6199892,31.00225189
九点水语酒店,住宿服务,宾馆酒店,四星级宾馆,幸福路85号,四川省,成都市,都江堰市,103.6186243,30.99902205
殿庭酒店,住宿服务,宾馆酒店,宾馆酒店,幸福路曾家巷9号1层,四川省,成都市,都江堰市,103.6194431,30.99911922
名城时代大酒店,住宿服务,宾馆酒店,四星级宾馆,建设路111号,四川省,成都市,都江堰市,103.6213892,31.00039854
柏林酒店(宣化门店),住宿服务,宾馆酒店,宾馆酒店,都江堰大道29号,四川省,成都市,都江堰市,103.6223128,30.99777708
新东门客栈(兴隆街),住宿服务,旅馆招待所,旅馆招待所,兴隆街55号3层,四川省,成都市,都江堰市,103.6255903,31.00191804
蜀缘商务宾馆,住宿服务,宾馆酒店,宾馆酒店,蒲阳路18号,四川省,成都市,都江堰市,103.6237833,31.00170622
金威世纪酒店,住宿服务,宾馆酒店,四星级宾馆,玉带桥街1号,四川省,成都市,都江堰市,103.6258431,30.99796102
都江堰宾馆,住宿服务,宾馆酒店,三星级宾馆,建设路269号,四川省,成都市,都江堰市,103.620753,31.00278782
聚贤客栈(陈家巷),住宿服务,旅馆招待所,旅馆招待所,建设路19号附10,四川省,成都市,都江堰市,103.6209,30.99874099
全季酒店(都江堰店),住宿服务,宾馆酒店,宾馆酒店,外北路1,四川省,成都市,都江堰市,103.62008,31.00427564
都江堰古城智选假日酒店,住宿服务,宾馆酒店,经济型连锁酒店,建设路202号,四川省,成都市,都江堰市,103.6222278,31.00285326
幸福旅馆(景区古城店),住宿服务,旅馆招待所,旅馆招待所,幸福路73号4层,四川省,成都市,都江堰市,103.6191635,30.99883865
运通客栈,住宿服务,旅馆招待所,旅馆招待所,建设路81号2层,四川省,成都市,都江堰市,103.6218545,30.99944561
君堰商务酒店,住宿服务,宾馆酒店,宾馆酒店,蒲阳路42号,四川省,成都市,都江堰市,103.6241218,31.00203066
A8时尚酒店(天维街),住宿服务,宾馆酒店,宾馆酒店,灌口镇建设路天和盛世天维街37号3层,四川省,成都市,都江堰市,103.6206163,31.00043331
熊猫驿站(都江堰白果巷店),住宿服务,宾馆酒店,宾馆酒店,白果巷47号,四川省,成都市,都江堰市,103.6205404,31.00154574
天天住宿,住宿服务,旅馆招待所,旅馆招待所,灌口镇建设路19号宣化门旁女人街三楼,四川省,成都市,都江堰市,103.6187069,31.00525939
都江堰简悦之家酒店(精致店),住宿服务,宾馆酒店,宾馆酒店,天正街48号,四川省,成都市,都江堰市,103.6205564,31.0014188
都江堰千家一宿公寓,住宿服务,旅馆招待所,旅馆招待所,杨柳河街94号,四川省,成都市,都江堰市,103.6197815,31.00112973
聚缘客栈,住宿服务,旅馆招待所,旅馆招待所,灌口镇幸福路63号,四川省,成都市,都江堰市,103.6193882,30.99866653
华光客栈,住宿服务,旅馆招待所,旅馆招待所,宣化门杨柳河街24号附7号,四川省,成都市,都江堰市,103.6194691,30.99959792
星河园住宿(建设路),住宿服务,旅馆招待所,旅馆招待所,建设路59号2层,四川省,成都市,都江堰市,103.6216598,30.99918796
兴和旅馆(幸福路),住宿服务,旅馆招待所,旅馆招待所,辛福路20号2层,四川省,成都市,都江堰市,103.6203628,30.99847968
金美辰格调酒店(都江堰店),住宿服务,宾馆酒店,宾馆酒店,灌口镇幸福路77号,四川省,成都市,都江堰市,103.618868,30.99898084
祥和商务客栈,住宿服务,旅馆招待所,旅馆招待所,天正街15号附4号5号楼5层,四川省,成都市,都江堰市,103.6217945,31.00068795
旅行家・青年旅舍,住宿服务,旅馆招待所,旅馆招待所,"都江堰大观街18号二单元3楼4号(近杨柳河街,步行5分钟可达都江堰景区)",四川省,成都市,都江堰市,103.6185264,30.99967077
南桥客房,住宿服务,旅馆招待所,旅馆招待所,建设路385号,四川省,成都市,都江堰市,103.6185651,31.00526052
美凌精致人文酒店,住宿服务,旅馆招待所,旅馆招待所,五桂桥街88号2层,四川省,成都市,都江堰市,103.6199503,31.00025707
宇晟商务酒店,住宿服务,宾馆酒店,宾馆酒店,灌口镇蒲阳路18号附4号,四川省,成都市,都江堰市,103.6235178,31.00170252
成都海洋客栈古城店,住宿服务,旅馆招待所,旅馆招待所,蒲阳路18号附2号3层,四川省,成都市,都江堰市,103.6237684,31.00172823
兴隆酒店(古城店),住宿服务,宾馆酒店,宾馆酒店|住宿服务,兴隆街9-11号,四川省,成都市,都江堰市,103.6250622,31.00261425
都江堰海洋客栈(古城店),住宿服务,旅馆招待所,旅馆招待所,幸福路20号(宣化门门口第一家),四川省,成都市,都江堰市,103.6202749,30.99850476
有家住房,住宿服务,旅馆招待所,旅馆招待所,建设路361号,四川省,成都市,都江堰市,103.6191303,31.00477927
建设住宿,住宿服务,旅馆招待所,旅馆招待所,灌口街办建设路220号,四川省,成都市,都江堰市,103.6218344,31.00293962
川都客栈,住宿服务,旅馆招待所,旅馆招待所,五桂桥街67号附4号,四川省,成都市,都江堰市,103.6204646,31.0000067
橙峄青春驿站,住宿服务,旅馆招待所,旅馆招待所,柳岸路4号,四川省,成都市,都江堰市,103.6212372,31.00577061
都江堰酒家公寓,住宿服务,旅馆招待所,旅馆招待所,都江堰平武巷平义路16号二栋1单元(川农大北门),四川省,成都市,都江堰市,103.6203805,31.00466611
四川农业大学银杏宾馆南楼,住宿服务,宾馆酒店,宾馆酒店,建设路286-290号,四川省,成都市,都江堰市,103.6195138,31.00481288
银古宾馆,住宿服务,宾馆酒店,三星级宾馆,建设路288号(建设路与外北街交叉口),四川省,成都市,都江堰市,103.6194439,31.00480695
嘉逸客栈,住宿服务,旅馆招待所,旅馆招待所,蒲柏桥头广场欣城2楼,四川省,成都市,都江堰市,103.6222849,30.99791003
成都都江堰景区古城逸居普通公寓,住宿服务,宾馆酒店,宾馆酒店,大观街,四川省,成都市,都江堰市,103.619448,31.00226241
都江堰精灵客栈,住宿服务,旅馆招待所,旅馆招待所,外北街50号附近,四川省,成都市,都江堰市,103.6211124,31.00445949
四川农业大学银杏宾馆北楼,住宿服务,宾馆酒店,宾馆酒店,建设路288号,四川省,成都市,都江堰市,103.6199331,31.00538614
都江堰青城山成都天天住宿,住宿服务,旅馆招待所,旅馆招待所,建设路385号(农大斜对面),四川省,成都市,都江堰市,103.6190914,31.00488224
林机场招待所,住宿服务,旅馆招待所,旅馆招待所,灌口镇玉带桥街100号,四川省,成都市,都江堰市,103.6266357,30.99729345
宅舍e+客栈,住宿服务,旅馆招待所,旅馆招待所,蒲南路上段附2号,四川省,成都市,都江堰市,103.6268014,30.99961292
成都夏夏的栖梦阁普通公寓(分店),住宿服务,住宿服务相关,住宿服务相关,华夏广场小区-15幢2单元3楼3号,四川省,成都市,都江堰市,103.6260557,30.99839252
都江堰大好河山酒店,住宿服务,住宿服务相关,住宿服务相关,建设路天和盛世商业中心3栋天维街15号,四川省,成都市,都江堰市,103.6210996,31.00153419
堰丽客栈,住宿服务,住宿服务相关,住宿服务相关,五桂桥街102-附8号附近,四川省,成都市,都江堰市,103.6199274,31.00034104
成都丽人之家普通公寓分店,住宿服务,住宿服务相关,住宿服务相关,华夏广场小区,四川省,成都市,都江堰市,103.6268234,30.99843257
都江堰蜗居客栈,住宿服务,住宿服务相关,住宿服务相关,"建设路19号(豪客来旁边三楼,离堆公园快铁站旁)",四川省,成都市,都江堰市,103.6209,30.99871201
成都万里若邻普通公寓,住宿服务,住宿服务相关,住宿服务相关,建设路240号1栋2单元402,四川省,成都市,都江堰市,103.6208518,31.00375117
杨柳河时光记忆精品三居,住宿服务,住宿服务相关,住宿服务相关,杨柳河边楼外楼小吃街水巷子35号(龙门牛肉旁),四川省,成都市,都江堰市,103.618802,31.00058299
成都任朝暮民宿,住宿服务,住宿服务相关,住宿服务相关,"灌口镇白果巷601二栋二单元,都江堰大观街(市区)",四川省,成都市,都江堰市,103.6200182,31.0013034
都江堰君田民宿,住宿服务,住宿服务相关,住宿服务相关,北街与杨柳河街交叉口东北50米,四川省,成都市,都江堰市,103.6192652,31.00376772
成都Dujiangyan Panda Post Theme Hotel,住宿服务,住宿服务相关,住宿服务相关,杨柳河街与白果巷交叉口东50米,四川省,成都市,都江堰市,103.6202398,31.00176392
成都都江堰徐掌柜的快乐驿站(工农兵街店),住宿服务,住宿服务相关,住宿服务相关,永康巷5号幸福商业城6单元5楼9号,四川省,成都市,都江堰市,103.6220952,30.9984999
成都Laila的驿站,住宿服务,住宿服务相关,住宿服务相关,都江堰建设路111号,四川省,成都市,都江堰市,103.6213173,31.00102326
成都精品主题公寓,住宿服务,住宿服务相关,住宿服务相关,大观街与水巷子交叉口北50米,四川省,成都市,都江堰市,103.6189248,31.0007018
成都alice普通公寓,住宿服务,住宿服务相关,住宿服务相关,蒲阳路碧玉巷碧城苑(市区),四川省,成都市,都江堰市,103.6247147,31.00485936
都江堰怡家小院,住宿服务,住宿服务相关,住宿服务相关,杨柳河街华光商城3楼1号(锦宴楼楼上),四川省,成都市,都江堰市,103.6195819,30.99938193
都江堰刘小牛青年旅舍,住宿服务,住宿服务相关,住宿服务相关,瑞莲街瑞莲巷7号大院,四川省,成都市,都江堰市,103.6188249,31.00211109
都江堰君悦都江民宿,住宿服务,住宿服务相关,住宿服务相关,建设路296号(农业大学旁),四川省,成都市,都江堰市,103.6192012,31.00505404
都江堰幽径时光青年旅舍,住宿服务,住宿服务相关,住宿服务相关,五桂桥街107号(锦宴楼右侧小巷进3楼),四川省,成都市,都江堰市,103.619494,31.0004604
都江堰熊猫主题民宿,住宿服务,住宿服务相关,住宿服务相关,宝瓶下街40号涛声苑(人行家属楼),四川省,成都市,都江堰市,103.6184615,30.99858345
都江堰市舒服家公寓,住宿服务,住宿服务相关,住宿服务相关,水务局家属区外北街56号2单元3号(川农南门对面),四川省,成都市,都江堰市,103.6213551,31.00445025
川农之家学生公寓,住宿服务,住宿服务相关,住宿服务相关,"川农南校门附近外北街25号(玉林串串斜对面,管家婆楼上)",四川省,成都市,都江堰市,103.6203585,31.00468113
都江堰开心七天民宿,住宿服务,住宿服务相关,住宿服务相关,都江堰南桥大观街91号院2单元7室近南桥步行街,四川省,成都市,都江堰市,103.6189038,31.00117955
成都天天住宿宣化门店,住宿服务,住宿服务相关,住宿服务相关,建设路19号宣化门旁女人街三楼,四川省,成都市,都江堰市,103.6208521,30.9986381
都江堰大众旅馆,住宿服务,住宿服务相关,住宿服务相关,幸福路63号,四川省,成都市,都江堰市,103.6192784,30.99848074
康源商务酒店(紫薇巷),住宿服务,宾馆酒店,宾馆酒店,紫薇巷1-3,四川省,成都市,都江堰市,103.63453,30.99826945
iu酒店(都江堰店),住宿服务,宾馆酒店,经济型连锁酒店,学府路金桂巷35-45号,四川省,成都市,都江堰市,103.63501,30.99990581
馨竹熊猫酒店,住宿服务,宾馆酒店,宾馆酒店,观景路406号,四川省,成都市,都江堰市,103.6322365,30.9992621
都江堰哇噻青年旅舍,住宿服务,旅馆招待所,青年旅舍,玉带桥街茶厂巷10号三羊公寓2单元201号,四川省,成都市,都江堰市,103.6308212,30.99814165
金龙客栈(学府路一段),住宿服务,旅馆招待所,旅馆招待所,观景路中段388号,四川省,成都市,都江堰市,103.6322095,30.99884437
新月商务客栈,住宿服务,旅馆招待所,旅馆招待所,灌口镇玉带桥街103号附11号,四川省,成都市,都江堰市,103.6298899,30.99802695
华西住宿,住宿服务,旅馆招待所,旅馆招待所,玉带桥街97号(省六建公司办公楼三楼),四川省,成都市,都江堰市,103.629312,30.9978468
小金法院住宿,住宿服务,旅馆招待所,旅馆招待所,观景路522号附近,四川省,成都市,都江堰市,103.6321574,31.00427533
成都Xinsheng Inn,住宿服务,住宿服务相关,住宿服务相关,学府路与茶树巷交叉口西北50米,四川省,成都市,都江堰市,103.6379759,30.99966654
成都明苑佳美公寓,住宿服务,住宿服务相关,住宿服务相关,兴盛街347号附近,四川省,成都市,都江堰市,103.6299905,31.0031129
上官上书房酒店,住宿服务,宾馆酒店,三星级宾馆,学府路398号,四川省,成都市,都江堰市,103.6459405,31.00078605
友家住宿,住宿服务,旅馆招待所,旅馆招待所,学府路391号36栋附1,四川省,成都市,都江堰市,103.6438112,31.00190598
成都NIEC HOUSE普通公寓(柏条河南路联盟北路口店),住宿服务,住宿服务相关,住宿服务相关,文荟路107号岭秀都江,四川省,成都市,都江堰市,103.6472696,30.99773054
成都都江堰市中心临河高档欧式田园风温馨套房酒店式公寓,住宿服务,住宿服务相关,住宿服务相关,文荟路107号岭秀都江三期2栋2单元18楼131,四川省,成都市,都江堰市,103.6472686,30.99772954
成都悦馨家园普通公寓,住宿服务,住宿服务相关,住宿服务相关,银杏街道锦绣社区光明街438号,四川省,成都市,都江堰市,103.6438743,30.99811005
成都都江堰民宿,住宿服务,住宿服务相关,住宿服务相关,文荟路202号,四川省,成都市,都江堰市,103.646203,30.99722365
成都都江小屋,住宿服务,住宿服务相关,住宿服务相关,文荟路107号岭秀都江七栋二单元七楼25号,四川省,成都市,都江堰市,103.6472686,30.99773054
都江堰六楼小院住宿,住宿服务,住宿服务相关,住宿服务相关,学府路茶树巷天逸花园小区11栋1单元6楼1门,四川省,成都市,都江堰市,103.6389529,30.99901542
派酒店(胥家高桥店),住宿服务,宾馆酒店,宾馆酒店,胥家镇高桥社区重庆路66号-15,四川省,成都市,都江堰市,103.6540562,31.00606772
金穗大酒店,住宿服务,宾馆酒店,三星级宾馆,胥家镇高桥社区重庆路66-15,四川省,成都市,都江堰市,103.6539854,31.00629072
成都学府民宿,住宿服务,旅馆招待所,旅馆招待所,学府路一段418号老国药房楼上,四川省,成都市,都江堰市,103.6487899,31.00184254
成都快乐旅途民宿,住宿服务,住宿服务相关,住宿服务相关,学府路康桥水乡九栋二单元二楼一号(市区),四川省,成都市,都江堰市,103.6492268,31.00398555
成都都江堰家庭公寓,住宿服务,住宿服务相关,住宿服务相关,彩虹大道北段261号附近,四川省,成都市,都江堰市,103.6516191,31.00441706
都江堰胥家客栈,住宿服务,住宿服务相关,住宿服务相关,胥家镇石龙上街36号,四川省,成都市,都江堰市,103.6934271,30.99997689
君怡客栈,住宿服务,住宿服务相关,住宿服务相关,胥家镇石龙上街36号,四川省,成都市,都江堰市,103.6935608,30.99994868
金瑞阳光大酒店,住宿服务,宾馆酒店,四星级宾馆,彭州龙塔路101号,四川省,成都市,彭州市,103.9466881,30.99916689
石化公寓,住宿服务,宾馆酒店,宾馆酒店,财信上河新界附近,四川省,成都市,彭州市,103.9421309,31.00381807
金凯莱宾馆,住宿服务,旅馆招待所,旅馆招待所|住宿服务,龙兴北巷61号附4,四川省,成都市,彭州市,103.9406087,30.99720965
温哥华国际大酒店,住宿服务,宾馆酒店,宾馆酒店,牡丹大道北段东侧,四川省,成都市,彭州市,103.9580885,31.00316819
彭州都市云端酒店,住宿服务,住宿服务相关,住宿服务相关,天彭镇回龙东路119号牡丹名城,四川省,成都市,彭州市,103.965102,30.99909588
九兴路出租屋,住宿服务,旅馆招待所,旅馆招待所,九兴西路113号附近,四川省,成都市,彭州市,104.030891,30.99762101
罗兰客栈,住宿服务,旅馆招待所,旅馆招待所,罗兰小镇小区,四川省,成都市,都江堰市,103.5988989,30.99299736
天宇大酒店,住宿服务,宾馆酒店,三星级宾馆,奎光路100号,四川省,成都市,都江堰市,103.6174234,30.98934771
远豪商务酒店(江安店),住宿服务,宾馆酒店,宾馆酒店,江安路38号(近仰天窝鱼嘴),四川省,成都市,都江堰市,103.6180754,30.99057142
如家快捷酒店(宣化门天乙街店),住宿服务,宾馆酒店,经济型连锁酒店,都江堰天乙街252号(近宣化门步行街),四川省,成都市,都江堰市,103.6170288,30.99245527
尚稷・城青酒店,住宿服务,宾馆酒店,宾馆酒店,奎光路185号,四川省,成都市,都江堰市,103.6166085,30.98784529
朋辉酒店,住宿服务,宾馆酒店,宾馆酒店,幸福镇鲤鱼沱外河3栋1层1号,四川省,成都市,都江堰市,103.6090581,30.99485366
休息树酒店,住宿服务,宾馆酒店,四星级宾馆,复兴街155号(康复路上街口),四川省,成都市,都江堰市,103.6106494,30.99579016
尚城商务宾馆(康复路),住宿服务,宾馆酒店,宾馆酒店,康复路149-151号,四川省,成都市,都江堰市,103.6121989,30.99094892
江堰宾馆(伏龙社区公园路社区卫生服务站西南),住宿服务,宾馆酒店,宾馆酒店,天乙街98-100号,四川省,成都市,都江堰市,103.6170586,30.99554546
爱游青年旅舍,住宿服务,旅馆招待所,旅馆招待所,奎光东二街4-10号,四川省,成都市,都江堰市,103.6175073,30.98822128
飞翔客栈(江安路),住宿服务,旅馆招待所,旅馆招待所,江安路5号10层,四川省,成都市,都江堰市,103.617653,30.9914393
都江堰丽人之家家庭旅馆,住宿服务,旅馆招待所,旅馆招待所,天乙街141号附近,四川省,成都市,都江堰市,103.6183998,30.99544931
桔子青年旅舍,住宿服务,旅馆招待所,青年旅舍,康复路下街56-62号,四川省,成都市,都江堰市,103.6115097,30.98916842
成都都江堰阳阳之家普通公寓公园路分店,住宿服务,宾馆酒店,宾馆酒店,公园路69号7栋附近,四川省,成都市,都江堰市,103.6154148,30.99607355
成都古城区精品公寓,住宿服务,宾馆酒店,宾馆酒店,天乙街67号号附近,四川省,成都市,都江堰市,103.6177177,30.99535099
尚楼・城青酒店,住宿服务,宾馆酒店,宾馆酒店,奎光东二街与奎光路交叉口西南50米,四川省,成都市,都江堰市,103.61703,30.98794486
远之景酒店,住宿服务,宾馆酒店,宾馆酒店,江安路5号11楼,四川省,成都市,都江堰市,103.6175231,30.99132248
天天住宿(奎光东二街),住宿服务,旅馆招待所,旅馆招待所,幸福镇华桥商业城奎光东六街94号正对面,四川省,成都市,都江堰市,103.6177839,30.9884459
嘉堰茶庄出租房,住宿服务,旅馆招待所,旅馆招待所,康复路下街37-45,四川省,成都市,都江堰市,103.6116425,30.99046158
兴兴出租屋,住宿服务,旅馆招待所,旅馆招待所,幸福镇康复路8号,四川省,成都市,都江堰市,103.6165105,30.99170815
成都区温馨雅静小屋,住宿服务,住宿服务相关,住宿服务相关,天乙街128号(成勘院上基地),四川省,成都市,都江堰市,103.6171755,30.99509762
成都都江堰景区内酒店式短租公寓,住宿服务,住宿服务相关,住宿服务相关,伏龙社区江安路5号中国银行大楼,四川省,成都市,都江堰市,103.617596,30.99142536
成都都江堰普通公寓,住宿服务,住宿服务相关,住宿服务相关,康复路下街275号映电花园12栋2楼4号,四川省,成都市,都江堰市,103.612111,30.98971469
都江堰爱的港湾公寓,住宿服务,住宿服务相关,住宿服务相关,天乙街都之都小区二栋,四川省,成都市,都江堰市,103.6179953,30.99534374
M家小住,住宿服务,住宿服务相关,住宿服务相关,奎光东二街与奎光路交叉口东100米,四川省,成都市,都江堰市,103.6178269,30.98823898
实久宾馆,住宿服务,宾馆酒店,三星级宾馆,都江堰大道18号中国十九冶疗养大厦,四川省,成都市,都江堰市,103.6262795,30.99471636
开元宾馆(都江堰店),住宿服务,宾馆酒店,三星级宾馆,都江堰大道52-54号开源大厦,四川省,成都市,都江堰市,103.6278817,30.99396384
华西饭店,住宿服务,宾馆酒店,四星级宾馆,江安路181号,四川省,成都市,都江堰市,103.6220016,30.99213366
都府大酒店,住宿服务,宾馆酒店,四星级宾馆,太平街250号,四川省,成都市,都江堰市,103.6247273,30.99035369
拉菲风尚酒店,住宿服务,宾馆酒店,四星级宾馆,都江堰大道2号岷江国际11层,四川省,成都市,都江堰市,103.623545,30.99610371
锦江之星酒店(都江堰离堆公园动车站店),住宿服务,宾馆酒店,经济型连锁酒店,幸福镇太平街257号,四川省,成都市,都江堰市,103.624863,30.99185367
怡家城市酒店(香木银杏店),住宿服务,宾馆酒店,经济型连锁酒店,新马路113号银杏广场对面,四川省,成都市,都江堰市,103.6268815,30.99385314
爱德森酒店(都江堰观凤桥店),住宿服务,宾馆酒店,宾馆酒店,江安东三街10号,四川省,成都市,都江堰市,103.6233306,30.98838738
青旅客栈(走马河街),住宿服务,旅馆招待所,旅馆招待所,太平街250号(中国邮政储蓄银行江安路营业所附近),四川省,成都市,都江堰市,103.623685,30.99057174
智选假日酒店(太平街),住宿服务,宾馆酒店,四星级宾馆,都江堰大道2号附1号,四川省,成都市,都江堰市,103.6225675,30.99642659
都之都酒店,住宿服务,宾馆酒店,三星级宾馆,天乙街97号(离堆公园路口),四川省,成都市,都江堰市,103.6186165,30.99550508
汉庭酒店(宣化门店),住宿服务,宾馆酒店,经济型连锁酒店,银杏广场迎宾大道新马路93号,四川省,成都市,都江堰市,103.6256576,30.99345582
爱德森酒店(梅西广场店),住宿服务,宾馆酒店,宾馆酒店,江安路142-144号,四川省,成都市,都江堰市,103.6213696,30.99136276
丽华客栈(都江堰大道),住宿服务,旅馆招待所,旅馆招待所,都江堰大道58号银杏广场商会大厦(新马路口),四川省,成都市,都江堰市,103.6280205,30.99396267
金泰酒店(江西街),住宿服务,宾馆酒店,宾馆酒店,江西街21号(老消防中队旁江安河边),四川省,成都市,都江堰市,103.6193906,30.99035631
江上名都酒店,住宿服务,宾馆酒店,宾馆酒店,走马河街2号(近三马桥),四川省,成都市,都江堰市,103.6194463,30.9953084
山水假日宾馆(观凤东街),住宿服务,宾馆酒店,宾馆酒店,新马路138-140号,四川省,成都市,都江堰市,103.6272049,30.99321811
金城酒店,住宿服务,宾馆酒店,宾馆酒店,玉带桥街70号(苏宁电器旗舰店旁)距离堆公园快铁站100米步行,四川省,成都市,都江堰市,103.6262354,30.99715501
幸运客栈,住宿服务,旅馆招待所,旅馆招待所,灌口镇幸福大道幸福公寓83号,四川省,成都市,都江堰市,103.6269273,30.99494045
平安商务客栈,住宿服务,旅馆招待所,旅馆招待所,新马路91号附1,四川省,成都市,都江堰市,103.6254569,30.99317822
骆客主题客栈,住宿服务,旅馆招待所,旅馆招待所,都江堰大道60-64号,四川省,成都市,都江堰市,103.6280584,30.99405557
爱德森酒店(都江堰银杏店),住宿服务,宾馆酒店,宾馆酒店,都江堰大道66号,四川省,成都市,都江堰市,103.6281223,30.99399752
圆梦缘商务客栈,住宿服务,旅馆招待所,旅馆招待所,太极巷5号附1,四川省,成都市,都江堰市,103.6248409,30.9951538
都江堰薇依依家家庭旅馆,住宿服务,旅馆招待所,旅馆招待所,天乙街97号都之都小区(近都江堰景区和宣化门),四川省,成都市,都江堰市,103.6188312,30.99502815
榆城商悦客栈,住宿服务,旅馆招待所,旅馆招待所,军民街68号,四川省,成都市,都江堰市,103.6204529,30.99277587
阳光客栈(观凤东街),住宿服务,旅馆招待所,旅馆招待所,新马路130号4层,四川省,成都市,都江堰市,103.6267318,30.99313173
都江堰丫丫酒店公寓,住宿服务,宾馆酒店,宾馆酒店,都江堰大道岷江国际大厦7楼-31号(拉菲风尚酒店同一栋),四川省,成都市,都江堰市,103.623542,30.99610471
都江堰感恩旅社,住宿服务,旅馆招待所,旅馆招待所,幸福大道2号,四川省,成都市,都江堰市,103.6229948,30.99669097
成都望江雅舍普通公寓,住宿服务,住宿服务相关,住宿服务相关,幸福镇新马路47号1栋2单元4楼6号,四川省,成都市,都江堰市,103.6246203,30.99294132
成都都江堰阳阳之家普通公寓,住宿服务,住宿服务相关,住宿服务相关,都之都,四川省,成都市,都江堰市,103.6186964,30.99509124
成都河边住宿,住宿服务,住宿服务相关,住宿服务相关,街子古镇下银杏广场(近新马路),四川省,成都市,都江堰市,103.6279965,30.99391773
维象商务客栈,住宿服务,旅馆招待所,旅馆招待所,新发南路120号(新发南路与景中路交汇处北侧),四川省,成都市,都江堰市,103.6348308,30.98953404
鹿归国际酒店,住宿服务,宾馆酒店,四星级宾馆,幸福镇迎宾大道55号,四川省,成都市,都江堰市,103.633246,30.9874345
金凯登大酒店,住宿服务,宾馆酒店,四星级宾馆,观景路203号(观景路中段),四川省,成都市,都江堰市,103.6309511,30.99514021
福士莱酒店,住宿服务,宾馆酒店,宾馆酒店,观景路1号附38号,四川省,成都市,都江堰市,103.6313675,30.98921206
百伦国际酒店,住宿服务,宾馆酒店,五星级宾馆,都江堰大道211号百伦广场1-18层,四川省,成都市,都江堰市,103.6346969,30.99438644
金沙鸟巢藏文化主题酒店,住宿服务,宾馆酒店,宾馆酒店,迎宾大道67号附1,四川省,成都市,都江堰市,103.6334157,30.98724937
天伦客栈(都江堰),住宿服务,旅馆招待所,旅馆招待所,观景路66-68号,四川省,成都市,都江堰市,103.6319913,30.9894101
汉庭酒店(都江堰景区古城店),住宿服务,宾馆酒店,经济型连锁酒店,光明街40号,四川省,成都市,都江堰市,103.6324911,30.99713297
新豪商务客栈,住宿服务,旅馆招待所,旅馆招待所,观景路312号,四川省,成都市,都江堰市,103.6318972,30.99698287
逸居客栈,住宿服务,旅馆招待所,旅馆招待所,幸福镇新发南路口152号(沈包子对面),四川省,成都市,都江堰市,103.6346701,30.98893462
莘霖住宿,住宿服务,旅馆招待所,旅馆招待所,中山路163号(景中苑旁),四川省,成都市,都江堰市,103.6373108,30.98735963
华鑫商务酒店,住宿服务,宾馆酒店,宾馆酒店,都江堰迎宾大道19-20号(李冰广场对面),四川省,成都市,都江堰市,103.6317209,30.98754554
如家商务客栈,住宿服务,旅馆招待所,旅馆招待所,幸福大道167号钰城大厦B栋二楼,四川省,成都市,都江堰市,103.6286433,30.99447559
缘友商务客栈,住宿服务,旅馆招待所,旅馆招待所,观景路100号2层,四川省,成都市,都江堰市,103.6320212,30.99034952
水利住宿,住宿服务,旅馆招待所,旅馆招待所,石油街26号,四川省,成都市,都江堰市,103.6350125,30.98795469
新世纪客栈(景中路),住宿服务,旅馆招待所,旅馆招待所,景中路上段19号(近新团结小学),四川省,成都市,都江堰市,103.6331611,30.98937051
成都春风十里莫等晓风精装套房普通公寓,住宿服务,宾馆酒店,宾馆酒店,观凤东街115号观凤新区-东苑,四川省,成都市,都江堰市,103.6292733,30.99156247
愉家商务客栈(柏条河南路上段),住宿服务,旅馆招待所,旅馆招待所,都江堰大道167号,四川省,成都市,都江堰市,103.6291584,30.99439099
馨园旅社(新发南路),住宿服务,旅馆招待所,旅馆招待所,石油街44号,四川省,成都市,都江堰市,103.6349337,30.98765297
新村住宿,住宿服务,旅馆招待所,旅馆招待所,中山路163号(景中苑旁),四川省,成都市,都江堰市,103.6373488,30.98742953
丽都住宿(太平街),住宿服务,旅馆招待所,旅馆招待所,太平街473号九寨运业,四川省,成都市,都江堰市,103.6289879,30.98857455
欣悦出租房,住宿服务,旅馆招待所,旅馆招待所,客运中心对面石油街68号(近迎宾路),四川省,成都市,都江堰市,103.6347291,30.98728448
都江堰愉家商务客栈,住宿服务,旅馆招待所,旅馆招待所,幸福大道167号钰城大厦B栋二楼,四川省,成都市,都江堰市,103.6285834,30.99457961
小金住宿,住宿服务,旅馆招待所,旅馆招待所,幸福镇客运中心斜对面迎宾花园久久面馆二楼,四川省,成都市,都江堰市,103.6337799,30.98759766
都江堰如家快捷酒店宣化门天乙街店,住宿服务,旅馆招待所,旅馆招待所,泊条河南路上段南钰城大厦二楼,四川省,成都市,都江堰市,103.6287491,30.99453043
东升住房,住宿服务,旅馆招待所,旅馆招待所,迎宾大道67-附33号附近,四川省,成都市,都江堰市,103.6340514,30.98791909
阿坝天珠酒店,住宿服务,宾馆酒店,宾馆酒店,九寨沟阿坝阿坝县洽塘东街迎宾路43号,四川省,成都市,都江堰市,103.6319515,30.98756222
都江堰古堰亭青年旅舍,住宿服务,旅馆招待所,青年旅舍,都江堰大道钰城大厦二楼,四川省,成都市,都江堰市,103.6290716,30.99448204
天天出租房(三官桥下街),住宿服务,旅馆招待所,旅馆招待所,三官桥下街104号,四川省,成都市,都江堰市,103.6298303,30.99194452
小金临时出租房,住宿服务,旅馆招待所,旅馆招待所,石油街2号25栋,四川省,成都市,都江堰市,103.6351592,30.98832026
宏源出租房,住宿服务,旅馆招待所,旅馆招待所,新发南路63号附11-13,四川省,成都市,都江堰市,103.6356391,30.99015551
成都鑫源旅社,住宿服务,住宿服务相关,住宿服务相关,石油街38号,四川省,成都市,都江堰市,103.6349915,30.98761691
成都一个狗窝窝普通公寓(新发北路店),住宿服务,住宿服务相关,住宿服务相关,新发北路与新发南路交叉口北50米,四川省,成都市,都江堰市,103.6357807,30.99304364
都江堰青城山成都兴兴住宿,住宿服务,住宿服务相关,住宿服务相关,观凤东街124号,四川省,成都市,都江堰市,103.6285497,30.99036308
都江堰青城山成都忠心住宿,住宿服务,住宿服务相关,住宿服务相关,石油街2号25栋5单元2楼,四川省,成都市,都江堰市,103.6350843,30.98838933
都江堰青城山成都虹口雪峰农家乐,住宿服务,住宿服务相关,住宿服务相关,沙湾村二组5号,四川省,成都市,都江堰市,103.6326859,30.99276921
小憩驿站酒店(都江堰店),住宿服务,宾馆酒店,三星级宾馆,都江堰大道273号,四川省,成都市,都江堰市,103.6473856,30.99053948
春天商务酒店,住宿服务,宾馆酒店,三星级宾馆,都江堰大道安康北路15号(近都江堰市人民法院),四川省,成都市,都江堰市,103.6483284,30.99105555
天地仁商务酒店,住宿服务,宾馆酒店,三星级宾馆,都江堰大道257号,四川省,成都市,都江堰市,103.6461953,30.99080236
黄龙酒店(中山北路),住宿服务,宾馆酒店,宾馆酒店,光明街堰锦家园278号,四川省,成都市,都江堰市,103.6393751,30.99617939
金岸客栈,住宿服务,旅馆招待所,旅馆招待所,岷江路17号,四川省,成都市,都江堰市,103.6445861,30.98825454
水源宾馆,住宿服务,宾馆酒店,三星级宾馆,都江堰大道256号,四川省,成都市,都江堰市,103.6443086,30.99047972
世纪云锦酒店,住宿服务,宾馆酒店,三星级宾馆,都江堰大道中段221号,四川省,成都市,都江堰市,103.6403293,30.99216121
凯瑞商务酒店(文荟路),住宿服务,宾馆酒店,宾馆酒店,幸福镇文荟路4号,四川省,成都市,都江堰市,103.6465374,30.99346225
程鑫住宿,住宿服务,旅馆招待所,旅馆招待所,幸福镇景环路497号,四川省,成都市,都江堰市,103.6464528,30.98817743
泓|客栈,住宿服务,旅馆招待所,旅馆招待所,中山路19号6栋附13-14,四川省,成都市,都江堰市,103.639573,30.99009259
名善世家,住宿服务,旅馆招待所,旅馆招待所,幸福镇中山路1号春秋酒店5楼,四川省,成都市,都江堰市,103.639565,30.99119097
成都美伢0000普通公寓,住宿服务,住宿服务相关,住宿服务相关,莲花南路31号都江明珠.5栋三单元,四川省,成都市,都江堰市,103.6420995,30.98963683
成都冬霞农家乐,住宿服务,住宿服务相关,住宿服务相关,青城后山泰安村红岩度假村,四川省,成都市,都江堰市,103.64457,30.99102997
成都都江别居普通公寓(莲花堰路南一巷店),住宿服务,住宿服务相关,住宿服务相关,莲花堰路11号都江花园瑞园11栋1单元4楼13号,四川省,成都市,都江堰市,103.6481915,30.99543127
成都夏夏的栖梦阁普通公寓,住宿服务,住宿服务相关,住宿服务相关,岷江花园10栋3单元3楼5号,四川省,成都市,都江堰市,103.6416673,30.99384611
成都旅行居家普通公寓(莲花南路分店),住宿服务,住宿服务相关,住宿服务相关,莲花南路31号都江明珠6栋1单元8楼39号(茶树巷),四川省,成都市,都江堰市,103.6429546,30.98995925
成都龙之隐酒店,住宿服务,住宿服务相关,住宿服务相关,青城山镇泰安村七组,四川省,成都市,都江堰市,103.6449332,30.99087745
都江堰春秋酒店,住宿服务,住宿服务相关,住宿服务相关,中山路1号蓉城名片火锅(都江堰店)隔壁,四川省,成都市,都江堰市,103.6396158,30.99127484
再来客栈,住宿服务,旅馆招待所,旅馆招待所,联盟南路9号7栋附18号,四川省,成都市,都江堰市,103.650278,30.98737225
成都都江堰温馨套三普通公寓,住宿服务,住宿服务相关,住宿服务相关,紫坪锦苑4-2-2-8,四川省,成都市,都江堰市,103.6543291,30.99224516
成都都江堰浮生普通公寓(善政路店),住宿服务,住宿服务相关,住宿服务相关,善政路与桂花路交叉口北50米,四川省,成都市,都江堰市,103.6578913,30.99541377
成都野鸭湖农家乐,住宿服务,住宿服务相关,住宿服务相关,禹王村10组,四川省,成都市,都江堰市,103.7357154,30.98732642
滨河宾馆(滨河街),住宿服务,宾馆酒店,宾馆酒店,滨河街兰桂苑旁新余街224号,四川省,成都市,彭州市,103.9255533,30.99314134
馨悦酒楼(彭州店),住宿服务,宾馆酒店,宾馆酒店,天彭镇繁江北路357号,四川省,成都市,彭州市,103.9245449,30.99216105
家天下宾馆(新康西路),住宿服务,宾馆酒店,宾馆酒店,新康西路66号,四川省,成都市,彭州市,103.9281362,30.9950351
洪都旅馆,住宿服务,旅馆招待所,旅馆招待所,繁江北路5号附近,四川省,成都市,彭州市,103.9209488,30.99285038
新民旅馆(绣城北路),住宿服务,旅馆招待所,旅馆招待所,繁江北路308号,四川省,成都市,彭州市,103.9252639,30.99078803
润苑休闲庄,住宿服务,住宿服务相关,住宿服务相关,彭温路繁江路派出所附近,四川省,成都市,彭州市,103.918504,30.98752865
牡丹云锦花园酒店,住宿服务,宾馆酒店,四星级宾馆,翠湖路118号,四川省,成都市,彭州市,103.9309376,30.99013918
雅唯客酒店,住宿服务,宾馆酒店,宾馆酒店,体育场西街136号附2号,四川省,成都市,彭州市,103.9297834,30.99370671
君悦宾馆(鲁碾巷),住宿服务,宾馆酒店,宾馆酒店,鲁碾巷24,四川省,成都市,彭州市,103.9294461,30.99231896
新家悦酒店,住宿服务,住宿服务相关,住宿服务相关,天彭镇新康路91号1-4楼,四川省,成都市,彭州市,103.9331932,30.99517402
彭州牡丹云锦公寓酒店,住宿服务,住宿服务相关,住宿服务相关,金彭西路365号云锦华府一楼,四川省,成都市,彭州市,103.9307898,30.99018936
尚雅商务酒店,住宿服务,宾馆酒店,宾馆酒店,花园路162号,四川省,成都市,彭州市,103.9451451,30.99470554
雅乐居公寓,住宿服务,旅馆招待所,旅馆招待所,金彭中路141号,四川省,成都市,彭州市,103.9433207,30.99063542
龙舟宾馆(彭州店),住宿服务,宾馆酒店,宾馆酒店,龙塔西一巷1号,四川省,成都市,彭州市,103.9457317,30.99523408
天香宾馆(龙塔东四巷),住宿服务,宾馆酒店,宾馆酒店,龙塔西二巷6号(近龙塔西二巷),四川省,成都市,彭州市,103.9462284,30.99562785
优然居出租屋,住宿服务,旅馆招待所,旅馆招待所,龙塔西一巷11号附1-2,四川省,成都市,彭州市,103.9452718,30.99547685
济安商务酒店,住宿服务,宾馆酒店,宾馆酒店,朝阳中路381-387号,四川省,成都市,彭州市,103.9465486,30.99569517
众友出租屋,住宿服务,旅馆招待所,旅馆招待所,龙塔西一巷26号附1-2,四川省,成都市,彭州市,103.9452797,30.99579265
如家印象出租屋,住宿服务,旅馆招待所,旅馆招待所,龙塔西一巷3号附1-附2,四川省,成都市,彭州市,103.9456159,30.99529127
景盛出租屋,住宿服务,旅馆招待所,旅馆招待所,龙塔西一巷2号附1,四川省,成都市,彭州市,103.9459142,30.99541861
吉祥住宿(龙塔东巷),住宿服务,旅馆招待所,旅馆招待所,天彭镇花园路龙塔东巷11号,四川省,成都市,彭州市,103.9467302,30.99489226
银泉住宿,住宿服务,旅馆招待所,旅馆招待所,泰安路与红照壁北街交叉口东100米,四川省,成都市,彭州市,103.9463851,30.99262627
鸿运来住宿,住宿服务,宾馆酒店,宾馆酒店,天彭镇龙塔西一巷15号,四川省,成都市,彭州市,103.9451381,30.99561903
北塔住宿,住宿服务,旅馆招待所,旅馆招待所,北巷子与龙兴南路交叉口东100米,四川省,成都市,彭州市,103.9396042,30.99201143
景盛住宿,住宿服务,旅馆招待所,旅馆招待所,龙塔东三巷1-附3号附近,四川省,成都市,彭州市,103.945993,30.99542145
回收公司招待所,住宿服务,旅馆招待所,旅馆招待所,北大街215号,四川省,成都市,彭州市,103.9397608,30.99147446
君悦出租屋,住宿服务,旅馆招待所,旅馆招待所,龙塔西一巷18-附2号附近,四川省,成都市,彭州市,103.9453735,30.99549164
华福住宿,住宿服务,旅馆招待所,旅馆招待所,龙塔东四巷与龙塔东巷交叉口北50米,四川省,成都市,彭州市,103.9466883,30.99538507
清雅住宿,住宿服务,旅馆招待所,旅馆招待所,龙塔西一巷18号,四川省,成都市,彭州市,103.9454314,30.99562345
福林出租屋,住宿服务,旅馆招待所,旅馆招待所,龙塔东五巷8号,四川省,成都市,彭州市,103.9466154,30.9954102
天馨宾馆(泰安路),住宿服务,宾馆酒店,宾馆酒店,泰安路20号,四川省,成都市,彭州市,103.9455592,30.99305068
永欣出租屋,住宿服务,旅馆招待所,旅馆招待所,龙塔西一巷16-附2号附近,四川省,成都市,彭州市,103.9454593,30.9954445
鑫宏出租屋,住宿服务,旅馆招待所,旅馆招待所,天彭镇龙塔西一巷10号,四川省,成都市,彭州市,103.9456349,30.99561905
恒丽出租屋,住宿服务,旅馆招待所,旅馆招待所,天彭镇龙塔西一巷13号,四川省,成都市,彭州市,103.945189,30.99552798
双辉出租屋,住宿服务,旅馆招待所,旅馆招待所,天彭镇龙塔西一巷28-30,四川省,成都市,彭州市,103.9450772,30.99583203
颐佳出租屋,住宿服务,旅馆招待所,旅馆招待所,龙塔西一巷20号附1-2,四川省,成都市,彭州市,103.9453945,30.99572846
石狩彭州友好会馆,住宿服务,宾馆酒店,宾馆酒店,天彭镇花园路108号,四川省,成都市,彭州市,103.9454075,30.9949209
鸿运来出租屋,住宿服务,宾馆酒店,宾馆酒店,龙塔西一巷26-附1号附近,四川省,成都市,彭州市,103.9451381,30.99561903
荣鑫出租屋,住宿服务,旅馆招待所,旅馆招待所,龙塔东一巷8号附1-2,四川省,成都市,彭州市,103.9456209,30.9947086
银泉出租屋,住宿服务,宾馆酒店,宾馆酒店,天彭镇花园路63号(法院后身),四川省,成都市,彭州市,103.9465168,30.99259902
新友佳商务酒店(新城店),住宿服务,宾馆酒店,宾馆酒店,牡丹北路74号,四川省,成都市,彭州市,103.9518518,30.99335228
N华台商务酒店,住宿服务,宾馆酒店,三星级宾馆,金彭东路1号,四川省,成都市,彭州市,103.9505244,30.99187704
俊豪雅绅酒店(天彭镇店),住宿服务,宾馆酒店,宾馆酒店,金彭东路29号(近沃尔玛),四川省,成都市,彭州市,103.951788,30.99108772
彭州信一雅阁酒店,住宿服务,宾馆酒店,四星级宾馆,天彭镇东湖北街6号,四川省,成都市,彭州市,103.9569305,30.98986262
圣元大酒店(牡丹西路),住宿服务,宾馆酒店,宾馆酒店,天彭镇牡丹西路65号8栋,四川省,成都市,彭州市,103.9540846,30.99256071
7iu酒店,住宿服务,宾馆酒店,经济型连锁酒店,朝阳东巷36号,四川省,成都市,彭州市,103.9525132,30.98752417
鼎鑫公寓(东湖四巷),住宿服务,旅馆招待所,旅馆招待所,天彭镇东湖四巷102-108(彭州一中旁),四川省,成都市,彭州市,103.9496629,30.98808208
新港湾住宿(朝阳中路),住宿服务,旅馆招待所,旅馆招待所,天彭镇朝阳中路115号,四川省,成都市,彭州市,103.9511608,30.98826473
晨曦宾馆(东湖四巷),住宿服务,旅馆招待所,旅馆招待所,天彭镇东湖四巷176号,四川省,成都市,彭州市,103.9507579,30.98804873
玛莎加尔大酒店,住宿服务,宾馆酒店,宾馆酒店,牡丹西路南段148号附近,四川省,成都市,彭州市,103.9542035,30.98757431
自然泉出租屋,住宿服务,旅馆招待所,旅馆招待所,东升南二巷18-22,四川省,成都市,彭州市,103.9500179,30.98893682
东湖出租房,住宿服务,旅馆招待所,旅馆招待所,东升南四巷20号附近,四川省,成都市,彭州市,103.9487861,30.98890446
东湖出租屋,住宿服务,旅馆招待所,旅馆招待所,东湖一巷45-47,四川省,成都市,彭州市,103.9486605,30.98901466
彭州吉祥出租屋住宿,住宿服务,旅馆招待所,旅馆招待所,朝阳中路398号附近,四川省,成都市,彭州市,103.9496177,30.99383386
东升出租屋,住宿服务,旅馆招待所,旅馆招待所,天彭镇金彭中路东升路东升南二巷40号,四川省,成都市,彭州市,103.9500089,30.98860004
彭州清凉阁避暑山庄,住宿服务,住宿服务相关,住宿服务相关,九峰村,四川省,成都市,彭州市,103.9568905,30.9921554
彭州起点酒店,住宿服务,住宿服务相关,住宿服务相关,天彭镇牡丹北路68号,四川省,成都市,彭州市,103.9518178,30.99349427
蜀味香酒楼,住宿服务,宾馆酒店,宾馆酒店,天彭镇牡丹北路东段92号(平利药房旁),四川省,成都市,彭州市,103.9647025,30.99344118
良木园,住宿服务,宾馆酒店,宾馆酒店,传染病医院附近,四川省,成都市,彭州市,103.9774618,30.98953434
成都潘佳苑渡假山庄,住宿服务,住宿服务相关,住宿服务相关,赵公山旅游风景区大坪村,四川省,成都市,都江堰市,103.5174056,30.97723052
心香雅舍精品民宿,住宿服务,旅馆招待所,旅馆招待所,水泉村5组,四川省,成都市,都江堰市,103.5518282,30.98086812
赵公山章园,住宿服务,住宿服务相关,住宿服务相关,水泉社区,四川省,成都市,都江堰市,103.5617667,30.9831047
巡岳渡假山庄,住宿服务,住宿服务相关,住宿服务相关,玉堂水泉村3组,四川省,成都市,都江堰市,103.5692435,30.98130075
万家旅馆(三台小区西南),住宿服务,旅馆招待所,旅馆招待所,玉堂镇三台村三组供电所对面,四川省,成都市,都江堰市,103.5981639,30.97911045
都江堰天下客商务客栈,住宿服务,旅馆招待所,旅馆招待所,青城山玉堂镇三台小区12栋1层,四川省,成都市,都江堰市,103.5981379,30.97930634
成都都江堰山水人间公寓,住宿服务,住宿服务相关,住宿服务相关,成都都江堰赵公路158号山水间,四川省,成都市,都江堰市,103.5970094,30.97765839
新花溪鱼港大酒店(都江堰),住宿服务,宾馆酒店,三星级宾馆,玉堂镇青城桥头,四川省,成都市,都江堰市,103.6053401,30.97959827
玉都商务酒店,住宿服务,宾馆酒店,宾馆酒店,玉堂镇鑫玉大道3号,四川省,成都市,都江堰市,103.6019207,30.97779749
万喜商务客栈,住宿服务,宾馆酒店,宾馆酒店,青城桥马家渡(都汶高速下来青城大桥桥头),四川省,成都市,都江堰市,103.604237,30.97970764
鑫玉商务客栈,住宿服务,旅馆招待所,旅馆招待所,鑫玉大道三台小区(近赵公路),四川省,成都市,都江堰市,103.5985297,30.97961512
枫林商务客栈,住宿服务,旅馆招待所,旅馆招待所,玉堂镇三台社区,四川省,成都市,都江堰市,103.5993102,30.98103818
西荣客栈,住宿服务,旅馆招待所,旅馆招待所,赵公路与鑫玉大道交叉口西北100米,四川省,成都市,都江堰市,103.6007155,30.97874124
都江堰市孙大姐旅馆,住宿服务,旅馆招待所,旅馆招待所,玉府路99号附近,四川省,成都市,都江堰市,103.6023294,30.98078965
畅洋汉邑酒店,住宿服务,宾馆酒店,宾馆酒店,玉堂镇新天地旁,四川省,成都市,都江堰市,103.6068029,30.97846527
汉庭酒店(都江堰青城桥万达广场店),住宿服务,宾馆酒店,经济型连锁酒店,青城路400号(装饰材料城),四川省,成都市,都江堰市,103.6183324,30.98118759
华都酒店,住宿服务,宾馆酒店,三星级宾馆,青城路406号水都商厦A-3层,四川省,成都市,都江堰市,103.6177572,30.98146195
都江堰郦湾假日酒店,住宿服务,宾馆酒店,四星级宾馆,青城路619号,四川省,成都市,都江堰市,103.6182056,30.98059105
龙栖客栈,住宿服务,旅馆招待所,旅馆招待所,奎光路西环街88号,四川省,成都市,都江堰市,103.6150518,30.98194698
外江客栈,住宿服务,旅馆招待所,旅馆招待所,青城山奎光路471号(奎光路派出所近青城桥头),四川省,成都市,都江堰市,103.6157629,30.98205434
如家快捷酒店(青城大桥店),住宿服务,宾馆酒店,经济型连锁酒店,奎光路464号,四川省,成都市,都江堰市,103.6168205,30.98243722
宜家商务客栈,住宿服务,旅馆招待所,旅馆招待所,奎光路443号,四川省,成都市,都江堰市,103.6161483,30.98297149
联谊客栈,住宿服务,旅馆招待所,旅馆招待所,幸福镇江堰灌口镇奎光东三街一号二楼,四川省,成都市,都江堰市,103.6169034,30.98215331
亿居假日酒店,住宿服务,宾馆酒店,宾馆酒店,奎光路297号2层(405医院对面交通银行楼上),四川省,成都市,都江堰市,103.6166915,30.9857834
清河客栈,住宿服务,旅馆招待所,旅馆招待所,奎光西下中街168-170,四川省,成都市,都江堰市,103.6140151,30.98168694
爱客商务客栈,住宿服务,旅馆招待所,旅馆招待所,青城路406号岷山水都商厦A-3楼,四川省,成都市,都江堰市,103.6180388,30.98112189
青源住宿,住宿服务,旅馆招待所,旅馆招待所,奎光路东3街3号(如家快捷都江堰万达城青城大桥店旁),四川省,成都市,都江堰市,103.6170032,30.98216822
宜家酒店,住宿服务,宾馆酒店,宾馆酒店,奎光路443号青城桥头,四川省,成都市,都江堰市,103.6164639,30.9826564
第一客栈(都江堰景区店),住宿服务,旅馆招待所,旅馆招待所,奎光塔街道观江社区奎光东三街19号(青城桥头),四川省,成都市,都江堰市,103.6173158,30.9822299
远方的家主题民宿,住宿服务,旅馆招待所,旅馆招待所,奎光路东四街35号(荣事达卫浴楼上),四川省,成都市,都江堰市,103.6183044,30.98181525
天天出租房(奎光东六街),住宿服务,旅馆招待所,旅馆招待所,奎光东六街与奎光东街交叉口西北50米,四川省,成都市,都江堰市,103.6182884,30.98407596
第一栈住宿(都江堰景区店),住宿服务,旅馆招待所,旅馆招待所,奎光东三街19号附近,四川省,成都市,都江堰市,103.6173168,30.98221691
龙栖会所,住宿服务,旅馆招待所,旅馆招待所,奎光西环街与灌温路交叉口北100米,四川省,成都市,都江堰市,103.6150518,30.98194698
凯悦酒店,住宿服务,住宿服务相关,住宿服务相关,青城路434号,四川省,成都市,都江堰市,103.6176773,30.98119518
成都淳果儿的小屋,住宿服务,住宿服务相关,住宿服务相关,外滩星空2-2-4-13,四川省,成都市,都江堰市,103.6168356,30.97812569
成都紫色小屋奎光西下街分店,住宿服务,住宿服务相关,住宿服务相关,奎光西上中街与奎光西上街交叉口西北50米,四川省,成都市,都江堰市,103.6120752,30.98673543
成都都江堰邻景区三居高层观景公寓,住宿服务,住宿服务相关,住宿服务相关,都江堰灌温路51号,四川省,成都市,都江堰市,103.6162394,30.97810921
宜居商务客栈,住宿服务,住宿服务相关,住宿服务相关,奎光路447号,四川省,成都市,都江堰市,103.6164829,30.98282828
青城山玉泉居,住宿服务,住宿服务相关,住宿服务相关,青城山青城人家大坝园三区,四川省,成都市,都江堰市,103.6089278,30.9803181
凯宾商务酒店(江安河西路上段),住宿服务,宾馆酒店,宾馆酒店,青城路332号,四川省,成都市,都江堰市,103.62258,30.98249759
东宁尚锦酒店,住宿服务,宾馆酒店,宾馆酒店,幸福镇青城桥青城路390号,四川省,成都市,都江堰市,103.6188128,30.9812611
江都客栈,住宿服务,旅馆招待所,旅馆招待所,青城路336号附10号,四川省,成都市,都江堰市,103.6228506,30.98283611
盛逸花园酒店,住宿服务,宾馆酒店,宾馆酒店,龙潭湾青城路222号(都市美丽洲斜对面)近都江堰市客运中心,四川省,成都市,都江堰市,103.625031,30.98326542
群群客栈,住宿服务,旅馆招待所,旅馆招待所,青城路336号-18号(华侨商业城正门入口内),四川省,成都市,都江堰市,103.6224542,30.98267762
都市118酒店(奎光东六街),住宿服务,宾馆酒店,经济型连锁酒店,青城路409号,四川省,成都市,都江堰市,103.621364,30.98158839
景怡住宿,住宿服务,旅馆招待所,旅馆招待所,奎光东五街与青城路交叉口西50米,四川省,成都市,都江堰市,103.6190145,30.98123792
华宇客栈,住宿服务,旅馆招待所,旅馆招待所,奎光东五街38号附近,四川省,成都市,都江堰市,103.6190224,30.98191052
成都王琪琪的家普通公寓,住宿服务,住宿服务相关,住宿服务相关,水乡人家b区22/2/3,四川省,成都市,都江堰市,103.619953,30.98318289
成都温馨淡雅居普通公寓(安轻路店),住宿服务,住宿服务相关,住宿服务相关,江安河西滨河路滨江花园东门10栋一单元,四川省,成都市,都江堰市,103.6249135,30.97776473
都江堰糖果小屋客栈,住宿服务,住宿服务相关,住宿服务相关,科技开发区江安河东路中段27号都市美丽洲4栋一单元3楼2号(市区),四川省,成都市,都江堰市,103.6242934,30.9807777
都江堰滨河人家住宿,住宿服务,住宿服务相关,住宿服务相关,滨河路13号,四川省,成都市,都江堰市,103.624553,30.97946016
7天酒店(都江堰店),住宿服务,宾馆酒店,经济型连锁酒店,观凤路66号,四川省,成都市,都江堰市,103.6318328,30.98532267
金沙鸟巢酒店(翔凤路店),住宿服务,宾馆酒店,三星级宾馆,翔凤路178号,四川省,成都市,都江堰市,103.6303177,30.98280815
岷山・安逸大酒店(都江堰店),住宿服务,宾馆酒店,三星级宾馆,青城路8号,四川省,成都市,都江堰市,103.6294622,30.98661407
悦翔酒店,住宿服务,宾馆酒店,三星级宾馆,迎宾大道62号,四川省,成都市,都江堰市,103.6323248,30.98650232
嘉瑞酒店(迎宾大道店),住宿服务,宾馆酒店,三星级宾馆,迎宾大道178号(近客运中心及都江堰景区),四川省,成都市,都江堰市,103.6361354,30.98476288
世纪青城大酒店,住宿服务,宾馆酒店,四星级宾馆,迎宾大道108号,四川省,成都市,都江堰市,103.6349038,30.98549326
布丁酒店(李冰广场店),住宿服务,宾馆酒店,经济型连锁酒店,迎宾路66号,四川省,成都市,都江堰市,103.6325424,30.98645504
金河源宾馆,住宿服务,宾馆酒店,宾馆酒店,观凤路175-179,四川省,成都市,都江堰市,103.6348301,30.9821413
站前江城客栈,住宿服务,旅馆招待所,旅馆招待所,迎宾路76号(都江堰市客运中心内),四川省,成都市,都江堰市,103.6345066,30.98553481
速8酒店(都江堰客运中心店),住宿服务,宾馆酒店,经济型连锁酒店,石油街69号,四川省,成都市,都江堰市,103.6348688,30.98676658
睿艺商务酒店,住宿服务,宾馆酒店,宾馆酒店,翔凤路67-73号,四川省,成都市,都江堰市,103.6293285,30.9846004
蒂芙尼蓝时尚酒店,住宿服务,宾馆酒店,宾馆酒店,迎宾路62号(近李冰广场),四川省,成都市,都江堰市,103.6323478,30.98662022
鑫峰尚宾馆,住宿服务,旅馆招待所,旅馆招待所,翔凤桥社区四组通锦路142-146号,四川省,成都市,都江堰市,103.6356155,30.98316357
鹏程住宿(通锦路),住宿服务,旅馆招待所,旅馆招待所,幸福镇观凤路77号12栋一单元,四川省,成都市,都江堰市,103.634362,30.9836471
驴友驿栈,住宿服务,旅馆招待所,旅馆招待所,翔凤社区观风路37号(7天酒店对门),四川省,成都市,都江堰市,103.6322101,30.98473649
利佳住宿,住宿服务,旅馆招待所,旅馆招待所,翔凤桥社区通锦路68号,四川省,成都市,都江堰市,103.6337911,30.98395574
小城之家商务客栈,住宿服务,旅馆招待所,旅馆招待所,观凤路6号(七天连锁酒店旁边),四川省,成都市,都江堰市,103.6321592,30.98551611
诚信旅馆(石油街),住宿服务,旅馆招待所,旅馆招待所,石油街74号,四川省,成都市,都江堰市,103.6345974,30.98703981
翔和住宿,住宿服务,旅馆招待所,旅馆招待所,通锦路155号,四川省,成都市,都江堰市,103.6346783,30.98386253
红运客栈(迎宾路),住宿服务,旅馆招待所,旅馆招待所,迎宾路187号背后,四川省,成都市,都江堰市,103.6368379,30.98585821
怡家舍,住宿服务,旅馆招待所,旅馆招待所,"观凤路7号附7号(7天连锁酒店对面,客运中心后面)",四川省,成都市,都江堰市,103.6322021,30.98523322
明蓉旅馆,住宿服务,旅馆招待所,旅馆招待所,迎宾大道123号附13,四川省,成都市,都江堰市,103.6354906,30.98673669
小雨驿栈,住宿服务,旅馆招待所,旅馆招待所,幸福镇翔凤社区4组2区10栋1单元(客运中心7天酒店对面),四川省,成都市,都江堰市,103.6323897,30.98515401
玉朋旅馆,住宿服务,旅馆招待所,旅馆招待所,中山路与幸福桥二巷交叉口西100米,四川省,成都市,都江堰市,103.6357331,30.98619965
鑫堰住宿,住宿服务,旅馆招待所,旅馆招待所,祥和二巷2号(客运中心后面申家饭店对面巷内),四川省,成都市,都江堰市,103.6344748,30.98280843
蜀都客栈,住宿服务,旅馆招待所,旅馆招待所,青城路19号附1号,四川省,成都市,都江堰市,103.6303156,30.98627216
渝都住宿(迎宾路),住宿服务,旅馆招待所,旅馆招待所,迎宾路189号,四川省,成都市,都江堰市,103.6369347,30.98546829
观凤招待所,住宿服务,旅馆招待所,旅馆招待所,石油街90号(近迎宾路),四川省,成都市,都江堰市,103.6345445,30.98690696
吉祥住宿,住宿服务,旅馆招待所,旅馆招待所,石油街96号,四川省,成都市,都江堰市,103.6344886,30.98678511
阿粮宾馆(迎宾路店),住宿服务,宾馆酒店,宾馆酒店,迎宾路66号(都江堰客运中心旁),四川省,成都市,都江堰市,103.6325893,30.98657891
新仁客栈,住宿服务,旅馆招待所,旅馆招待所,观凤路84号,四川省,成都市,都江堰市,103.632255,30.98402384
成都都江堰祥瑞客栈,住宿服务,旅馆招待所,旅馆招待所,客运中心旁,四川省,成都市,都江堰市,103.6341124,30.98607006
云来出租房(都江堰总店),住宿服务,旅馆招待所,旅馆招待所,观锦二巷7-11,四川省,成都市,都江堰市,103.6337651,30.98360698
兴旺旅馆(幸福桥二巷),住宿服务,旅馆招待所,旅馆招待所,迎宾大道123号附4-6,四川省,成都市,都江堰市,103.6353549,30.98648204
四海客栈(观凤路),住宿服务,旅馆招待所,旅馆招待所,客运中心后观风路162号(阿波罗音乐会所对面),四川省,成都市,都江堰市,103.6338839,30.98255741
红鑫出租房,住宿服务,旅馆招待所,旅馆招待所,观锦二巷(阿波罗KTV旁边),四川省,成都市,都江堰市,103.6340486,30.98361257
国民出租房,住宿服务,旅馆招待所,旅馆招待所,观锦二巷西侧,四川省,成都市,都江堰市,103.6338021,30.98364091
兴兴住房,住宿服务,旅馆招待所,旅馆招待所,观凤路45号(7天酒店对面),四川省,成都市,都江堰市,103.6326233,30.98475991
休闲雅居,住宿服务,旅馆招待所,旅馆招待所,迎宾大道123号(客运中心对面),四川省,成都市,都江堰市,103.6355505,30.98681556
庭院民宿,住宿服务,旅馆招待所,旅馆招待所,翔凤路71号5栋(7天酒店十字路口),四川省,成都市,都江堰市,103.6315274,30.98449156
馨然居驿栈,住宿服务,旅馆招待所,旅馆招待所,通锦二巷与通锦路交叉口北50米,四川省,成都市,都江堰市,103.6311521,30.9842702
便民旅馆,住宿服务,旅馆招待所,旅馆招待所,四川都江堰客运中心背后观凤路129号,四川省,成都市,都江堰市,103.6333021,30.98334178
睿鑫驿栈,住宿服务,旅馆招待所,旅馆招待所,观凤路20号,四川省,成都市,都江堰市,103.6319186,30.98616107
客之家驿站,住宿服务,旅馆招待所,旅馆招待所,观凤路38号(李冰广场附近),四川省,成都市,都江堰市,103.6319256,30.98599116
芳缘出租房,住宿服务,旅馆招待所,旅馆招待所,观锦一巷34,四川省,成都市,都江堰市,103.6327241,30.98467882
中山出租房(中山路),住宿服务,旅馆招待所,旅馆招待所,中山路256号(景中苑旁边),四川省,成都市,都江堰市,103.6361752,30.98600111
金森住房,住宿服务,旅馆招待所,旅馆招待所,都江堰迎宾路10号,四川省,成都市,都江堰市,103.6307877,30.9864934
祥瑞驿站,住宿服务,旅馆招待所,旅馆招待所,观凤路5号附8号,四川省,成都市,都江堰市,103.6322869,30.98539101
迎宾招待所(吉昌幸福佳苑东),住宿服务,旅馆招待所,旅馆招待所,石油街104号,四川省,成都市,都江堰市,103.6344437,30.98667624
利民旅馆(幸福桥二巷),住宿服务,旅馆招待所,旅馆招待所,中山路231号,四川省,成都市,都江堰市,103.635782,30.98613661
荣欣住宿(通锦路),住宿服务,宾馆酒店,宾馆酒店,观凤路21号,四川省,成都市,都江堰市,103.6323159,30.98483129
幸福旅社(幸福桥二巷),住宿服务,旅馆招待所,旅馆招待所,都江堰迎宾大道125号3楼3号,四川省,成都市,都江堰市,103.635766,30.98621559
庭院客栈,住宿服务,旅馆招待所,旅馆招待所,观凤村4组1区5栋71号,四川省,成都市,都江堰市,103.6316461,30.98586661
荣华招待所(幸福桥二巷),住宿服务,旅馆招待所,旅馆招待所,迎宾大道125号,四川省,成都市,都江堰市,103.6356004,30.98632977
如意出租房(通锦路),住宿服务,旅馆招待所,旅馆招待所,通锦路85-87,四川省,成都市,都江堰市,103.6329816,30.98446458
夕次客栈,住宿服务,旅馆招待所,旅馆招待所,石油街85号,四川省,成都市,都江堰市,103.6348349,30.98675463
馨悦家,住宿服务,旅馆招待所,旅馆招待所,幸福镇观凤路3号6栋1单元,四川省,成都市,都江堰市,103.6325215,30.98485799
安康住宿(新发南路),住宿服务,旅馆招待所,旅馆招待所,迎宾路77号,四川省,成都市,都江堰市,103.6341163,30.98665572
宾朋招待所(世纪青城大酒店西北),住宿服务,旅馆招待所,旅馆招待所,迎宾路89号,四川省,成都市,都江堰市,103.6342511,30.98660156
东方旅馆(幸福桥二巷),住宿服务,旅馆招待所,旅馆招待所,幸福镇石油街73号,四川省,成都市,都江堰市,103.6348878,30.98686649
利民出租房,住宿服务,旅馆招待所,旅馆招待所,中山路237-附4号附近,四川省,成都市,都江堰市,103.6365993,30.98621935
陈姐住宿,住宿服务,旅馆招待所,旅馆招待所,通锦路2号(金沙鸟巢对面),四川省,成都市,都江堰市,103.6309655,30.98352188
雅居民宿,住宿服务,旅馆招待所,旅馆招待所,翔凤一巷与翔凤路交叉口东北50米,四川省,成都市,都江堰市,103.6300791,30.98474135
天天住宿(幸福桥二巷),住宿服务,旅馆招待所,旅馆招待所,中山路240号附2号-3附近,四川省,成都市,都江堰市,103.6362999,30.98648365
鑫峰尚住房,住宿服务,旅馆招待所,旅馆招待所,"翔凤桥社区四组通锦路142-146号,近观景三巷",四川省,成都市,都江堰市,103.6356654,30.98312952
平安青城招待所,住宿服务,旅馆招待所,旅馆招待所,石油街89号,四川省,成都市,都江堰市,103.634796,30.98667973
古堰出租房,住宿服务,旅馆招待所,旅馆招待所,翔和路与迎宾路交叉口西100米,四川省,成都市,都江堰市,103.6352042,30.98575967
巢鸟沙座,住宿服务,宾馆酒店,宾馆酒店,翔凤路186号附近,四川省,成都市,都江堰市,103.6305733,30.98301469
富烨出租房,住宿服务,旅馆招待所,旅馆招待所,迎宾大道123-附4-6号附近,四川省,成都市,都江堰市,103.6351952,30.98656622
齐来居租房,住宿服务,旅馆招待所,旅馆招待所,石油街78号,四川省,成都市,都江堰市,103.6346512,30.98711369
无名出租房,住宿服务,旅馆招待所,旅馆招待所,幸福镇翔凤桥社区观凤路3号6栋,四川省,成都市,都江堰市,103.6324796,30.98491402
仁和出租房,住宿服务,旅馆招待所,旅馆招待所,中山路229号,四川省,成都市,都江堰市,103.6366652,30.98635118
石油街旅馆,住宿服务,旅馆招待所,旅馆招待所,石油街75号,四川省,成都市,都江堰市,103.6348758,30.98684352
翔和客房,住宿服务,住宿服务相关,住宿服务相关,通锦路125号,四川省,成都市,都江堰市,103.6323607,30.98649427
成都涵香居民宿,住宿服务,住宿服务相关,住宿服务相关,翔凤路71号二单元4楼右,四川省,成都市,都江堰市,103.6298465,30.98467569
翔和住房,住宿服务,住宿服务相关,住宿服务相关,翔和路64号鸿旺超市旁巷内15米,四川省,成都市,都江堰市,103.6346434,30.98398151
都江堰怡家舍驿站,住宿服务,住宿服务相关,住宿服务相关,观凤路2号(七天连锁酒店对面),四川省,成都市,都江堰市,103.632261,30.98518816
成都河畔温馨三居普通公寓,住宿服务,住宿服务相关,住宿服务相关,丽水印象一栋三单元7-13,四川省,成都市,都江堰市,103.6319477,30.98175657
成都春熙路悦家公寓(观凤路店),住宿服务,住宿服务相关,住宿服务相关,观凤路131号1栋2单元4楼6号(都江堰太平街),四川省,成都市,都江堰市,103.6341464,30.98289385
金桥商务酒店(彩虹大道南段),住宿服务,宾馆酒店,宾馆酒店,彩虹大道南段378号,四川省,成都市,都江堰市,103.6480614,30.98108676
香樟树花园酒店,住宿服务,宾馆酒店,宾馆酒店,岷江路131号,四川省,成都市,都江堰市,103.6433599,30.98520633
新龙客栈(凉水井路),住宿服务,旅馆招待所,旅馆招待所,迎宾路398号,四川省,成都市,都江堰市,103.6386532,30.9823085
小天鹅客栈,住宿服务,旅馆招待所,旅馆招待所,安康南路300号25栋附6-8,四川省,成都市,都江堰市,103.6458285,30.98302347
派・酒店(都江堰店),住宿服务,宾馆酒店,经济型连锁酒店,"迎宾大道245号(都江堰高铁迎宾路站D出口处,原瑞程名人酒店)",四川省,成都市,都江堰市,103.6389675,30.98442179
聚德天勤城市酒店(百伦广场店),住宿服务,宾馆酒店,宾馆酒店,岷江路111号,四川省,成都市,都江堰市,103.6440773,30.98685819
幸福之家,住宿服务,旅馆招待所,旅馆招待所,安康南路300号31栋,四川省,成都市,都江堰市,103.6470587,30.98114845
竹雅客栈,住宿服务,旅馆招待所,旅馆招待所,安康南路300号幸福社区五组31号楼,四川省,成都市,都江堰市,103.6470029,30.98115554
和家商务宾馆(民康三苑西北),住宿服务,宾馆酒店,宾馆酒店,安康南路300号21栋附6号,四川省,成都市,都江堰市,103.6454424,30.98318203
青杉居,住宿服务,旅馆招待所,旅馆招待所,幸福镇安康南路72号,四川省,成都市,都江堰市,103.6466994,30.98648299
和家商务宾馆(民康一苑西),住宿服务,宾馆酒店,宾馆酒店,幸福镇安康南路300号,四川省,成都市,都江堰市,103.6441852,30.98252151
安康住宿(民康二苑东南),住宿服务,旅馆招待所,旅馆招待所,安康南路300号17栋附1-4,四川省,成都市,都江堰市,103.645181,30.98229997
四川青旅岷江路网点,住宿服务,旅馆招待所,旅馆招待所,岷江路127号蓝郡新界旁,四川省,成都市,都江堰市,103.6437939,30.98610309
安康住房,住宿服务,旅馆招待所,旅馆招待所,安康南路300号17栋附1-4,四川省,成都市,都江堰市,103.64516,30.98230501
岷江住房,住宿服务,旅馆招待所,旅馆招待所,安康南路165号(民康四苑二楼),四川省,成都市,都江堰市,103.6450951,30.98328055
品兴住房,住宿服务,旅馆招待所,旅馆招待所,安康南路300号(都江堰中学对面),四川省,成都市,都江堰市,103.6468033,30.98128081
幸福之家住房,住宿服务,旅馆招待所,旅馆招待所,安康南路300-31栋附11号附近,四川省,成都市,都江堰市,103.6470617,30.98113145
成都都江堰岷江客栈,住宿服务,住宿服务相关,住宿服务相关,安康南路300号20栋,四川省,成都市,都江堰市,103.6452628,30.98326028
成都都江堰邻景区三居高层观景公寓(景环路口店),住宿服务,住宿服务相关,住宿服务相关,幸福大道中段岷江路92号蓝郡新界13栋1单元204,四川省,成都市,都江堰市,103.6439795,30.9867804
鑫鑫住宿(联盟6巷),住宿服务,旅馆招待所,旅馆招待所,联盟南路9号14栋附7号,四川省,成都市,都江堰市,103.650311,30.98646072
天从人商务酒店,住宿服务,宾馆酒店,宾馆酒店,景环路402号,四川省,成都市,都江堰市,103.6510662,30.98674421
宝莲住房,住宿服务,旅馆招待所,旅馆招待所,宝莲路613号(市医疗中心东北门对面),四川省,成都市,都江堰市,103.6550597,30.98254242
吉鑫客栈,住宿服务,旅馆招待所,旅馆招待所,宝莲路561号(医疗中心前门斜对面),四川省,成都市,都江堰市,103.6538417,30.98279449
旅安居驿馆,住宿服务,旅馆招待所,旅馆招待所,"彩虹大道南段196号4栋(杜鹃苑旁,欣盛大厦对面)",四川省,成都市,都江堰市,103.6512848,30.98393444
旅安居,住宿服务,旅馆招待所,旅馆招待所,"彩虹大道南段196号4栋(杜鹃苑旁,欣盛大厦对面)",四川省,成都市,都江堰市,103.6513446,30.98391135
成都都江堰景区观岚小墅超大花园跃层复式,住宿服务,住宿服务相关,住宿服务相关,银海花园2期9栋1单元6楼11号,四川省,成都市,都江堰市,103.6486668,30.98578
成都青年驿站,住宿服务,住宿服务相关,住宿服务相关,二环路彩虹大道南段208号杜鹃苑196号附6号,四川省,成都市,都江堰市,103.6500028,30.98371784
锦江丽景酒店,住宿服务,宾馆酒店,三星级宾馆,永友路574号(友爱学校对面),四川省,成都市,都江堰市,103.6599769,30.9776381
岷江新濠酒店,住宿服务,宾馆酒店,五星级宾馆,都江堰大道388号,四川省,成都市,都江堰市,103.6587316,30.9868931
回家客栈,住宿服务,旅馆招待所,旅馆招待所,胥家大林69号,四川省,成都市,都江堰市,103.6671867,30.98117834
宜必思酒店(都江堰店),住宿服务,住宿服务相关,住宿服务相关,都江堰大道乐佳广场3号楼23F-28F,四川省,成都市,都江堰市,103.6608643,30.98607557
红易客栈,住宿服务,旅馆招待所,旅馆招待所,天马镇金堰路258号,四川省,成都市,都江堰市,103.7487272,30.98099917
天马客栈,住宿服务,旅馆招待所,旅馆招待所,天马镇金堰路196号,四川省,成都市,都江堰市,103.7522289,30.97895667
铂金宾馆(西大街店),住宿服务,宾馆酒店,宾馆酒店,外西街477号附6号老铁市内,四川省,成都市,彭州市,103.9283093,30.98461188
金源商务宾馆(外西街),住宿服务,宾馆酒店,宾馆酒店,彭州外西街507号,四川省,成都市,彭州市,103.9277522,30.98445068
西海商务宾馆(西海南街),住宿服务,宾馆酒店,宾馆酒店,西海南街81-83号,四川省,成都市,彭州市,103.9362038,30.98191598
西江月大酒店,住宿服务,宾馆酒店,三星级宾馆,天府西路268号,四川省,成都市,彭州市,103.9332756,30.98117896
仕友商务酒店,住宿服务,宾馆酒店,宾馆酒店,西南市街30号,四川省,成都市,彭州市,103.9356777,30.98617537
熊猫仔酒店(彭州店),住宿服务,宾馆酒店,宾馆酒店,西南市街47号(西华大学附近),四川省,成都市,彭州市,103.9358524,30.9854585
怡家酒店(成都彭州西大街店),住宿服务,宾馆酒店,经济型连锁酒店,西大街100-118号(钟楼路与西大街交叉口西150米),四川省,成都市,彭州市,103.9371267,30.98630094
静和达商务宾馆,住宿服务,宾馆酒店,宾馆酒店,天彭镇兄弟伞业繁江路,四川省,成都市,彭州市,103.9328575,30.97988633
繁江旅馆,住宿服务,旅馆招待所,旅馆招待所,天彭镇繁江南路308号,四川省,成都市,彭州市,103.9356152,30.9781421
鑫源出租屋,住宿服务,旅馆招待所,旅馆招待所,天彭镇西海东街83号附3号,四川省,成都市,彭州市,103.9360421,30.98376618
宏峰旅馆(西南市街),住宿服务,旅馆招待所,旅馆招待所,天彭镇西南市街9号,四川省,成都市,彭州市,103.9353534,30.98609593
天彭宾馆(彭州店),住宿服务,旅馆招待所,旅馆招待所,天彭镇西南市街47号,四川省,成都市,彭州市,103.9357067,30.98550671
佳联华宾馆,住宿服务,宾馆酒店,宾馆酒店,天府西路156-160号附近,四川省,成都市,彭州市,103.935139,30.98104918
西桥旅馆(外西街),住宿服务,旅馆招待所,旅馆招待所,外西街与翠湖路交汇处东50米,四川省,成都市,彭州市,103.9327554,30.98612089
富华旅馆(建设巷),住宿服务,旅馆招待所,旅馆招待所,彭州西大街建设巷13-15号,四川省,成都市,彭州市,103.9304556,30.98630406
蓝峰出租房,住宿服务,旅馆招待所,旅馆招待所,西海东街62-66,四川省,成都市,彭州市,103.9365171,30.98374342
祥瑞出租房,住宿服务,旅馆招待所,旅馆招待所,西海东街104号附19号,四川省,成都市,彭州市,103.9352187,30.98387143
西郊茶旅社,住宿服务,旅馆招待所,旅馆招待所,天彭镇西大街171号,四川省,成都市,彭州市,103.9346976,30.98653171
西郊供销社招待所,住宿服务,旅馆招待所,旅馆招待所,外西街与绣城北路交叉口西北50米,四川省,成都市,彭州市,103.9289472,30.98513376
兴达旅馆(外西街),住宿服务,旅馆招待所,旅馆招待所,西大街260号,四川省,成都市,彭州市,103.9337315,30.98625035
彭州市就业培训中心招待所,住宿服务,旅馆招待所,旅馆招待所,西大街(小北街北侧),四川省,成都市,彭州市,103.9333672,30.98645479
旌凤公寓,住宿服务,旅馆招待所,旅馆招待所,康居北巷与康居巷交叉口西南50米,四川省,成都市,彭州市,103.9373794,30.98159024
鑫苑出租房,住宿服务,住宿服务相关,住宿服务相关,西海东街83号附3号,四川省,成都市,彭州市,103.9368185,30.98406874
经典宾馆(兴隆街),住宿服务,宾馆酒店,宾馆酒店,迎宾路中段中医院斜对面物资局侧,四川省,成都市,彭州市,103.9389232,30.97860634
容贵酒店(彭州店),住宿服务,宾馆酒店,四星级宾馆,联升街3号,四川省,成都市,彭州市,103.9386645,30.98615043
聚源宾馆(新民路),住宿服务,宾馆酒店,宾馆酒店,新民路163号,四川省,成都市,彭州市,103.9469979,30.98411193
成都银杏商务宾馆(彭州车站店),住宿服务,宾馆酒店,宾馆酒店,天府中路92-94号,四川省,成都市,彭州市,103.9426567,30.98043955
添府宾馆,住宿服务,旅馆招待所,旅馆招待所,新民西街50号,四川省,成都市,彭州市,103.9458519,30.98194349
华丰宾馆(新民路),住宿服务,宾馆酒店,宾馆酒店,新民路48-50号,四川省,成都市,彭州市,103.9448533,30.9839773
红升宾馆(新民街),住宿服务,宾馆酒店,宾馆酒店,新民西街70-74号,四川省,成都市,彭州市,103.9458569,30.98236924
未来酒店(南大街),住宿服务,宾馆酒店,宾馆酒店,彭州南大街8号(十字口),四川省,成都市,彭州市,103.9403837,30.98599051
友佳宾馆(新民路店),住宿服务,宾馆酒店,宾馆酒店,新民路32-36号,四川省,成都市,彭州市,103.9444383,30.98394113
新友佳商务酒店,住宿服务,宾馆酒店,四星级宾馆,天府中路新民西街2号,四川省,成都市,彭州市,103.9452584,30.98095624
银都假日酒店(东南市街34号院东),住宿服务,宾馆酒店,宾馆酒店,天彭镇新民西街126号,四川省,成都市,彭州市,103.9456702,30.98581462
银都假日酒店(银都茶楼店),住宿服务,宾馆酒店,宾馆酒店,新民西街151-157号,四川省,成都市,彭州市,103.9457002,30.98522391
友佳主题酒店(车站店),住宿服务,宾馆酒店,宾馆酒店,天府中路新民西街176号9p彭州车站旁,四川省,成都市,彭州市,103.9459027,30.98482073
兴民宾馆(新民街),住宿服务,宾馆酒店,宾馆酒店,新民西街80-84号,四川省,成都市,彭州市,103.9458629,30.98248216
利民宾馆(新民西街东九巷),住宿服务,宾馆酒店,宾馆酒店,新民东九巷66-74,四川省,成都市,彭州市,103.9472602,30.9858384
佳源宾馆(新民东一巷),住宿服务,宾馆酒店,宾馆酒店,天彭镇新民西街东一巷11号,四川省,成都市,彭州市,103.9461312,30.98311526
一梦宾馆,住宿服务,宾馆酒店,宾馆酒店,新民西街54-56号,四川省,成都市,彭州市,103.9458579,30.98201644
鑫缘大酒店(东大街店),住宿服务,宾馆酒店,宾馆酒店,东大街83号,四川省,成都市,彭州市,103.942432,30.98657743
国珍旅馆,住宿服务,旅馆招待所,旅馆招待所,新民西街92-94号,四川省,成都市,彭州市,103.9458589,30.98272903
凯维商务酒店,住宿服务,宾馆酒店,宾馆酒店,新民西街中段49-57号,四川省,成都市,彭州市,103.9456853,30.98227364
古月楼,住宿服务,宾馆酒店,三星级宾馆,新民西街200-204号,四川省,成都市,彭州市,103.9458139,30.98555449
回龙宾馆(新民东一巷),住宿服务,旅馆招待所,旅馆招待所|住宿服务,新民东一巷25-27,四川省,成都市,彭州市,103.9464194,30.98312967
蓉鑫宾馆(新民店),住宿服务,宾馆酒店,宾馆酒店,新民西街167-169号(近新民西九巷),四川省,成都市,彭州市,103.9456882,30.98557972
紫藤苑,住宿服务,旅馆招待所,旅馆招待所,新民东五巷49,四川省,成都市,彭州市,103.9471266,30.98463537
福人居,住宿服务,旅馆招待所,旅馆招待所,彭州新民西街西四巷14-16号,四川省,成都市,彭州市,103.9454409,30.98288077
天星宾馆(新民东一巷),住宿服务,宾馆酒店,宾馆酒店,新民东一巷29号,四川省,成都市,彭州市,103.9465062,30.9831265
友谊宾馆(新民西九巷),住宿服务,宾馆酒店,宾馆酒店|住宿服务,新民西九巷39号,四川省,成都市,彭州市,103.9450019,30.98577497
闳鑫旅馆(新民路),住宿服务,旅馆招待所,旅馆招待所,新民路80号,四川省,成都市,彭州市,103.9456703,30.98393671
悦扬宾馆,住宿服务,旅馆招待所,旅馆招待所,新民西街127-129号,四川省,成都市,彭州市,103.9456693,30.98389673
鑫苑出租房,住宿服务,旅馆招待所,旅馆招待所,新民西街105-107号,四川省,成都市,彭州市,103.9456703,30.98347997
正深宾馆,住宿服务,宾馆酒店,宾馆酒店,新民西街45-47号,四川省,成都市,彭州市,103.9456694,30.98201682
君宜宾馆(朝阳南路),住宿服务,宾馆酒店,宾馆酒店,朝阳南路293-303号,四川省,成都市,彭州市,103.9470511,30.97833316
美好家园(天府南路),住宿服务,旅馆招待所,旅馆招待所,天府南路110-112号,四川省,成都市,彭州市,103.9455419,30.97766158
迎祥宾馆,住宿服务,旅馆招待所,旅馆招待所,天彭镇新民西街西九巷30号,四川省,成都市,彭州市,103.9451186,30.98568579
阳光・星辉酒店(彭州店),住宿服务,宾馆酒店,三星级宾馆,天彭镇安仁东街58号,四川省,成都市,彭州市,103.9422525,30.98398026
学府宾馆(南大街),住宿服务,宾馆酒店,宾馆酒店,南大街285号,四川省,成都市,彭州市,103.9400317,30.98118791
丽媛旅馆(新民西七巷),住宿服务,旅馆招待所,旅馆招待所,西六巷1-3,四川省,成都市,彭州市,103.9454678,30.98329848
金盆宾馆(新民街),住宿服务,宾馆酒店,宾馆酒店,新民西街35-37号,四川省,成都市,彭州市,103.9456664,30.98191688
成都鑫悦楼住宿南门车站店,住宿服务,旅馆招待所,旅馆招待所,新民西五巷18-20,四川省,成都市,彭州市,103.9452663,30.98319194
熙客莱住宿,住宿服务,旅馆招待所,旅馆招待所,新民西八巷5-9,四川省,成都市,彭州市,103.945359,30.98526756
华胜出租屋,住宿服务,旅馆招待所,旅馆招待所,天彭镇新民西街东2巷39号,四川省,成都市,彭州市,103.9462678,30.98344479
红华旅馆,住宿服务,旅馆招待所,旅馆招待所,天彭镇新民东街9号,四川省,成都市,彭州市,103.9475118,30.98130849
主题客栈(新民街),住宿服务,旅馆招待所,旅馆招待所,新民街172号亲亲家园旁,四川省,成都市,彭州市,103.9458129,30.98447911
金鑫宾馆(新民街),住宿服务,宾馆酒店,宾馆酒店,新民西街39-43号,四川省,成都市,彭州市,103.9456674,30.98197784
顺源宾馆(润鑫宅院北),住宿服务,宾馆酒店,宾馆酒店,新民西八巷37-41,四川省,成都市,彭州市,103.9447924,30.98531065
温馨缘,住宿服务,旅馆招待所,旅馆招待所,外南街76号,四川省,成都市,彭州市,103.9415054,30.9788636
珈翔公寓,住宿服务,旅馆招待所,旅馆招待所,新民东七巷与新民东街交叉口西100米,四川省,成都市,彭州市,103.9470069,30.98526625
凯兴旅馆(新民街),住宿服务,旅馆招待所,旅馆招待所,新民西街108-110号,四川省,成都市,彭州市,103.9458489,30.98290694
人和旅馆(新民街),住宿服务,旅馆招待所,旅馆招待所,新民路97-111号,四川省,成都市,彭州市,103.9461162,30.98412271
银龙宾馆(新民街),住宿服务,宾馆酒店,宾馆酒店,新民西街86-90号,四川省,成都市,彭州市,103.9458629,30.98256811
泓燕出租房,住宿服务,旅馆招待所,旅馆招待所,新民西街121号(近新民西南巷),四川省,成都市,彭州市,103.9456693,30.98374182
回归宾馆,住宿服务,宾馆酒店,宾馆酒店,天彭镇新民东一巷25号(蓓蕾幼儿园对面),四川省,成都市,彭州市,103.9463746,30.98312376
昌武招待所,住宿服务,旅馆招待所,旅馆招待所,南大街52-54号,四川省,成都市,彭州市,103.9403837,30.98512601
成都鑫苑宾馆,住宿服务,宾馆酒店,宾馆酒店,"新民西街105-107,近新民街",四川省,成都市,彭州市,103.9456803,30.98353192
鑫东出租屋,住宿服务,旅馆招待所,旅馆招待所,新民四巷7-9,四川省,成都市,彭州市,103.9480043,30.98586485
友源,住宿服务,旅馆招待所,旅馆招待所,新民西街188-192号,四川省,成都市,彭州市,103.9458009,30.98516674
新运家庭公寓,住宿服务,旅馆招待所,旅馆招待所,天府南路29-37号,四川省,成都市,彭州市,103.9458221,30.97953794
东升旅馆(新民东街东二巷),住宿服务,旅馆招待所,旅馆招待所,新民二巷7-9,四川省,成都市,彭州市,103.9479126,30.98458777
友谊B栋出租房,住宿服务,旅馆招待所,旅馆招待所,新民东一巷7-9号,四川省,成都市,彭州市,103.9460195,30.98311648
茂雅旅馆,住宿服务,旅馆招待所,旅馆招待所,新民西街西8巷32-36号,四川省,成都市,彭州市,103.9449121,30.98540136
九源出租屋,住宿服务,旅馆招待所,旅馆招待所,新民东九巷30-34,四川省,成都市,彭州市,103.9465879,30.98584976
嘉佳出租房,住宿服务,旅馆招待所,旅馆招待所,新民西街175-177号,四川省,成都市,彭州市,103.9456712,30.98575765
快乐鱼出租房,住宿服务,旅馆招待所,旅馆招待所,天彭镇新民西街123号,四川省,成都市,彭州市,103.9456693,30.98383377
鑫茂,住宿服务,旅馆招待所,旅馆招待所,新民西街西2巷1-3号,四川省,成都市,彭州市,103.9455317,30.98235689
东旗,住宿服务,旅馆招待所,旅馆招待所,新民西三巷与新民西街西南巷交叉口西南50米,四川省,成都市,彭州市,103.9445032,30.98229295
九九公寓,住宿服务,旅馆招待所,旅馆招待所,新民西街西南巷与新民路交叉口东南50米,四川省,成都市,彭州市,103.9446268,30.98389479
威尼斯,住宿服务,旅馆招待所,旅馆招待所,新民西五巷5-7,四川省,成都市,彭州市,103.9454728,30.98294267
汇鑫楼,住宿服务,旅馆招待所,旅馆招待所,新民路54-58号,四川省,成都市,彭州市,103.9450558,30.9839829
隆龙出租房,住宿服务,旅馆招待所,旅馆招待所,新民西街130号,四川省,成都市,彭州市,103.9458139,30.98348768
汇友(新民西七巷),住宿服务,旅馆招待所,旅馆招待所,新民路西街西七巷11号,四川省,成都市,彭州市,103.9450897,30.98362004
青年客栈(新民街),住宿服务,旅馆招待所,旅馆招待所,新民西街97-101号,四川省,成都市,彭州市,103.9456563,30.98321615
家园出租屋,住宿服务,旅馆招待所,旅馆招待所,近郊彭州市新民路154号,四川省,成都市,彭州市,103.9467566,30.98410842
金莎住宿,住宿服务,旅馆招待所,旅馆招待所,新民西街100号,四川省,成都市,彭州市,103.9458599,30.98283297
青年出租房,住宿服务,住宿服务相关,住宿服务相关,新民西街91旁,四川省,成都市,彭州市,103.9455596,30.98330129
彭州家园宾馆,住宿服务,住宿服务相关,住宿服务相关,新民路143号,四川省,成都市,彭州市,103.9472802,30.9841983
成都友佳宾馆B栋,住宿服务,住宿服务相关,住宿服务相关,新民西街135号,四川省,成都市,彭州市,103.9459156,30.98489367
君兰临时出租房,住宿服务,住宿服务相关,住宿服务相关,兴隆街100号,四川省,成都市,彭州市,103.938587,30.97789633
大唐商务宾馆(兴盛路),住宿服务,宾馆酒店,宾馆酒店,天彭镇兴盛路146号,四川省,成都市,彭州市,103.9526889,30.98308033
昆达酒店,住宿服务,宾馆酒店,宾馆酒店,东湖南街256号,四川省,成都市,彭州市,103.9572608,30.98250008
融恒时代酒店,住宿服务,宾馆酒店,宾馆酒店,天彭镇天府东路32号(步行5分钟可到彭州客运中心),四川省,成都市,彭州市,103.9518014,30.98034889
金豪城宾馆,住宿服务,宾馆酒店,三星级宾馆,朝阳南路718号(兴盛路口),四川省,成都市,彭州市,103.9509636,30.98283029
彭州星锦华宾馆(南门车站店),住宿服务,宾馆酒店,宾馆酒店,天府东路5号,四川省,成都市,彭州市,103.9516399,30.98084696
成都天一宾馆(彭州车站店),住宿服务,宾馆酒店,宾馆酒店,天府中路352-356号,四川省,成都市,彭州市,103.9487975,30.98043432
花园宾馆(兴盛路店),住宿服务,宾馆酒店,宾馆酒店,金阁新城大门对面兴盛路190号,四川省,成都市,彭州市,103.9528584,30.98379554
彭州为人快捷宾馆(客运站店),住宿服务,宾馆酒店,宾馆酒店,天彭镇兴盛路76号,四川省,成都市,彭州市,103.9528325,30.98201763
谊家宾馆(东湖南街),住宿服务,宾馆酒店,宾馆酒店,东湖南街300-310号,四川省,成都市,彭州市,103.9573187,30.98177136
家悦酒店(康乐路店),住宿服务,宾馆酒店,宾馆酒店,康乐路235号,四川省,成都市,彭州市,103.9519808,30.98386746
温馨旅馆(新民东街东四巷),住宿服务,旅馆招待所,旅馆招待所,新民四巷25-27,四川省,成都市,彭州市,103.9483315,30.98587416
客稼商务酒店,住宿服务,宾馆酒店,宾馆酒店,天彭镇康乐路101号,四川省,成都市,彭州市,103.954778,30.98383515
丹城印象酒店,住宿服务,宾馆酒店,宾馆酒店,天府东路38号附7-8,四川省,成都市,彭州市,103.9523679,30.98020171
速8快捷出租房,住宿服务,旅馆招待所,旅馆招待所,新民三巷34-40,四川省,成都市,彭州市,103.9486447,30.98499201
东旗商务宾馆,住宿服务,宾馆酒店,宾馆酒店,兴盛路128号(同洲行茶楼旁),四川省,成都市,彭州市,103.9526929,30.98286045
阳光出租,住宿服务,旅馆招待所,旅馆招待所,新民四巷33-35,四川省,成都市,彭州市,103.948489,30.98587783
敬邻,住宿服务,宾馆酒店,宾馆酒店,天彭镇东湖南街256号,四川省,成都市,彭州市,103.9572998,30.98186935
林野招待所,住宿服务,旅馆招待所,旅馆招待所,致和镇朝阳南路688号,四川省,成都市,彭州市,103.9505936,30.9821405
天友旅馆(天府东路),住宿服务,旅馆招待所,旅馆招待所,天府东路25号,四川省,成都市,彭州市,103.9512669,30.98081579
大唐出租房,住宿服务,旅馆招待所,旅馆招待所,天彭镇兴盛一巷26号,四川省,成都市,彭州市,103.9541617,30.98536268
外东旅店,住宿服务,旅馆招待所,旅馆招待所,东大街426号,四川省,成都市,彭州市,103.9493618,30.98593795
颐都旅馆,住宿服务,旅馆招待所,旅馆招待所,天彭镇新民东街东一巷44号,四川省,成都市,彭州市,103.9487195,30.9843932
彭州阳光出租屋,住宿服务,住宿服务相关,住宿服务相关,"天彭镇新民四巷33号,近新民街",四川省,成都市,彭州市,103.9485858,30.98577668
彭州家和宾馆,住宿服务,住宿服务相关,住宿服务相关,天彭镇康乐街235号(近彭州康平超市),四川省,成都市,彭州市,103.9520287,30.9837844
天天出租屋,住宿服务,住宿服务相关,住宿服务相关,新民东街东二巷与新民西街东五巷交叉口东100米,四川省,成都市,彭州市,103.9485828,30.98501213
胖妹出租屋,住宿服务,住宿服务相关,住宿服务相关,东湖西二巷与英烈路交叉口东50米,四川省,成都市,彭州市,103.9552496,30.98476052
瑞思贝特酒店,住宿服务,宾馆酒店,宾馆酒店,天彭镇国泰南路7号爱国小区15栋13号,四川省,成都市,彭州市,103.9598459,30.9868443
晋林公司招待所,住宿服务,旅馆招待所,旅馆招待所,天彭镇晋林小区,四川省,成都市,彭州市,103.9589309,30.98157858
东山商务会所,住宿服务,旅馆招待所,旅馆招待所,,四川省,成都市,彭州市,103.9658701,30.98638819
成都梦园客栈,住宿服务,住宿服务相关,住宿服务相关,天彭镇调露小区牡丹北巷71号附14号(花漾火锅斜对面),四川省,成都市,彭州市,103.960799,30.98680096
逸仙居山居乡村酒店,住宿服务,宾馆酒店,宾馆酒店,,四川省,成都市,都江堰市,103.5454852,30.97534856
檩然温泉度假酒店,住宿服务,宾馆酒店,宾馆酒店,玉府路131号,四川省,成都市,都江堰市,103.6058199,30.97581525
成都瀚海博雅酒店,住宿服务,宾馆酒店,四星级宾馆,玉堂镇青城山大道玉府路426号,四川省,成都市,都江堰市,103.6075286,30.96955106
鑫钰客栈,住宿服务,旅馆招待所,旅馆招待所,铁军路5栋附3号附近,四川省,成都市,都江堰市,103.6018289,30.97674212
巴适客栈,住宿服务,旅馆招待所,旅馆招待所,铁军路2栋附7号附近,四川省,成都市,都江堰市,103.6020218,30.97581161
李二哥客栈,住宿服务,旅馆招待所,旅馆招待所,铁军路127号附近,四川省,成都市,都江堰市,103.6018969,30.97493715
拜登观邸度假公寓(都江堰外滩新天地店),住宿服务,宾馆酒店,宾馆酒店,玉沿路外滩新天地29栋B1层,四川省,成都市,都江堰市,103.6110918,30.97415035
成都峥嵘cn普通公寓,住宿服务,宾馆酒店,宾馆酒店,安金路256号青城雪,四川省,成都市,都江堰市,103.6252423,30.96939218
成都奇拉民宿(内二环路口店),住宿服务,住宿服务相关,住宿服务相关,枫尚领域(安轻路),四川省,成都市,都江堰市,103.6213643,30.97296537
成都望天阁复式,住宿服务,住宿服务相关,住宿服务相关,安金路188号岷江河畔,四川省,成都市,都江堰市,103.6246212,30.97082807
腾飞酒店,住宿服务,宾馆酒店,宾馆酒店,彩虹大道南段1135号青城一号1栋,四川省,成都市,都江堰市,103.6288081,30.96950678
帝豪商务酒店(水都豪庭西),住宿服务,宾馆酒店,宾馆酒店,二环路水都豪庭南段895号,四川省,成都市,都江堰市,103.6342736,30.97284246
银座假日酒店,住宿服务,宾馆酒店,宾馆酒店,彩虹大道二环路南段水都豪庭877号(海蓉药业正对面),四川省,成都市,都江堰市,103.6351418,30.97325597
成都游乐园不打烊普通公寓,住宿服务,住宿服务相关,住宿服务相关,天府大道与安吉路交叉口西北50米,四川省,成都市,都江堰市,103.6298848,30.97638042
御之景商务酒店,住宿服务,宾馆酒店,宾馆酒店,幸福镇银丰路74-76号,四川省,成都市,都江堰市,103.644037,30.9710004
嘉可商务客栈,住宿服务,旅馆招待所,旅馆招待所,"翔凤路855号(李冰小学后门,轻轨站旁)",四川省,成都市,都江堰市,103.6434103,30.97269046
成都稀客驿站,住宿服务,住宿服务相关,住宿服务相关,民主a5a55-2-10-30,四川省,成都市,都江堰市,103.6468247,30.97183922
都江堰江堰家庭旅馆,住宿服务,住宿服务相关,住宿服务相关,幸福镇明主小区A5(李冰小学对面),四川省,成都市,都江堰市,103.6458639,30.97203974
都江堰汉唐美人汉服主题体验馆民宿,住宿服务,旅馆招待所,旅馆招待所,兴堰丽景C区二栋五单元三楼六号,四川省,成都市,都江堰市,103.6582742,30.97448112
华富山珍,住宿服务,住宿服务相关,住宿服务相关,近郊沙西线乌龟桥路口,四川省,成都市,都江堰市,103.7175173,30.96836273
玉泉客栈,住宿服务,旅馆招待所,旅馆招待所,天马镇玉泉街83-2号,四川省,成都市,都江堰市,103.7491254,30.97643182
成都尚云舍客栈都江堰大道分店,住宿服务,住宿服务相关,住宿服务相关,向荣村,四川省,成都市,都江堰市,103.764242,30.96839835
尚云舍民宿,住宿服务,住宿服务相关,住宿服务相关,向荣村2组29号,四川省,成都市,都江堰市,103.76424,30.96851428
隐庐小筑,住宿服务,住宿服务相关,住宿服务相关,北桂公路附近,四川省,成都市,彭州市,103.7942252,30.97679014
华强住宿部,住宿服务,住宿服务相关,住宿服务相关,北桂公路与长庆街交叉口北150米,四川省,成都市,彭州市,103.8101681,30.96848644
顺发旅馆(繁江南路),住宿服务,旅馆招待所,旅馆招待所,繁江南路206-208号,四川省,成都市,彭州市,103.9370163,30.97692953
临时出租房,住宿服务,旅馆招待所,旅馆招待所,繁江南路127号附近,四川省,成都市,彭州市,103.9383017,30.97552519
彭州鸿丰出租房住宿,住宿服务,住宿服务相关,住宿服务相关,天彭镇兴隆街11号,四川省,成都市,彭州市,103.9378636,30.97677421
贵友商务酒店,住宿服务,宾馆酒店,宾馆酒店,朝阳南路与萧公路交叉口南50米,四川省,成都市,彭州市,103.9435588,30.97547671
银峰酒店(商务店),住宿服务,宾馆酒店,宾馆酒店,朝阳南路216-218号,四川省,成都市,彭州市,103.945086,30.97627029
向阳旅馆,住宿服务,旅馆招待所,旅馆招待所,天彭镇繁江南路278号附2号,四川省,成都市,彭州市,103.9402644,30.97475621
天乐宾馆(朝阳南路),住宿服务,宾馆酒店,宾馆酒店,致和镇天彭镇朝阳南路256号,四川省,成都市,彭州市,103.9456915,30.97696369
宏阳商务宾馆(长江路),住宿服务,宾馆酒店,宾馆酒店,致和镇长江路128号,四川省,成都市,彭州市,103.9499256,30.97686598
彭州恒大酒店,住宿服务,宾馆酒店,宾馆酒店,长江路120号附近,四川省,成都市,彭州市,103.9507584,30.97640645
格林酒家,住宿服务,宾馆酒店,宾馆酒店,长江路林业局旁,四川省,成都市,彭州市,103.9504672,30.97586639
彭州庆邻居出租屋,住宿服务,住宿服务相关,住宿服务相关,长江路151号附近,四川省,成都市,彭州市,103.9502817,30.97676827
都江堰武海中华青城名仕度假酒店,住宿服务,宾馆酒店,宾馆酒店,玉白路与铁军路交叉口西100米,四川省,成都市,都江堰市,103.6032154,30.96529332
美而馨假日酒店(万达文化旅游城店),住宿服务,宾馆酒店,宾馆酒店,玉堂镇永康小区锦西街25号,四川省,成都市,都江堰市,103.6130839,30.96497328
丁家堡乡村酒店,住宿服务,宾馆酒店,宾馆酒店|餐饮服务,玉堂镇玉府路319号,四川省,成都市,都江堰市,103.6135463,30.96490797
圆舍民宿,住宿服务,旅馆招待所,旅馆招待所,铁军路附近,四川省,成都市,都江堰市,103.6109904,30.962751
中堰国际酒店,住宿服务,宾馆酒店,四星级宾馆,灌温路110中堰国际酒店,四川省,成都市,都江堰市,103.6277493,30.96058426
弘扬快捷宾馆(快铁站店),住宿服务,宾馆酒店,宾馆酒店,快铁站斜对面江安河西路下段67号2.5环路边,四川省,成都市,都江堰市,103.6325036,30.95980248
鑫江客栈,住宿服务,旅馆招待所,旅馆招待所,永安大道南一段13号,四川省,成都市,都江堰市,103.6309096,30.95889817
锦港湾酒店,住宿服务,宾馆酒店,宾馆酒店|餐饮服务,永安大道南61号,四川省,成都市,都江堰市,103.6318677,30.96072082
小腾家自助公寓,住宿服务,住宿服务相关,住宿服务相关,江安河东路下段与中医院北路交汇处滨河小区33栋3单元,四川省,成都市,都江堰市,103.632664,30.96702109
都江堰老周自由行客栈,住宿服务,住宿服务相关,住宿服务相关,永安大道南一段,四川省,成都市,都江堰市,103.6307749,30.95870845
成都快铁站旁田园风电梯大套二普通公寓,住宿服务,住宿服务相关,住宿服务相关,紫荆城1期13栋2单元20号,四川省,成都市,都江堰市,103.6404684,30.95819758
成都向荣花里客栈,住宿服务,住宿服务相关,住宿服务相关,向荣村二组,四川省,成都市,都江堰市,103.7662231,30.96602998
写庭阁花园酒店,住宿服务,宾馆酒店,宾馆酒店,天彭大道456号(近致和小学),四川省,成都市,彭州市,103.9449887,30.96561763
骏辉贤庭,住宿服务,宾馆酒店,宾馆酒店,致和镇金彭故径街344号,四川省,成都市,彭州市,103.9563116,30.96077688
东风商务酒店,住宿服务,宾馆酒店,宾馆酒店,蒙阳镇东街41-43号,四川省,成都市,彭州市,104.1144286,30.9607053
佳洁茶旅社,住宿服务,旅馆招待所,旅馆招待所,东街与圆双路交叉口西100米,四川省,成都市,彭州市,104.1170214,30.96076538
彭州清馨出租屋,住宿服务,住宿服务相关,住宿服务相关,蒙阳镇蔬菜水果市场4号门对面伏龙小区46号,四川省,成都市,彭州市,104.113715,30.96257768
鬈霸吧涛癖龉,住宿服务,宾馆酒店,宾馆酒店,九高路与什新路交叉口东北50米,四川省,成都市,彭州市,104.1184286,30.95963829
赵公山人家民宿,住宿服务,住宿服务相关,住宿服务相关,赵公山风景区龙凤村,四川省,成都市,都江堰市,103.5514385,30.9546725
成都乡村民宿,住宿服务,住宿服务相关,住宿服务相关,玉堂镇凤岐社区11幢02号近熊猫谷,四川省,成都市,都江堰市,103.5901302,30.9521135
成都望天阁普通公寓金江路分店,住宿服务,宾馆酒店,宾馆酒店,都江堰紫荆路213建工・紫荆城,四川省,成都市,都江堰市,103.6373011,30.95602773
成都向日葵公园式度假洋房公寓,住宿服务,宾馆酒店,宾馆酒店,都江堰都江堰天府大道636号紫荆城2期(市区),四川省,成都市,都江堰市,103.6398478,30.95616973
鑫源客栈(聚兴路),住宿服务,旅馆招待所,旅馆招待所,聚兴路5号,四川省,成都市,都江堰市,103.6807591,30.94887613
宁家客栈,住宿服务,旅馆招待所,旅馆招待所,聚源镇鑫苑街40号,四川省,成都市,都江堰市,103.67878,30.94818025
成都华盛居山庄,住宿服务,宾馆酒店,经济型连锁酒店,青城山镇青城后山五龙沟口,四川省,成都市,都江堰市,103.7058582,30.95158922
元元住宿,住宿服务,旅馆招待所,旅馆招待所,林兴路43号附近,四川省,成都市,彭州市,103.9570499,30.9480225
元元出租屋,住宿服务,旅馆招待所,旅馆招待所,万护路与林兴北路交叉口东南100米,四川省,成都市,彭州市,103.957666,30.95006585
如家小旅,住宿服务,住宿服务相关,住宿服务相关,致和镇护国小区林兴北路21号,四川省,成都市,彭州市,103.9569452,30.94973276
彭州鸿福商务宾馆,住宿服务,宾馆酒店,宾馆酒店,,四川省,成都市,彭州市,104.1054951,30.94717879
雅豪出租屋,住宿服务,旅馆招待所,旅馆招待所,什新路新世纪茶社旁,四川省,成都市,彭州市,104.1079198,30.9492907
彭山姐妹出租屋住宿,住宿服务,旅馆招待所,旅馆招待所,蒙阳镇伏龙村16号,四川省,成都市,彭州市,104.1072096,30.94879064
老龙聚友出租屋,住宿服务,旅馆招待所,旅馆招待所,彭州蒙阳镇物流小区5幢402号,四川省,成都市,彭州市,104.1073726,30.94940536
汇金商务宾馆,住宿服务,宾馆酒店,宾馆酒店,蒙阳镇物流小区内,四川省,成都市,彭州市,104.1068064,30.94918821
威霸商务宾馆,住宿服务,宾馆酒店,宾馆酒店,什新路与凤凰大道交叉口东100米,四川省,成都市,彭州市,104.1061852,30.95037924
胖姐出租屋,住宿服务,旅馆招待所,旅馆招待所,什新路与凤凰大道交叉口南100米路东,四川省,成都市,彭州市,104.1062132,30.94928089
肖妈豪逸酒店,住宿服务,宾馆酒店,宾馆酒店,兴农路121号,四川省,成都市,彭州市,104.1077077,30.94920764
阳光商务出租屋,住宿服务,旅馆招待所,旅馆招待所,汇金商务宾馆(凤凰大道东),四川省,成都市,彭州市,104.1071405,30.9493183
新如意出租房,住宿服务,旅馆招待所,旅馆招待所,什新路与凤凰大道交叉口东南100米,四川省,成都市,彭州市,104.1057551,30.95035307
友家饭店,住宿服务,宾馆酒店,宾馆酒店,凤凰大道773号附近,四川省,成都市,彭州市,104.1053211,30.94769342
万达出租屋,住宿服务,住宿服务相关,住宿服务相关,凤凰大道777号附近,四川省,成都市,彭州市,104.1059652,30.94946567
金阳出租屋,住宿服务,住宿服务相关,住宿服务相关,凤凰大道高家庄家常菜旁,四川省,成都市,彭州市,104.1057831,30.94917876
兄弟出租屋,住宿服务,住宿服务相关,住宿服务相关,什新路附近,四川省,成都市,彭州市,104.1075337,30.94893671
汇鑫商务出租屋,住宿服务,住宿服务相关,住宿服务相关,凤凰大道东200米,四川省,成都市,彭州市,104.1067954,30.94914723
鑫佳出租屋,住宿服务,住宿服务相关,住宿服务相关,凤凰大道附近,四川省,成都市,彭州市,104.1066644,30.94914917
彭州满哥出租屋,住宿服务,住宿服务相关,住宿服务相关,四川国际农产品交易中心对面小区,四川省,成都市,彭州市,104.1066685,30.94741917
彭州群晖出租屋,住宿服务,住宿服务相关,住宿服务相关,四川国际农产品交易中心4号门斜对面伏龙小区,四川省,成都市,彭州市,104.1054881,30.94689295
彭州金马出租屋住宿,住宿服务,住宿服务相关,住宿服务相关,彭州蒙阳镇伏龙村43号,四川省,成都市,彭州市,104.1060862,30.94913991
彭州蒙阳镇V8商务宾馆,住宿服务,住宿服务相关,住宿服务相关,什新路与凤凰大道交叉口东100米,四川省,成都市,彭州市,104.1063603,30.94918801
如意住宿,住宿服务,住宿服务相关,住宿服务相关,农物流小区西北90米(凤凰大道东),四川省,成都市,彭州市,104.1057551,30.95035507
魇ピ吧涛癖龉,住宿服务,宾馆酒店,宾馆酒店,蒙阳镇柏桥社区学子路29号,四川省,成都市,彭州市,104.1148863,30.95143601
成都友佳酒店,住宿服务,宾馆酒店,宾馆酒店,魅北路699号,四川省,成都市,彭州市,104.1157529,30.95243113
佰侨谊家商务宾馆,住宿服务,宾馆酒店,宾馆酒店,蒙阳镇蒙三北路799号,四川省,成都市,彭州市,104.1149722,30.95396262
天府出租屋,住宿服务,旅馆招待所,旅馆招待所,什新路新世纪茶社旁,四川省,成都市,彭州市,104.1083279,30.94960374
好印象住宿,住宿服务,旅馆招待所,旅馆招待所,兴农路155号,四川省,成都市,彭州市,104.108566,30.94917411
蔬香客栈,住宿服务,旅馆招待所,旅馆招待所,什新路附近,四川省,成都市,彭州市,104.108475,30.94937395
龙门客栈,住宿服务,旅馆招待所,旅馆招待所,物流大道中段245号附近,四川省,成都市,彭州市,104.1088922,30.94941415
松源商务,住宿服务,旅馆招待所,旅馆招待所,什新路蓝精灵网吧南30米,四川省,成都市,彭州市,104.1094064,30.94957435
二桥公寓,住宿服务,旅馆招待所,旅馆招待所,魅北路与骱＝纸徊婵谖鞅50米,四川省,成都市,彭州市,104.1141206,30.9566674
绿森林出租屋,住宿服务,旅馆招待所,旅馆招待所,什新路南150米,四川省,成都市,彭州市,104.1101027,30.94978464
金凤出租屋,住宿服务,旅馆招待所,旅馆招待所,什新路南100米,四川省,成都市,彭州市,104.1101577,30.94998655
恒运出租屋,住宿服务,旅馆招待所,旅馆招待所,什新路南50米,四川省,成都市,彭州市,104.1093263,30.95034086
万顺出租屋,住宿服务,旅馆招待所,旅馆招待所,什新路南150米,四川省,成都市,彭州市,104.1101747,30.94973171
陕西人家出租屋,住宿服务,旅馆招待所,旅馆招待所,什新路南100米,四川省,成都市,彭州市,104.1094614,30.95003711
枫火人家出租屋,住宿服务,旅馆招待所,旅馆招待所,什新路南100米,四川省,成都市,彭州市,104.1094614,30.9500691
富华出租屋,住宿服务,旅馆招待所,旅馆招待所,什新路蓝精灵网吧南40米,四川省,成都市,彭州市,104.1101527,30.94977967
概念出租屋,住宿服务,旅馆招待所,旅馆招待所,什新路南150米,四川省,成都市,彭州市,104.1102627,30.94959884
吉祥出租屋,住宿服务,旅馆招待所,旅馆招待所,什新路南200米,四川省,成都市,彭州市,104.1094934,30.94911766
聚缘出租屋,住宿服务,旅馆招待所,旅馆招待所,什新路南50米,四川省,成都市,彭州市,104.1100166,30.95065009
温馨家园出租屋,住宿服务,住宿服务相关,住宿服务相关,什新路南150米,四川省,成都市,彭州市,104.1104068,30.94961092
成都恒运宾馆,住宿服务,住宿服务相关,住宿服务相关,蒙阳镇建业中路农物流小区2期1号9栋2单元,四川省,成都市,彭州市,104.1082899,30.94965768
实惠出租屋,住宿服务,住宿服务相关,住宿服务相关,什新路风味人情南100米附近,四川省,成都市,彭州市,104.1081139,30.94913289
渝都出租屋,住宿服务,住宿服务相关,住宿服务相关,肖妈豪逸酒店东80米(建业中路南),四川省,成都市,彭州市,104.108511,30.94912711
住宿:七号门出租屋,住宿服务,住宿服务相关,住宿服务相关,蒙三北路150号附近,四川省,成都市,彭州市,104.1183871,30.94820386
小九寨琳泉驿站,住宿服务,住宿服务相关,住宿服务相关,,四川省,成都市,都江堰市,103.5579409,30.94235019
成都台湾名宿根缘舍,住宿服务,旅馆招待所,旅馆招待所,中兴镇永胜社区15组,四川省,成都市,都江堰市,103.6201502,30.94637195
新村出租房,住宿服务,旅馆招待所,旅馆招待所,河滨东路与盛源路交叉口西北50米,四川省,成都市,都江堰市,103.6787093,30.94581674
中山出租房,住宿服务,旅馆招待所,旅馆招待所,河滨东路与盛源路交叉口东50米,四川省,成都市,都江堰市,103.6791852,30.945559
都江堰导江苑客栈,住宿服务,住宿服务相关,住宿服务相关,羊石街西50米导江村村委会附近,四川省,成都市,都江堰市,103.6892382,30.94000177
万福居,住宿服务,旅馆招待所,旅馆招待所,凤凰大道771号附近,四川省,成都市,彭州市,104.1052741,30.94601737
金源出租屋,住宿服务,住宿服务相关,住宿服务相关,凤凰大道附近,四川省,成都市,彭州市,104.1038048,30.94637261
锦荣假日酒店,住宿服务,宾馆酒店,宾馆酒店,物流大道中段129号,四川省,成都市,彭州市,104.116804,30.94324232
新悦酒店,住宿服务,宾馆酒店,宾馆酒店,农产品国际交易中心水果区1号入口(东大门)内侧100米,四川省,成都市,彭州市,104.1127233,30.94460834
鸿运住宿,住宿服务,旅馆招待所,旅馆招待所,蒙阳镇雨润水果市场一号门左侧4栋,四川省,成都市,彭州市,104.115428,30.94414166
平安旅社(物流大道中段),住宿服务,旅馆招待所,旅馆招待所,餍硕路与物流大道中段交叉口北100米,四川省,成都市,彭州市,104.1160565,30.94413118
成都翡翠酒店,住宿服务,宾馆酒店,宾馆酒店,蒙阳镇万贯服装精品园区B2栋(雨润国际农贸交易市场1号门对面),四川省,成都市,彭州市,104.1190819,30.94254377
得月楼招待所,住宿服务,旅馆招待所,旅馆招待所,蒙三北路73号,四川省,成都市,彭州市,104.1216353,30.94050046
罗家花园住宿,住宿服务,宾馆酒店,宾馆酒店,蒙阳镇蒙三北路(物流大道东段与什新路交汇处东南50米),四川省,成都市,彭州市,104.1209705,30.94332215
金堂玉皇养生谷,住宿服务,宾馆酒店,宾馆酒店,003乡道官仓镇双新村12组倒槽湾,四川省,成都市,金堂县,104.4533224,30.94169671
浣花园,住宿服务,旅馆招待所,旅馆招待所,青城后山又一村,四川省,成都市,都江堰市,103.4715969,30.93692976
成都春园饭店住宿,住宿服务,旅馆招待所,旅馆招待所,青城后山又一村半山腰,四川省,成都市,都江堰市,103.4723058,30.93609318
都江堰青城后山碧水青城住宿,住宿服务,住宿服务相关,住宿服务相关,青城后山又一村,四川省,成都市,都江堰市,103.4724372,30.93567977
都江堰青城后山佳辰山庄,住宿服务,住宿服务相关,住宿服务相关,青城后山又一村佳辰山庄(近泰安古镇),四川省,成都市,都江堰市,103.4722317,30.93576516
亦缘居私家别院,住宿服务,旅馆招待所,旅馆招待所,青城后山泰安古镇马家沟万寿度假区,四川省,成都市,都江堰市,103.4895184,30.92892179
紫钰山庄,住宿服务,宾馆酒店,宾馆酒店,泰安镇青城后山马家沟,四川省,成都市,都江堰市,103.4899267,30.92706707
曹道儒别墅型客栈青城山店,住宿服务,旅馆招待所,旅馆招待所,古镇青城美庐别墅小区,四川省,成都市,都江堰市,103.4909717,30.92958274
听蝉山庄,住宿服务,旅馆招待所,旅馆招待所|体育休闲服务,青城后山泰安古镇河对面,四川省,成都市,都江堰市,103.4895746,30.92811842
卡冰花园,住宿服务,旅馆招待所,旅馆招待所,泰安社区2组51号,四川省,成都市,都江堰市,103.4951784,30.92879478
聚贤山庄(青城美庐东南),住宿服务,旅馆招待所,旅馆招待所,青城后山泰安古镇,四川省,成都市,都江堰市,103.492371,30.92714932
碧水休闲庄,住宿服务,旅馆招待所,旅馆招待所,村2组通灵沟14号,四川省,成都市,都江堰市,103.4938173,30.92754642
都江堰明明山庄,住宿服务,旅馆招待所,旅馆招待所,古镇,四川省,成都市,都江堰市,103.4899156,30.9274778
青城后山了院民宿,住宿服务,住宿服务相关,住宿服务相关,村四组22号(万寿度假区内)近青城美庐别墅区(青城后山),四川省,成都市,都江堰市,103.4899457,30.92901901
都江堰漫山亭客栈,住宿服务,住宿服务相关,住宿服务相关,青城山泰安社区2组22号,四川省,成都市,都江堰市,103.4946378,30.92813254
都江堰隐翠雅居农家院,住宿服务,住宿服务相关,住宿服务相关,青城后山泰安村二组,四川省,成都市,都江堰市,103.4978394,30.92962828
都江堰市玉彬农家乐,住宿服务,住宿服务相关,住宿服务相关,青城后山泰安古镇泰安村二组,四川省,成都市,都江堰市,103.4952857,30.92883108
成都桂月楼住宿,住宿服务,住宿服务相关,住宿服务相关,村2组18号,四川省,成都市,都江堰市,103.4943379,30.92793775
青城山后山桃园人家农家乐,住宿服务,住宿服务相关,住宿服务相关,都江堰青城山后山又一村,四川省,成都市,都江堰市,103.4891333,30.92806614
古楠山庄,住宿服务,住宿服务相关,住宿服务相关|体育休闲服务,青城后山泰安古镇通灵沟,四川省,成都市,都江堰市,103.4932085,30.92726575
峦汀小筑,住宿服务,旅馆招待所,旅馆招待所,035乡道,四川省,成都市,都江堰市,103.5635801,30.93464531
都江堰刘家大院(青城山环山路店),住宿服务,住宿服务相关,住宿服务相关,上元村5组14号,四川省,成都市,都江堰市,103.5860739,30.93282727
都江堰燕子岩森林生态观光园,住宿服务,住宿服务相关,住宿服务相关,中兴镇上元村燕子岩,四川省,成都市,都江堰市,103.5813128,30.93121865
青城山道茶观光园,住宿服务,住宿服务相关,住宿服务相关,034乡道中兴镇上元社区7组,四川省,成都市,都江堰市,103.5967535,30.92987298
都江堰宗宏农家苑,住宿服务,住宿服务相关,住宿服务相关,中兴镇兴益村18组,四川省,成都市,都江堰市,103.6194089,30.9326336
烨f客栈,住宿服务,旅馆招待所,旅馆招待所,聚青路1118号清水河畔,四川省,成都市,都江堰市,103.6981199,30.92773378
朋聚阁客栈,住宿服务,旅馆招待所,旅馆招待所,聚青路3号,四川省,成都市,都江堰市,103.6990189,30.92924846
聚青苑客栈,住宿服务,住宿服务相关,住宿服务相关,导江社区3组老成灌路与聚青路交叉口往南200米路东,四川省,成都市,都江堰市,103.6996596,30.92942135
两江源商务客栈,住宿服务,住宿服务相关,住宿服务相关,导江村3组1号(213国道和聚青路交汇处),四川省,成都市,都江堰市,103.7000367,30.93029625
水景湾乡村酒店,住宿服务,宾馆酒店,宾馆酒店,唐昌镇沙西线附近,四川省,成都市,郫都区,103.8249844,30.93560283
德川商务宾馆,住宿服务,宾馆酒店,宾馆酒店,彭温路与火西路交叉口东南50米,四川省,成都市,郫都区,103.8213002,30.93395185
鸣凤假日酒店,住宿服务,宾馆酒店,宾馆酒店,"唐昌镇东外街1号(沙西线与东街交界处,鸣凤小区、唐公馆旁)",四川省,成都市,郫都区,103.8290338,30.92778096
温馨家园住宿,住宿服务,旅馆招待所,旅馆招待所,杨湾社区16组,四川省,成都市,彭州市,104.1239488,30.93585461
春h轩出租房,住宿服务,住宿服务相关,住宿服务相关,蒙三南路125号附近,四川省,成都市,彭州市,104.124188,30.93572595
规心庐舍,住宿服务,旅馆招待所,旅馆招待所,古寺街,四川省,成都市,都江堰市,103.4780113,30.91881405
丽景湾乡村酒店,住宿服务,宾馆酒店,宾馆酒店|体育休闲服务,青城后山泰安古镇泰安村七组,四川省,成都市,都江堰市,103.484196,30.92157131
安平大酒店,住宿服务,宾馆酒店,四星级宾馆,泰安古镇古泰安寺,四川省,成都市,都江堰市,103.4873682,30.92414217
飞龙休闲山庄,住宿服务,宾馆酒店,四星级宾馆,青城山泰安寺侧,四川省,成都市,都江堰市,103.4876841,30.92437996
泰庄,住宿服务,旅馆招待所,旅馆招待所|住宿服务,青城山泰安古镇古寺旁(近河边),四川省,成都市,都江堰市,103.4881525,30.92474314
沁源山庄,住宿服务,旅馆招待所,旅馆招待所,青城后山泰安古镇古寺街泰安村7组66号,四川省,成都市,都江堰市,103.4844447,30.92082847
青城山五龙河鲜旅馆,住宿服务,旅馆招待所,旅馆招待所,青城后山五龙沟口,四川省,成都市,都江堰市,103.4790142,30.9184701
山水人家,住宿服务,旅馆招待所,旅馆招待所|住宿服务,青城后山泰安古镇泰安村7组,四川省,成都市,都江堰市,103.482823,30.92043596
七九阳光客栈,住宿服务,旅馆招待所,旅馆招待所,村7组45号,四川省,成都市,都江堰市,103.4836544,30.92008059
龙溪苑度假山庄(五龙沟店),住宿服务,宾馆酒店,宾馆酒店,青城山镇泰安村七组龙缘山庄隔壁,四川省,成都市,都江堰市,103.4819395,30.91971681
欣欣苑(古寺街),住宿服务,旅馆招待所,旅馆招待所|体育休闲服务,青城后山泰安寺至五龙沟中段,四川省,成都市,都江堰市,103.483834,30.92031298
青城山青城阁客栈,住宿服务,旅馆招待所,旅馆招待所,青城山镇翠月湖清水河小区57栋,四川省,成都市,都江堰市,103.4825871,30.92504362
成都白云宾馆,住宿服务,宾馆酒店,宾馆酒店,青城后山白云古寨青城山顶,四川省,成都市,都江堰市,103.487625,30.92374315
醉卧云端乡村酒店,住宿服务,住宿服务相关,住宿服务相关,青城后山泰安古镇泰安村7组16号,四川省,成都市,都江堰市,103.4825703,30.92022535
涞源客栈,住宿服务,住宿服务相关,住宿服务相关,村7组22号,四川省,成都市,都江堰市,103.4839162,30.92058606
牧云山居客栈,住宿服务,住宿服务相关,住宿服务相关,村七组19号,四川省,成都市,都江堰市,103.4832743,30.92135974
泰安雅居,住宿服务,住宿服务相关,住宿服务相关,青城山镇社区7组红岩度假区,四川省,成都市,都江堰市,103.4807582,30.91755264
都江堰青城山成都青城山清香苑休闲度假山庄,住宿服务,住宿服务相关,住宿服务相关,青城后山泰安古镇五龙沟口,四川省,成都市,都江堰市,103.4821641,30.92035409
后山顶云海人家农家乐,住宿服务,住宿服务相关,住宿服务相关,国家级风景名胜区青城后山白云古寨,四川省,成都市,都江堰市,103.4868547,30.92371389
青城后山贵莲休闲庄,住宿服务,住宿服务相关,住宿服务相关,青城后山泰安寺万寿度假区(马家沟),四川省,成都市,都江堰市,103.4874544,30.92419839
都江堰青城山成都青城山雅居山庄,住宿服务,住宿服务相关,住宿服务相关,泰安社区7组古寺街16号(青城后山五龙沟)清雅居,四川省,成都市,都江堰市,103.4836544,30.92008658
耕读苑乡村酒店,住宿服务,住宿服务相关,住宿服务相关,青城后山万寿度假村,四川省,成都市,都江堰市,103.4875828,30.92464951
逸闲庐酒店,住宿服务,宾馆酒店,宾馆酒店,驿道街167号,四川省,成都市,都江堰市,103.4888176,30.92243944
泰安会馆,住宿服务,宾馆酒店,四星级宾馆,古镇中段古寺路50号,四川省,成都市,都江堰市,103.4885427,30.92389279
青城山康林居客栈,住宿服务,旅馆招待所,旅馆招待所|体育休闲服务,青城后山停车场B区对面,四川省,成都市,都江堰市,103.4947725,30.92033343
都江堰姊妹别院,住宿服务,宾馆酒店,三星级宾馆,"青城后山泰安村8组19-,近G213",四川省,成都市,都江堰市,103.4892007,30.92341501
满福楼,住宿服务,宾馆酒店,宾馆酒店,"青城后山泰安古镇古镇,前街驿道街265-271号,后街26-34号",四川省,成都市,都江堰市,103.4888998,30.92376092
怡然农家乐,住宿服务,旅馆招待所,旅馆招待所,青城山路92号附近,四川省,成都市,都江堰市,103.4931115,30.92081717
都江堰泰安山隐泰山庄,体育休闲服务,休闲场所,休闲场所|住宿服务,青城后山泰安古镇停车场旁,四川省,成都市,都江堰市,103.4950875,30.92066318
来凤居客栈(又名燕子餐馆店),住宿服务,旅馆招待所,旅馆招待所,古镇一道街217号,四川省,成都市,都江堰市,103.4889389,30.92286955
都江堰青城山山居岁月,住宿服务,旅馆招待所,旅馆招待所,古镇泰安村,四川省,成都市,都江堰市,103.4885317,30.92226969
友好酒家(驿道街),住宿服务,宾馆酒店,宾馆酒店,古镇驿道街311-313,四川省,成都市,都江堰市,103.488302,30.92443276
青城山又一村凤栖楼客栈,住宿服务,旅馆招待所,旅馆招待所,村10组,四川省,成都市,都江堰市,103.488964,30.92340931
鸿韵山庄,住宿服务,旅馆招待所,旅馆招待所,青城山镇泰安村5组209号,四川省,成都市,都江堰市,103.4888838,30.92271148
瑞莱克思酒店(泰安店),住宿服务,宾馆酒店,宾馆酒店,青城后山泰安古镇,四川省,成都市,都江堰市,103.4888817,30.92315522
荣松山庄,住宿服务,旅馆招待所,旅馆招待所,青城山后山泰安古镇,四川省,成都市,都江堰市,103.4950012,30.92065393
青城后山鸿韵涛山庄,住宿服务,旅馆招待所,旅馆招待所,青城山镇青城后山泰安村5组,四川省,成都市,都江堰市,103.4889209,30.92287749
永丰山庄(青城山店),住宿服务,旅馆招待所,旅馆招待所,古镇门口驿道街211-215号,四川省,成都市,都江堰市,103.4889078,30.92277651
龙凤别院,住宿服务,宾馆酒店,宾馆酒店|体育休闲服务,青城后山泰安古镇牌坊门味江边停车场,四川省,成都市,都江堰市,103.4893119,30.92645859
都江堰青城后山锦苑酒店,住宿服务,宾馆酒店,宾馆酒店,青城后山半山景区又一村,四川省,成都市,都江堰市,103.492624,30.92122248
邻江客栈,住宿服务,旅馆招待所,旅馆招待所|住宿服务,青城山风景区都江堰青城山镇泰安古镇28号(老街近河边),四川省,成都市,都江堰市,103.4885607,30.92454946
康顺休闲庄,住宿服务,旅馆招待所,旅馆招待所,青城后山泰安古镇,四川省,成都市,都江堰市,103.4883762,30.92367742
良缘饭店(驿道街),住宿服务,宾馆酒店,宾馆酒店|餐饮服务,古寺街256,四川省,成都市,都江堰市,103.4887423,30.92440608
鑫悦客栈(驿道街),住宿服务,旅馆招待所,旅馆招待所,青城后山泰安古镇泰安街260号,四川省,成都市,都江堰市,103.4886349,30.92448972
青城山来风宾馆,住宿服务,宾馆酒店,宾馆酒店,携程成都市都江堰青城山泰安古镇索道站往又一村方向300米处(青城后山),四川省,成都市,都江堰市,103.488999,30.92424394
金三角饭庄(古寺街),住宿服务,旅馆招待所,旅馆招待所,村5组59号,四川省,成都市,都江堰市,103.4890452,30.92329762
成都青城山景区泰安古镇客栈,住宿服务,住宿服务相关,住宿服务相关,青城山青城山后山泰安古镇古寺街50号,四川省,成都市,都江堰市,103.4885437,30.92392077
成都栈住地客栈,住宿服务,住宿服务相关,住宿服务相关,青城后山泰安古镇古寺街8号(泰安古寺旁),四川省,成都市,都江堰市,103.4890241,30.92342848
青城后山通灵缘客栈,住宿服务,住宿服务相关,住宿服务相关,青城后山泰安社区5组20号,四川省,成都市,都江堰市,103.4917162,30.92409212
都江堰何明客栈,住宿服务,住宿服务相关,住宿服务相关,村11组青城后山山顶(白云索道山顶旁),四川省,成都市,都江堰市,103.4883752,30.92348153
成都鼎泰园客栈,住宿服务,住宿服务相关,住宿服务相关,青城后山泰安古镇泰安村2组,四川省,成都市,都江堰市,103.4890372,30.92342153
都江堰云岳・悦潼精品民宿,住宿服务,住宿服务相关,住宿服务相关,青城后山泰安村一组47号,四川省,成都市,都江堰市,103.494941,30.92044487
青城山清居坪,住宿服务,住宿服务相关,住宿服务相关,"古镇泰安村一组53号,近青城后山(青城后山)",四川省,成都市,都江堰市,103.4941365,30.92180268
都江堰鸿楼酒家住宿,住宿服务,住宿服务相关,住宿服务相关,青城山镇驿道街252号(青城后山泰安古镇景点内),四川省,成都市,都江堰市,103.4887312,30.92416419
青城山景泰阁客栈,住宿服务,住宿服务相关,住宿服务相关,泰安社区驿道街128号(近青城后山),四川省,成都市,都江堰市,103.4891475,30.92293813
聚满楼,住宿服务,住宿服务相关,住宿服务相关,青城后山驿道街99号,四川省,成都市,都江堰市,103.4920985,30.92074918
都江堰永秀园客栈,住宿服务,住宿服务相关,住宿服务相关,青城后山又一村金骊索道上站,四川省,成都市,都江堰市,103.4925889,30.92111044
成都青城后山银桂苑山庄,住宿服务,住宿服务相关,住宿服务相关,青城山镇青城后山泰安村六组,四川省,成都市,都江堰市,103.488646,30.92270578
都江堰云华农家园,住宿服务,住宿服务相关,住宿服务相关,青城山后驿道街73-81号,四川省,成都市,都江堰市,103.4890522,30.92383233
都江堰君华客栈,住宿服务,住宿服务相关,住宿服务相关,近郊泰安村五组48号,四川省,成都市,都江堰市,103.4890362,30.9234535
都江堰馨怡农家园住宿,住宿服务,住宿服务相关,住宿服务相关,"青城山驿道街85号,青城后山向阳山庄隔壁",四川省,成都市,都江堰市,103.4927564,30.92092805
都江堰青城山贵林乡村酒店,住宿服务,住宿服务相关,住宿服务相关,古镇1组,四川省,成都市,都江堰市,103.493958,30.92216293
成都都江堰青城山青城居客栈,住宿服务,住宿服务相关,住宿服务相关,"青城山青城后山停车场山门旁边,茶店子",四川省,成都市,都江堰市,103.4922479,30.92090554
都江堰市青城山二哥客栈,住宿服务,住宿服务相关,住宿服务相关,青城后山停车场旁,四川省,成都市,都江堰市,103.492624,30.92121948
桃园人家,住宿服务,住宿服务相关,住宿服务相关,青城山后山又一村,四川省,成都市,都江堰市,103.4921857,30.92106726
青城山近水山庄乡村酒店,住宿服务,住宿服务相关,住宿服务相关,尚水街296号,四川省,成都市,都江堰市,103.4890241,30.92346346
青城后山龙飞山庄,住宿服务,住宿服务相关,住宿服务相关,青城后山泰安古镇驿道街203号,四川省,成都市,都江堰市,103.4888176,30.92256137
青城后山绿缘山庄,住宿服务,住宿服务相关,住宿服务相关,青城后山尖峰村2组18号青城颐苑旁,四川省,成都市,都江堰市,103.5017527,30.91764591
都江堰市青城泉水山村客栈,住宿服务,住宿服务相关,住宿服务相关,青城山风景区尖峰村2组12号,四川省,成都市,都江堰市,103.5039163,30.91725261
绿水假日乡村酒店,住宿服务,住宿服务相关,住宿服务相关,中心镇035乡道三溪社区1组47号,四川省,成都市,都江堰市,103.5636155,30.92367268
成都玉林山庄,住宿服务,住宿服务相关,住宿服务相关,中兴镇王婆岩玉林山庄,四川省,成都市,都江堰市,103.5592365,30.92511024
尚源青城培训中心,住宿服务,宾馆酒店,宾馆酒店,中兴镇S106省道上元村,四川省,成都市,都江堰市,103.5874385,30.92034999
都江堰青城甲居,住宿服务,住宿服务相关,住宿服务相关,青城山镇上元社区环山公路52号,四川省,成都市,都江堰市,103.5875125,30.92030505
都江堰市尚源青城培训中心宾馆,住宿服务,住宿服务相关,住宿服务相关,中兴镇S106省道上元村,四川省,成都市,都江堰市,103.5874745,30.92026805
都江堰林中苑客栈,住宿服务,住宿服务相关,住宿服务相关,中兴镇九龙村5组,四川省,成都市,都江堰市,103.5893236,30.91935617
青城山静然居客栈,住宿服务,住宿服务相关,住宿服务相关,新益村六组(青城山大观园旁),四川省,成都市,都江堰市,103.6010657,30.91870079
水映青城.游天下斯凯酒店公寓,住宿服务,宾馆酒店,四星级宾馆,中兴镇中铁水映青城梅花大道2号,四川省,成都市,都江堰市,103.6180851,30.92485032
阆苑花季主题酒店,住宿服务,宾馆酒店,宾馆酒店,青城大道中兴镇花木城内,四川省,成都市,都江堰市,103.6100029,30.9265585
留福乡村酒店,住宿服务,宾馆酒店,四星级宾馆,青城大道中兴镇梅花村5组50号,四川省,成都市,都江堰市,103.6104335,30.92616546
云海客栈,住宿服务,旅馆招待所,旅馆招待所,中心镇中环路南段207号,四川省,成都市,都江堰市,103.6171825,30.91967011
阆花茗季主体酒店,住宿服务,宾馆酒店,宾馆酒店,中兴中大街与青城山大道交叉口西南100米,四川省,成都市,都江堰市,103.6144718,30.92539907
恒发商务客栈,住宿服务,宾馆酒店,宾馆酒店,中兴镇新益小区1栋17号,四川省,成都市,都江堰市,103.6155766,30.92033809
7天优品酒店(青城山万达店),住宿服务,宾馆酒店,经济型连锁酒店,中兴镇耆亭东街8号(中兴中大街与中环路南段交汇处西南80米苏宁易购内),四川省,成都市,都江堰市,103.6218876,30.92278278
恒达旅馆,住宿服务,旅馆招待所,旅馆招待所,中兴镇商业街151号,四川省,成都市,都江堰市,103.6188352,30.92135564
怡和茶旅社,住宿服务,旅馆招待所,旅馆招待所,南街157号,四川省,成都市,都江堰市,103.6190249,30.92073881
海都客栈,住宿服务,旅馆招待所,旅馆招待所,中兴镇梓桐社区中环路北段76-78号,四川省,成都市,都江堰市,103.6225885,30.92311185
都江堰东来露旅店,住宿服务,住宿服务相关,住宿服务相关,中心镇中环路梓桐小区6栋(近梓桐北街),四川省,成都市,都江堰市,103.624701,30.92355425
都江堰任家大院住宿,住宿服务,旅馆招待所,旅馆招待所,聚源镇三坝村五组,四川省,成都市,都江堰市,103.6842829,30.91858605
都江堰周氏人家青年旅舍,住宿服务,住宿服务相关,住宿服务相关,工商职业学院西门右侧学生公寓楼后50米处,四川省,成都市,都江堰市,103.6940492,30.91878166
崇锦客栈,住宿服务,旅馆招待所,旅馆招待所,崇义镇崇锦路7号,四川省,成都市,都江堰市,103.7273543,30.91938479
崇德宾馆,住宿服务,住宿服务相关,住宿服务相关,崇义镇崇锦路11,四川省,成都市,都江堰市,103.7273753,30.91949571
祥和客栈,住宿服务,旅馆招待所,旅馆招待所,农民街61号,四川省,成都市,都江堰市,103.7308287,30.91732351
都江堰市晓林旅馆,住宿服务,旅馆招待所,旅馆招待所,书院街68号,四川省,成都市,都江堰市,103.7300674,30.91861427
佳驿客栈,住宿服务,住宿服务相关,住宿服务相关,崇义镇农民街61号,四川省,成都市,都江堰市,103.7308477,30.91734449
崇宁客栈,住宿服务,旅馆招待所,旅馆招待所,唐昌镇南正街89号,四川省,成都市,郫都区,103.8216211,30.92692251
花田人家酒店,住宿服务,宾馆酒店,宾馆酒店,唐昌镇郫县三中对面,四川省,成都市,郫都区,103.8243888,30.92232136
成都慧美家园紫竹林休闲庄,住宿服务,住宿服务相关,住宿服务相关,市成都郫都区唐昌镇竹林村五组,四川省,成都市,郫都区,103.8409865,30.92196038
原利济政府公寓,住宿服务,旅馆招待所,旅馆招待所,顺河中街68号,四川省,成都市,新都区,103.9883717,30.91760164
红叶旅馆,住宿服务,旅馆招待所,旅馆招待所,旌金公路,四川省,成都市,金堂县,104.4148278,30.92319964
成都白马宾馆(苍松街店),住宿服务,住宿服务相关,住宿服务相关,官仓镇苍松街197号,四川省,成都市,金堂县,104.4169772,30.9238998
都江堰青城山鑫峰苑,住宿服务,旅馆招待所,旅馆招待所,青城后山泰安村九组红岩吕家坪度假区12号,四川省,成都市,都江堰市,103.4769196,30.9110644
都江堰聚首居山f,住宿服务,旅馆招待所,旅馆招待所,青城山镇泰安社区8组,四川省,成都市,都江堰市,103.4747494,30.91540483
山水合院,住宿服务,旅馆招待所,旅馆招待所,青城后山泰安村八组13号,四川省,成都市,都江堰市,103.4751888,30.90994918
慧悦山庄,住宿服务,旅馆招待所,旅馆招待所|体育休闲服务,青城后山泰安古镇红岩新村,四川省,成都市,都江堰市,103.4766097,30.91054483
成都都江堰青城山林辉园,住宿服务,旅馆招待所,旅馆招待所,青城山后山红岩新村,四川省,成都市,都江堰市,103.4744417,30.91078062
龙之隐酒店,住宿服务,宾馆酒店,宾馆酒店,青城后山红岩村,四川省,成都市,都江堰市,103.4767551,30.91070415
青城山鸿玉山庄,住宿服务,旅馆招待所,旅馆招待所,泰安镇青城后山红岩新村,四川省,成都市,都江堰市,103.476738,30.91163357
群福苑,住宿服务,宾馆酒店,宾馆酒店,泰安镇红岩新村距青城后山景区500米左,四川省,成都市,都江堰市,103.4774099,30.91239603
林居山庄,住宿服务,旅馆招待所,旅馆招待所,泰安镇青城后山红岩新村,四川省,成都市,都江堰市,103.4771582,30.91103809
龙扬客栈,住宿服务,旅馆招待所,旅馆招待所,青城山路附近,四川省,成都市,都江堰市,103.4774551,30.91142571
述明山庄,住宿服务,旅馆招待所,旅馆招待所|体育休闲服务,青城后山红岩新村泰安9组,四川省,成都市,都江堰市,103.4773738,30.91227399
庐舍,住宿服务,住宿服务相关,住宿服务相关,泰安社区8组13号,四川省,成都市,都江堰市,103.4752049,30.91000919
青城山圣龙谷山庄,住宿服务,住宿服务相关,住宿服务相关,青城山镇青城后山泰安村8组红岩村,四川省,成都市,都江堰市,103.475603,30.90864509
林语山庄,住宿服务,住宿服务相关,住宿服务相关,老年人协会疗养站往上行300米,四川省,成都市,都江堰市,103.4744054,30.91515601
青峰阁农家乐,住宿服务,住宿服务相关,住宿服务相关,青城山镇泰安村8组-16号,四川省,成都市,都江堰市,103.4746643,30.91090417
都江堰紫阳苑旅馆,住宿服务,住宿服务相关,住宿服务相关,青城后山泰安古镇红岩新村五龙沟,四川省,成都市,都江堰市,103.4743294,30.9111481
河边住宿,住宿服务,住宿服务相关,住宿服务相关,村1组2号,四川省,成都市,都江堰市,103.4781971,30.91292196
都江堰云尚山庄,住宿服务,宾馆酒店,四星级宾馆|体育休闲服务,青城后山泰安古镇红岩新村,四川省,成都市,都江堰市,103.4788018,30.912359
观山别院,体育休闲服务,休闲场所,休闲场所|住宿服务,古镇红岩村9组,四川省,成都市,都江堰市,103.4804775,30.91395689
昆泰山庄酒店别墅,住宿服务,宾馆酒店,宾馆酒店,青城山镇泰安村8组26号,四川省,成都市,都江堰市,103.4786534,30.91297123
明阳山庄,体育休闲服务,休闲场所,休闲场所|住宿服务,青城山青城后山泰安古镇红岩新村,四川省,成都市,都江堰市,103.4799479,30.91684471
小双休闲庄,住宿服务,旅馆招待所,旅馆招待所,泰安镇红岩新村古寺街(熊猫驿站云居山庄店北行5米),四川省,成都市,都江堰市,103.4795198,30.91492558
青城山熊猫驿站云居山庄,住宿服务,旅馆招待所,旅馆招待所,青城山镇青城后山红岩新村,四川省,成都市,都江堰市,103.4790304,30.91489021
都江堰吴家大院,住宿服务,旅馆招待所,旅馆招待所,青城山泰安古镇红岩新村(村委会向东五十米),四川省,成都市,都江堰市,103.4788349,30.91325658
成都都江堰青城山昆泰度假休闲别墅,住宿服务,住宿服务相关,住宿服务相关,青城山泰安古镇红岩新村,四川省,成都市,都江堰市,103.4797023,30.91449336
都江堰市青城山而立一山舍,住宿服务,住宿服务相关,住宿服务相关,镇泰安社区1号,四川省,成都市,都江堰市,103.4783946,30.91299348
都江堰六合缘山庄,住宿服务,住宿服务相关,住宿服务相关,青城后山泰安古镇泰安村4组,四川省,成都市,都江堰市,103.4790986,30.9134942
都江堰红林山居,住宿服务,住宿服务相关,住宿服务相关,泰安镇青城后山红岩新村度假区泰安村九组,四川省,成都市,都江堰市,103.4795278,30.91425199
成都庐舍别墅,住宿服务,住宿服务相关,住宿服务相关,青城后山泰安古镇红岩新村8组,四川省,成都市,都江堰市,103.4798908,30.91601502
