名称,大类,中类,小类,地址,省,市,区,WGS84_经度,WGS84_纬度
金霞山庄,商务住宅,住宅区,住宅区,彭白路附近,四川省,成都市,彭州市,103.8782427,31.32777755
龙门山静园,商务住宅,商务住宅相关,商务住宅相关,彭白路附近,四川省,成都市,彭州市,103.8781866,31.32945092
九峰林居,商务住宅,商务住宅相关,商务住宅相关,彭白路,四川省,成都市,彭州市,103.8740861,31.32316926
核桃大院,商务住宅,商务住宅相关,商务住宅相关,龙门山镇九峰村12组,四川省,成都市,彭州市,103.8668622,31.31311771
如意家园,商务住宅,住宅区,住宅小区,九峰村9组35号(银白公路旁),四川省,成都市,彭州市,103.8580433,31.29931078
如意家苑(彭白路),商务住宅,住宅区,住宅小区,彭白路北50米,四川省,成都市,彭州市,103.8580463,31.29930979
林峰居,商务住宅,商务住宅相关,商务住宅相关,宝山村龙门山风景旅游区九峰山风景名胜区内,四川省,成都市,彭州市,103.8582224,31.30391531
九峰花园(彭白路),商务住宅,住宅区,住宅小区,彭白路九峰超市西南侧20米,四川省,成都市,彭州市,103.8632198,31.30284979
仁和苑,商务住宅,住宅区,住宅小区,宝山村龙门山风景旅游区九峰山风景名胜区内,四川省,成都市,彭州市,103.8602385,31.30365334
锒杏苑,商务住宅,住宅区,住宅小区,彭白路东50米,四川省,成都市,彭州市,103.8623606,31.30165707
光辉苑,商务住宅,住宅区,住宅小区,彭白路西100米,四川省,成都市,彭州市,103.8453891,31.29128138
九峰h都,商务住宅,商务住宅相关,商务住宅相关,,四川省,成都市,彭州市,103.8509118,31.2936368
梨苑山庄,商务住宅,住宅区,住宅区,九峰村8组,四川省,成都市,彭州市,103.8492811,31.29201572
东林佳苑,商务住宅,住宅区,住宅小区,彭白路北50米,四川省,成都市,彭州市,103.8210387,31.28345259
风林苑,商务住宅,商务住宅相关,商务住宅相关,彭白路东100米,四川省,成都市,彭州市,103.8205211,31.27340166
聚友苑,商务住宅,商务住宅相关,商务住宅相关,龙门山镇团山村4组2号,四川省,成都市,彭州市,103.8084755,31.25809399
和谐家苑,商务住宅,住宅区,住宅区,团山村连盖坪六社11号,四川省,成都市,彭州市,103.7930664,31.2537786
温泉邻居,商务住宅,商务住宅相关,商务住宅相关,龙门山镇风景区内,四川省,成都市,彭州市,103.7944006,31.24989427
金桂园,商务住宅,商务住宅相关,商务住宅相关,团山村(连盖坪),四川省,成都市,彭州市,103.7924245,31.25378166
三沟幸福苑小区,商务住宅,住宅区,住宅小区,三沟村彭白路三沟幸福苑小区,四川省,成都市,彭州市,103.8042982,31.25144857
云静苑,商务住宅,商务住宅相关,商务住宅相关,彭白路东50米,四川省,成都市,彭州市,103.7987666,31.25111555
阳光苑,商务住宅,住宅区,住宅小区,宝山村七组12号,四川省,成都市,彭州市,103.7823416,31.23719338
阳光家园,商务住宅,住宅区,住宅小区,彭白路,四川省,成都市,彭州市,103.7861083,31.2369772
紫藤家园,商务住宅,商务住宅相关,商务住宅相关,宝山一路东100米,四川省,成都市,彭州市,103.7835069,31.23837328
明静家园,商务住宅,商务住宅相关,商务住宅相关,宝山一路东100米,四川省,成都市,彭州市,103.7835069,31.23837328
银河谷,商务住宅,住宅区,住宅小区,宝山三路西50米,四川省,成都市,彭州市,103.7874046,31.24561812
成都彭州清馨园,商务住宅,商务住宅相关,商务住宅相关,彭州龙门山镇宝山村14组,四川省,成都市,彭州市,103.783561,31.23724784
馨苑,商务住宅,住宅区,住宅小区,宝山村5组,四川省,成都市,彭州市,103.7847205,31.23726828
厚福山寨小区,商务住宅,住宅区,住宅小区,,四川省,成都市,彭州市,103.7955367,31.24460829
翠林苑,商务住宅,住宅区,住宅区,,四川省,成都市,彭州市,103.7965653,31.24560944
嘟嘟苑,商务住宅,商务住宅相关,商务住宅相关,团山村二组(连盖坪),四川省,成都市,彭州市,103.7952281,31.24525653
香榭里二期玲珑郡,商务住宅,住宅区,住宅区,龙门山地质公园(白鹿镇法式风情镇中心区内),四川省,成都市,彭州市,103.8847158,31.24202826
开心苑,商务住宅,住宅区,住宅区,宝山村10组,四川省,成都市,彭州市,103.7765445,31.23218417
映华苑,商务住宅,住宅区,住宅区,宝山村8组,四川省,成都市,彭州市,103.7802813,31.23465211
成都彭州东朋香樟苑,商务住宅,商务住宅相关,商务住宅相关,宝山村5组,四川省,成都市,彭州市,103.7795906,31.23482925
彭州市宝山村山府家园,商务住宅,住宅区,住宅区,宝山一路东50米,四川省,成都市,彭州市,103.784268,31.23644408
水墨江山,商务住宅,住宅区,住宅小区,龙门山镇国坪村村委会附近,四川省,成都市,彭州市,103.7753999,31.22196764
黄家大院,商务住宅,住宅区,住宅区,彭白路东50米,四川省,成都市,彭州市,103.769404,31.22086783
杰鸿家园,商务住宅,住宅区,住宅小区,彭白路东150米,四川省,成都市,彭州市,103.7706639,31.22174544
林兴苑,商务住宅,商务住宅相关,商务住宅相关,彭白路东150米,四川省,成都市,彭州市,103.7701566,31.22041164
醉涛小筑,商务住宅,商务住宅相关,商务住宅相关,彭白路118号,四川省,成都市,彭州市,103.7652689,31.21163314
兰斯香榭,商务住宅,住宅区,住宅区,白鹿中法风情小镇,四川省,成都市,彭州市,103.9141342,31.20865244
郭家湾安置小区,商务住宅,商务住宅相关,商务住宅相关,,四川省,成都市,彭州市,103.9160861,31.21467928
鹿峰山庄,商务住宅,住宅区,住宅区,白鹿镇白鹿场社区9组,四川省,成都市,彭州市,103.9184857,31.20984962
花溪别苑,商务住宅,商务住宅相关,商务住宅相关,黄花公路东200米,四川省,成都市,彭州市,103.8126951,31.19706606
香山园,商务住宅,商务住宅相关,商务住宅相关,白鹿镇小夫路1号,四川省,成都市,彭州市,103.9069869,31.19983108
中法风情小镇,商务住宅,住宅区,住宅小区,小夫路附近,四川省,成都市,彭州市,103.912221,31.20616476
鱼虹小区,商务住宅,住宅区,住宅小区,罗中路与026乡道交叉口西100米,四川省,成都市,彭州市,103.7536715,31.19325887
福兴山庄,商务住宅,住宅区,住宅小区,爱民路与026乡道交叉口北50米,四川省,成都市,彭州市,103.7543475,31.19468134
兴旺苑小区,商务住宅,住宅区,住宅小区,彭白路与爱民路交叉口东北150米,四川省,成都市,彭州市,103.7582,31.19502237
华润二十四城二期guoguo(巴氏鲜奶店),商务住宅,商务住宅相关,商务住宅相关,,四川省,成都市,都江堰市,103.6127236,31.17877343
百香园小区,商务住宅,住宅区,住宅小区,彭白路与026乡道交叉口东100米,四川省,成都市,彭州市,103.7586807,31.18271351
花溪谷,商务住宅,商务住宅相关,商务住宅相关,黄花公路东50米,四川省,成都市,彭州市,103.8110457,31.17901282
雁东苑,商务住宅,住宅区,住宅区,白鹿镇白鹿村4组,四川省,成都市,彭州市,103.9066749,31.17938407
雁江绿苑,商务住宅,商务住宅相关,商务住宅相关,万白路白鹿镇白鹿村二组16号,四川省,成都市,彭州市,103.9071297,31.17944489
阳光园小区,商务住宅,商务住宅相关,商务住宅相关,,四川省,成都市,彭州市,103.994896,31.17927609
景山苑小区,商务住宅,住宅区,住宅小区,鼓浪屿路西100米,四川省,成都市,彭州市,103.819241,31.16983341
枫凌苑,商务住宅,商务住宅相关,商务住宅相关,小夫路西50米,四川省,成都市,彭州市,103.895179,31.17017029
三星苑,商务住宅,商务住宅相关,商务住宅相关,梨八路附近,四川省,成都市,彭州市,103.9721342,31.17303525
龙家木小区,商务住宅,住宅区,住宅小区,龙家木小区(湔红路西230米),四川省,成都市,彭州市,103.9963958,31.17006208
八角苑,商务住宅,住宅区,住宅小区,红岩镇梨花村,四川省,成都市,彭州市,103.9929756,31.16819443
桥楼苑,商务住宅,住宅区,住宅区,彭白路西50米,四川省,成都市,彭州市,103.8148727,31.16415816
富贵苑,商务住宅,住宅区,住宅小区,三明路与南平中路交叉口东南200米,四川省,成都市,彭州市,103.8242702,31.16496428
通济廉租房,商务住宅,住宅区,住宅小区,鼓浪屿路64号,四川省,成都市,彭州市,103.8317242,31.16383885
通济场社区,商务住宅,住宅区,住宅小区,景山路,四川省,成都市,彭州市,103.8310679,31.16220345
滨江街,商务住宅,住宅区,住宅区,滨江街50号附近,四川省,成都市,彭州市,103.8312454,31.15881649
崇德苑,商务住宅,住宅区,住宅区,崇德路西50米,四川省,成都市,彭州市,103.8337691,31.16581367
思文场小区,商务住宅,住宅区,住宅小区,思文街附近,四川省,成都市,彭州市,103.8602385,31.1599733
盛世花源,商务住宅,商务住宅相关,商务住宅相关,蒲沟路西50米,四川省,成都市,彭州市,103.9470634,31.15707552
八角苑小区自建点,商务住宅,商务住宅相关,商务住宅相关,梨八路附近,四川省,成都市,彭州市,103.9919415,31.16625754
阳平安居苑小区,商务住宅,住宅区,住宅小区,阳平安居苑小区附近(东南门),四川省,成都市,彭州市,103.8330733,31.15338766
阳平安居苑小区,商务住宅,住宅区,住宅小区,新兴镇,四川省,成都市,彭州市,103.843691,31.14780683
官田村小区,商务住宅,住宅区,住宅小区,通济镇,四川省,成都市,彭州市,103.8591923,31.151695
侨爱家园,商务住宅,住宅区,住宅小区,蒲沟路西100米,四川省,成都市,彭州市,103.9493277,31.1543212
花园零居,商务住宅,住宅区,住宅区,花园村4组(葛仙山镇花园村村委会东南80米),四川省,成都市,彭州市,103.9498841,31.15678176
天福小区,商务住宅,住宅区,住宅区,湔红路与虎形村路交叉口南150米,四川省,成都市,彭州市,104.0009797,31.1491197
感慈新区,商务住宅,住宅区,住宅小区,会元街与106省道交叉口西南150米,四川省,成都市,彭州市,104.0083504,31.15018685
虹口清韵小筑,商务住宅,商务住宅相关,商务住宅相关,彩虹路东150米,四川省,成都市,都江堰市,103.681117,31.14430742
虹口社区便民服务站,商务住宅,住宅区,社区中心,白八路东100米,四川省,成都市,都江堰市,103.6883458,31.13903592
石狮苑小区,商务住宅,住宅区,住宅区,彭白路东50米,四川省,成都市,彭州市,103.8430641,31.14214464
六阳苑,商务住宅,住宅区,住宅小区,新兴镇,四川省,成都市,彭州市,103.8423798,31.14152575
阳平新型社区,商务住宅,住宅区,住宅小区,彭白路东200米,四川省,成都市,彭州市,103.8439978,31.14401732
立新型社区,商务住宅,住宅区,住宅小区,阳平村蒲新路新兴镇政府西南100米,四川省,成都市,彭州市,103.8430479,31.14499214
彭州市花盆小区,商务住宅,住宅区,住宅小区,繁江路,四川省,成都市,彭州市,103.8812437,31.14524423
熙玉河畔,商务住宅,住宅区,住宅区,楠林路东50米,四川省,成都市,彭州市,103.9291684,31.13987162
蒲仙苑小区,商务住宅,住宅区,住宅小区,葛仙山镇,四川省,成都市,彭州市,103.9526114,31.13928877
成都农业科技职业学院现代农业科技园,商务住宅,产业园区,产业园区,009乡道西50米,四川省,成都市,彭州市,103.9676358,31.13880092
葛仙春晓小区,商务住宅,住宅区,住宅小区,009乡道西50米,四川省,成都市,彭州市,103.9698982,31.13995321
涌泉晨曦小区,商务住宅,住宅区,住宅小区,009乡道北50米,四川省,成都市,彭州市,103.9812228,31.14244375
青城后山峰安小筑,商务住宅,住宅区,住宅区,都江堰红岩新村泰安村九组,四川省,成都市,彭州市,104.0030731,31.14563913
桂荷别苑,商务住宅,住宅区,住宅小区,红岩镇窝店村12组,四川省,成都市,彭州市,103.999661,31.14026729
天顺云鹏蓝莓基地,商务住宅,商务住宅相关,商务住宅相关,碧水路与花洲路交叉口南150米,四川省,成都市,都江堰市,103.6774574,31.13544191
桃园世家小区,商务住宅,商务住宅相关,商务住宅相关,磁峰镇都江堰市虹口景区,四川省,成都市,彭州市,103.7756112,31.12777831
梧桐新月小区,商务住宅,商务住宅相关,商务住宅相关,,四川省,成都市,彭州市,103.7953681,31.13523268
狮山村中河小区,商务住宅,住宅区,住宅小区,彭白路附近,四川省,成都市,彭州市,103.8528992,31.12880623
集乐苑小区,商务住宅,住宅区,住宅小区,府江路西150米,四川省,成都市,彭州市,103.9526656,31.13221434
乐民江畔小区,商务住宅,住宅区,住宅小区,官仓路西150米,四川省,成都市,彭州市,103.9565245,31.13392455
蜀汉官仓苑,商务住宅,住宅区,住宅区,官仓村8组,四川省,成都市,彭州市,103.9762499,31.13125399
虹都水岸,商务住宅,住宅区,住宅小区,虹口乡高原村,四川省,成都市,都江堰市,103.6735436,31.12668995
满园春色小区,商务住宅,住宅区,住宅小区,满园春色小区(花源路东190米),四川省,成都市,彭州市,103.9366749,31.12261955
曲尺云居,商务住宅,住宅区,住宅小区,大曲村,四川省,成都市,彭州市,103.92872,31.1196948
旭日东升小区,商务住宅,住宅区,住宅小区,葛仙山镇东虎村,四川省,成都市,彭州市,103.9647878,31.12066997
桃李晨溪,商务住宅,住宅区,住宅小区,彭什路东50米,四川省,成都市,彭州市,103.9951922,31.12680595
溪岭雪,商务住宅,住宅区,住宅区,虹口乡,四川省,成都市,都江堰市,103.6512734,31.11373373
五龙世家小区,商务住宅,商务住宅相关,商务住宅相关,蒲新路东200米,四川省,成都市,彭州市,103.7870691,31.10945041
德衡苑小区,商务住宅,住宅区,住宅小区,建新路西100米,四川省,成都市,彭州市,103.9202229,31.10720994
建新村久久甜小区,商务住宅,住宅区,住宅小区,建新路与楠林路交叉口南100米,四川省,成都市,彭州市,103.9329029,31.11002315
山泉晓月小区,商务住宅,住宅区,住宅小区,楠林路东100米,四川省,成都市,彭州市,103.9338691,31.10801378
山泉映月小区,商务住宅,住宅区,住宅小区,楠林路,四川省,成都市,彭州市,103.9422499,31.11559054
家和百顺小区,商务住宅,住宅区,住宅小区,葛仙山镇百顺村,四川省,成都市,彭州市,103.9647862,31.11009162
龙漕小区,商务住宅,住宅区,住宅小区,,四川省,成都市,彭州市,104.0172189,31.11569074
成都都江堰虹口邻山苑,商务住宅,住宅区,住宅区,庙坝红色村5组,四川省,成都市,都江堰市,103.6368439,31.10534208
红色社区服务站,商务住宅,住宅区,社区中心,,四川省,成都市,都江堰市,103.6352492,31.10572922
棋盘新村,商务住宅,住宅区,住宅区,向峨乡蒲张路复线西50米,四川省,成都市,都江堰市,103.7279247,31.10317405
毕马威安康社区中心KPMG-CCTF Community Center,商务住宅,商务住宅相关,商务住宅相关,普照寺正街177号,四川省,成都市,彭州市,103.7759897,31.10208739
凤仪河畔小区,商务住宅,住宅区,住宅小区,丹景山镇石洞埝,四川省,成都市,彭州市,103.8935078,31.10061216
柏林鹤鸣小区,商务住宅,商务住宅相关,商务住宅相关,楠林路东100米,四川省,成都市,彭州市,103.9355103,31.09949283
盛世民安小区,商务住宅,住宅区,住宅小区,,四川省,成都市,彭州市,103.9293328,31.099207
华光溢彩小区,商务住宅,住宅区,住宅小区,敖万路西50米,四川省,成都市,彭州市,103.9673921,31.1025548
人和百顺小区,商务住宅,商务住宅相关,商务住宅相关,葛仙山镇附近,四川省,成都市,彭州市,103.9639701,31.10469964
红专苑小区,商务住宅,商务住宅相关,商务住宅相关,,四川省,成都市,彭州市,103.9623411,31.10598911
春风苑小区,商务住宅,商务住宅相关,商务住宅相关,敖万路西50米,四川省,成都市,彭州市,103.9666534,31.10591196
兴泉小区,商务住宅,住宅区,住宅小区,凤楼北街159号,四川省,成都市,彭州市,103.9872398,31.10002036
长泰园小区,商务住宅,住宅区,住宅小区,,四川省,成都市,彭州市,104.0110658,31.09723972
都江堰虹口松桂园,商务住宅,商务住宅相关,商务住宅相关,燕岩路西150米,四川省,成都市,都江堰市,103.6146229,31.09051799
桥头园,商务住宅,住宅区,住宅小区,白八路西150米,四川省,成都市,都江堰市,103.6277728,31.09356291
棕树园,商务住宅,商务住宅相关,商务住宅相关,龙池镇深溪村一组,四川省,成都市,都江堰市,103.6277019,31.09527806
都江堰虹口林中园,商务住宅,商务住宅相关,商务住宅相关,都江堰深溪沟二桥,四川省,成都市,都江堰市,103.6285284,31.09420461
白泥岗小区,商务住宅,住宅区,住宅小区,向峨乡,四川省,成都市,都江堰市,103.6977426,31.09307937
花龙小区,商务住宅,商务住宅相关,商务住宅相关,,四川省,成都市,都江堰市,103.6956763,31.08926184
黄家大院,商务住宅,住宅区,住宅小区,向峨乡,四川省,成都市,都江堰市,103.707447,31.09498069
都江堰市安缇曼旅游度假酒店办公楼,商务住宅,楼宇,商务写字楼,蒲新路东100米,四川省,成都市,都江堰市,103.7151678,31.08862526
新庄子小区,商务住宅,住宅区,住宅小区,向峨乡东林村,四川省,成都市,都江堰市,103.7141634,31.08825865
莲月新村,商务住宅,住宅区,住宅区,莲花湖公路东50米,四川省,成都市,都江堰市,103.7371519,31.08904236
广电望蜀苑,商务住宅,住宅区,住宅区,,四川省,成都市,彭州市,103.8268924,31.09623922
鸭溪农家小区,商务住宅,住宅区,住宅小区,106省道附近,四川省,成都市,彭州市,103.8811668,31.09397039
明月西苑小区,商务住宅,住宅区,住宅小区,106省道,四川省,成都市,彭州市,103.8908186,31.09204795
明月东苑小区,商务住宅,住宅区,住宅小区,106省道北50米,四川省,成都市,彭州市,103.8975752,31.09278613
鸿运小区,商务住宅,住宅区,住宅小区,葛仙山镇红庙村,四川省,成都市,彭州市,103.9217078,31.08925626
柳泉映月小区,商务住宅,住宅区,住宅小区,葛仙山镇杨柳村,四川省,成都市,彭州市,103.9337461,31.09164184
杨柳和风小区,商务住宅,住宅区,住宅小区,葛仙山镇杨柳村,四川省,成都市,彭州市,103.9337651,31.08939704
永乐佳园,商务住宅,住宅区,住宅区,106省道南200米,四川省,成都市,彭州市,103.9434303,31.08877681
文林村,商务住宅,住宅区,住宅小区,葛仙山镇文林村,四川省,成都市,彭州市,103.9560427,31.09148639
幸福文林,商务住宅,住宅区,住宅区,106省道北50米,四川省,成都市,彭州市,103.9565064,31.09032993
狮子泉小区,商务住宅,商务住宅相关,商务住宅相关,敖平镇附近,四川省,成都市,彭州市,103.9726351,31.08968348
敖平老中学学生宿舍,商务住宅,住宅区,宿舍,九龙江路与凤楼中街交叉口西北150米,四川省,成都市,彭州市,103.9852504,31.0923235
平安苑(彭州市第三人民医院东南),商务住宅,住宅区,住宅小区,敖平兴泉村香花步行街平安苑,四川省,成都市,彭州市,103.9804356,31.09611866
鹤泉村凤翔小区,商务住宅,住宅区,住宅小区,民金路附近,四川省,成都市,彭州市,104.0253468,31.09268528
畔溪小筑,商务住宅,住宅区,住宅区,龙池旅游路,四川省,成都市,都江堰市,103.5646314,31.08270745
东林馨苑,商务住宅,住宅区,住宅区,蒲新路东200米,四川省,成都市,都江堰市,103.7165338,31.08455592
茶房新村,商务住宅,住宅区,住宅区,莲花湖公路南50米,四川省,成都市,都江堰市,103.722835,31.07829489
古楠木秀小区,商务住宅,住宅区,住宅小区,葛仙山镇新春村,四川省,成都市,彭州市,103.9537884,31.08643038
紫泉苑小区,商务住宅,住宅区,住宅小区,十二号支渠路与彭敖路交叉口西150米,四川省,成都市,彭州市,103.9827737,31.08480797
聚源小区,商务住宅,住宅区,住宅小区,十二号支渠路北50米,四川省,成都市,彭州市,103.9944071,31.08306592
红林友生联小区,商务住宅,住宅区,住宅小区,十二号支渠路南50米,四川省,成都市,彭州市,104.0135167,31.08165799
悠然南山,商务住宅,商务住宅相关,商务住宅相关,十二号支渠路南50米,四川省,成都市,彭州市,104.010392,31.08162627
星阳小区,商务住宅,住宅区,住宅小区,星河村8组,四川省,成都市,彭州市,104.0332796,31.08070494
星宇小区,商务住宅,住宅区,住宅小区,018乡道北50米,四川省,成都市,彭州市,104.0462908,31.08065363
棕花社区鹤鸣湖畔小区,商务住宅,住宅区,住宅小区,,四川省,成都市,都江堰市,103.6219994,31.06911599
久红苑,商务住宅,住宅区,住宅小区,白八路东150米,四川省,成都市,都江堰市,103.6283178,31.06967037
鹤鸣湖畔,商务住宅,住宅区,住宅区,虹口乡白八路龙池国家森林公园,四川省,成都市,都江堰市,103.6237087,31.06850548
久红社区便民服务站,商务住宅,住宅区,社区中心,,四川省,成都市,都江堰市,103.6296653,31.07272696
长源新居,商务住宅,住宅区,住宅区,蒲张路复线附近,四川省,成都市,都江堰市,103.6752727,31.06875207
鹿池新村,商务住宅,住宅区,住宅区,蒲新路北50米,四川省,成都市,都江堰市,103.7030992,31.07662703
景山碧水,商务住宅,住宅区,住宅小区,东前村,四川省,成都市,彭州市,103.8530309,31.06947257
丹景兰苑,商务住宅,住宅区,住宅区,丹景山政府斜对面,四川省,成都市,彭州市,103.8524377,31.07544431
丹寿苑,商务住宅,住宅区,住宅小区,南安大道附近,四川省,成都市,彭州市,103.8494939,31.0681955
龙池小镇,商务住宅,住宅区,住宅小区,祥龙路与福龙路交叉口东北50米,四川省,成都市,都江堰市,103.5563977,31.06033211
蒲阳镇团结村社区活动中心,商务住宅,住宅区,社区中心,紫杏路与蒲张路复线交叉口西北50米,四川省,成都市,都江堰市,103.6777818,31.05967236
石碑新村,商务住宅,住宅区,住宅区,蒲新路与鹿茶路交叉口南200米,四川省,成都市,都江堰市,103.6950357,31.06478742
南安水景,商务住宅,住宅区,住宅小区,川西旅游环线附近,四川省,成都市,彭州市,103.843412,31.06529367
丹桂苑,商务住宅,住宅区,住宅小区,南安大道,四川省,成都市,彭州市,103.8479113,31.0632436
金鹭新居社区,商务住宅,住宅区,住宅小区,金鹭新居小区1,四川省,成都市,彭州市,103.8458264,31.06689799
马牧河畔,商务住宅,住宅区,住宅小区,军乐镇,四川省,成都市,彭州市,103.9813051,31.06023092
思源民居,商务住宅,住宅区,住宅小区,三界镇,四川省,成都市,彭州市,104.0591523,31.05800713
蒲阳镇蟠龙临江新村(左家山),商务住宅,商务住宅相关,商务住宅相关,,四川省,成都市,都江堰市,103.6543146,31.05405499
都江堰市就业创业基地,商务住宅,产业园区,产业园区,蒲阳镇泰兴大道27号,四川省,成都市,都江堰市,103.6655548,31.05241481
成都雪国高榕,商务住宅,住宅区,住宅区,泰兴大道36号,四川省,成都市,都江堰市,103.6669074,31.05133083
四川都江堰经济开发区(蒲新路),商务住宅,产业园区,产业园区,蒲新路西50米,四川省,成都市,都江堰市,103.6888894,31.04820432
堰上青城小区,商务住宅,住宅区,住宅小区,004乡道南100米,四川省,成都市,都江堰市,103.7092286,31.04988323
祈兴苑,商务住宅,住宅区,住宅区,分罗路西100米,四川省,成都市,彭州市,103.786758,31.05472208
观音桥小区,商务住宅,商务住宅相关,商务住宅相关,仁和路与024乡道交叉口西北150米,四川省,成都市,彭州市,103.8099242,31.0478506
嬉瑗阁,商务住宅,商务住宅相关,商务住宅相关,兴隆大街与正街交叉口北50米,四川省,成都市,彭州市,103.8694035,31.04806344
军屯场社区,商务住宅,住宅区,住宅小区,乐兴西街与乐兴路交叉口东北100米,四川省,成都市,彭州市,103.9763471,31.04957927
新筑别墅,商务住宅,商务住宅相关,商务住宅相关,,四川省,成都市,都江堰市,103.6369452,31.04567289
长峰钢铁2期,商务住宅,商务住宅相关,商务住宅相关,龙翔路5号,四川省,成都市,都江堰市,103.6643502,31.04351013
川苏工业区,商务住宅,产业园区,产业园区,龙翔路南50米,四川省,成都市,都江堰市,103.6685726,31.04260756
浩旺产业园都江堰机电园,商务住宅,产业园区,产业园区,蒲阳镇干河子路289号,四川省,成都市,都江堰市,103.6777435,31.04519856
兴隆小区,商务住宅,住宅区,住宅小区,蒲阳镇军民街,四川省,成都市,都江堰市,103.6834397,31.0421856
建设小区,商务住宅,住宅区,住宅小区,和谐路39号,四川省,成都市,都江堰市,103.6799742,31.04018718
和平社区,商务住宅,住宅区,住宅小区,,四川省,成都市,都江堰市,103.6825798,31.04034223
军民家园A区,商务住宅,住宅区,住宅小区,军民街与蒲张路复线交叉口东南200米,四川省,成都市,都江堰市,103.6872975,31.04010974
凉水家园,商务住宅,住宅区,住宅区,干河子路297号,四川省,成都市,都江堰市,103.6795531,31.04291044
兴鑫小区,商务住宅,住宅区,住宅小区,金凤路东150米,四川省,成都市,都江堰市,103.6798257,31.03754995
军民家园,商务住宅,住宅区,住宅区,新建街北100米,四川省,成都市,都江堰市,103.6895492,31.04025464
陶乡苑,商务住宅,住宅区,住宅区,川西旅游环线南50米,四川省,成都市,彭州市,103.7989541,31.03909585
喜乐苑,商务住宅,商务住宅相关,商务住宅相关,新五路东50米,四川省,成都市,彭州市,103.8567132,31.03877053
丰太苑小区,商务住宅,住宅区,住宅小区,新五路附近,四川省,成都市,彭州市,103.8575065,31.03756042
润泽庭院,商务住宅,住宅区,住宅区,彭白路西50米,四川省,成都市,彭州市,103.8707253,31.04182647
高皇盛世小区,商务住宅,住宅区,住宅小区,隆丰镇,四川省,成都市,彭州市,103.8747323,31.04619025
回龙九组69号,商务住宅,商务住宅相关,商务住宅相关,,四川省,成都市,彭州市,103.8892384,31.03780951
金维家园,商务住宅,商务住宅相关,商务住宅相关,,四川省,成都市,彭州市,103.9719675,31.04221177
银定新区,商务住宅,住宅区,住宅小区,军乐镇,四川省,成都市,彭州市,103.9694858,31.04363078
春山河畔人家,商务住宅,住宅区,住宅小区,什彭路附近,四川省,成都市,彭州市,104.0744082,31.03900013
任仁家园,商务住宅,住宅区,住宅小区,紫坪铺镇杨柳新村,四川省,成都市,都江堰市,103.5881649,31.03618067
万岭社区,商务住宅,住宅区,住宅小区,,四川省,成都市,都江堰市,103.6443687,31.03292233
青城万发创业园,商务住宅,产业园区,产业园区,堰华路823号,四川省,成都市,都江堰市,103.6557312,31.02889661
853公寓,商务住宅,住宅区,住宅区,蒲阳镇八五三路853,四川省,成都市,都江堰市,103.6516231,31.02882411
盛世星河源岸,商务住宅,住宅区,住宅小区,九鼎大道与堰华路交叉口西南150米,四川省,成都市,都江堰市,103.6600406,31.02883162
和谐家园(九鼎大道),商务住宅,住宅区,住宅小区,蜀汉路369号,四川省,成都市,都江堰市,103.6589981,31.03101933
万都香山水岸,商务住宅,住宅区,住宅区,九鼎大道7号附近,四川省,成都市,都江堰市,103.6612107,31.02881042
东方明珠沪苑,商务住宅,住宅区,住宅小区,蒲阳镇川苏工业园,四川省,成都市,都江堰市,103.6611239,31.02783314
上阳街440号院,商务住宅,住宅区,住宅区,上阳街440号,四川省,成都市,都江堰市,103.6669633,31.02735629
都江堰市中小企业园(堰华路),商务住宅,产业园区,产业园区,都江堰经济开发区堰华路18号,四川省,成都市,都江堰市,103.6669312,31.03246745
都江堰建国汽车产业文化园,商务住宅,产业园区,产业园区,拉法基大道3号,四川省,成都市,都江堰市,103.6672974,31.02827113
四川都江堰经济开发区(泰兴大道),商务住宅,产业园区,产业园区,泰兴大道2号,四川省,成都市,都江堰市,103.6779036,31.03300416
川苏科技产业园,商务住宅,产业园区,产业园区,堰华路,四川省,成都市,都江堰市,103.6738696,31.03560336
钧福科技园,商务住宅,产业园区,产业园区,上阳街410号,四川省,成都市,都江堰市,103.6702769,31.02929083
天府软件园都江堰孵化园A区,商务住宅,产业园区,产业园区,上阳街309号,四川省,成都市,都江堰市,103.6718839,31.02892896
金龙工业港,商务住宅,产业园区,产业园区,上阳街与金凤路交叉口西50米,四川省,成都市,都江堰市,103.6806069,31.03333388
同义小区,商务住宅,住宅区,住宅小区,上阳街183号,四川省,成都市,都江堰市,103.6796324,31.0321204
吉庆苑,商务住宅,住宅区,住宅小区,上阳街35号附1号,四川省,成都市,都江堰市,103.6825791,31.03381693
金藤小区,商务住宅,住宅区,住宅小区,蒲阳镇上阳街220号,四川省,成都市,都江堰市,103.6816673,31.0354457
互助家园,商务住宅,住宅区,住宅小区,金凤路附近,四川省,成都市,都江堰市,103.6799066,31.03430864
兴盛小区(金凤路),商务住宅,住宅区,住宅小区,金凤路38号,四川省,成都市,都江堰市,103.6807815,31.03432399
四川富士鑫电梯有限公司都江堰生产基地,商务住宅,产业园区,产业园区,上阳街225号附近,四川省,成都市,都江堰市,103.6793591,31.03042887
厢桂园,商务住宅,住宅区,住宅区,蒲村街145号6栋,四川省,成都市,都江堰市,103.6895574,31.03510754
会元桥社区,商务住宅,住宅区,住宅小区,拦厢新街37号会元桥社区居委会附近,四川省,成都市,都江堰市,103.6915718,31.03585459
丰乐莲花小区,商务住宅,住宅区,住宅小区,插旗路南50米,四川省,成都市,彭州市,103.757577,31.03115113
桂花生态农家园,商务住宅,住宅区,住宅区,凉水村丰乐加油站北200米,四川省,成都市,彭州市,103.7580873,31.02767129
丰乐场社区,商务住宅,住宅区,住宅小区,插旗路北50米,四川省,成都市,彭州市,103.761244,31.0320132
乐谐苑小区,商务住宅,商务住宅相关,商务住宅相关,丰土路附近,四川省,成都市,彭州市,103.7657012,31.02769622
望桃居小区,商务住宅,住宅区,住宅小区,106省道北50米,四川省,成都市,彭州市,103.7744742,31.03386379
农科小区,商务住宅,住宅区,住宅小区,双红村皂角树街农科小区,四川省,成都市,彭州市,103.7715841,31.02743082
西河人家,商务住宅,住宅区,住宅小区,隆丰镇八庙村,四川省,成都市,彭州市,103.8502947,31.03410499
西北润园,商务住宅,住宅区,住宅小区,彭白路西北村附近,四川省,成都市,彭州市,103.8860704,31.02856515
肖家河幸福大院,商务住宅,商务住宅相关,商务住宅相关,,四川省,成都市,彭州市,103.9152256,31.03225057
白衣幸福家园,商务住宅,住宅区,住宅小区,三界镇,四川省,成都市,彭州市,104.0777634,31.03145945
清泉安居园,商务住宅,住宅区,住宅小区,万源大道西段附近,四川省,成都市,彭州市,104.0761631,31.03613815
友谊小区,商务住宅,住宅区,住宅小区,万源大道西段,四川省,成都市,彭州市,104.1037008,31.03148763
马超坪小区,商务住宅,住宅区,住宅小区,,四川省,成都市,都江堰市,103.5943266,31.02296039
三汇苑,商务住宅,住宅区,住宅区,白沙路与龙池旅游路交叉口东南100米,四川省,成都市,都江堰市,103.5901605,31.01989651
灵怡苑,商务住宅,住宅区,住宅区,灵岩路,四川省,成都市,都江堰市,103.6131155,31.02274205
江山墅,商务住宅,住宅区,住宅区,灌口镇岷江社区5组,四川省,成都市,都江堰市,103.6090899,31.02410589
秦堰名居,商务住宅,住宅区,别墅,灵岩山脚下,四川省,成都市,都江堰市,103.6129516,31.0258444
玉林晓筑,商务住宅,住宅区,住宅小区,灵岩古街北100米,四川省,成都市,都江堰市,103.6135368,31.02711825
温泉别院,商务住宅,住宅区,住宅区,香雪海路141号,四川省,成都市,都江堰市,103.6359004,31.01862079
百花苑(共建路),商务住宅,住宅区,住宅小区,灌口镇,四川省,成都市,都江堰市,103.6331579,31.01771824
侏罗纪温泉项目部职工生活区,商务住宅,住宅区,宿舍,香雪海路南50米,四川省,成都市,都江堰市,103.6368475,31.01831057
龙翔尚嘉,商务住宅,住宅区,住宅区,通站路西100米,四川省,成都市,都江堰市,103.6420514,31.02005846
都市美好家园,商务住宅,住宅区,住宅小区,外北街延伸段堰华路50号,四川省,成都市,都江堰市,103.6472757,31.01949506
公园大道1号,商务住宅,住宅区,住宅小区,上阳街,四川省,成都市,都江堰市,103.6463468,31.01829333
城北馨居润园,商务住宅,住宅区,住宅小区,芳菲路与005乡道交叉口东南100米,四川省,成都市,都江堰市,103.640427,31.01719769
城北山水,商务住宅,住宅区,住宅小区,堰华路276号,四川省,成都市,都江堰市,103.6512861,31.02276316
维罗纳小镇(建设中),商务住宅,住宅区,住宅小区,上阳街与青纸路交叉口北100米,四川省,成都市,都江堰市,103.6500332,31.02001396
玉兰园,商务住宅,住宅区,住宅小区,都江堰玉垒北街28号,四川省,成都市,都江堰市,103.6531888,31.01803045
宁江B区,商务住宅,楼宇,商务写字楼,上阳街1358号附近,四川省,成都市,都江堰市,103.6528604,31.02096836
尚阳北区,商务住宅,住宅区,住宅小区,玉兰路与青纸路交叉口东100米,四川省,成都市,都江堰市,103.6510389,31.0176975
尚阳东区,商务住宅,住宅区,住宅小区,青城纸厂家属区尚阳,四川省,成都市,都江堰市,103.6509352,31.01724094
高埂社区活动中心,商务住宅,住宅区,社区中心,高埂三组6,四川省,成都市,都江堰市,103.6509779,31.02123658
玉荣园,商务住宅,住宅区,住宅小区,玉垒北街28号,四川省,成都市,都江堰市,103.6529903,31.0180318
尚阳社区多功能活动室,商务住宅,住宅区,社区中心,玉垒北街2号附近,四川省,成都市,都江堰市,103.6527509,31.01713775
万都大厦,商务住宅,楼宇,商务写字楼,九鼎大道1号,四川省,成都市,都江堰市,103.6627091,31.02557642
铁桥龙鲟塘,商务住宅,商务住宅相关,商务住宅相关,上双路东100米,四川省,成都市,都江堰市,103.6635171,31.02295338
都江堰市工业集中发展区域,商务住宅,产业园区,产业园区,上阳街与九鼎大道交叉口西50米,四川省,成都市,都江堰市,103.6634003,31.02543819
天府软件园都江堰孵化园,商务住宅,产业园区,产业园区,蒲阳镇上阳街,四川省,成都市,都江堰市,103.6668965,31.02648291
都江堰市科技创新服务中心,商务住宅,产业园区,产业园区,蒲阳镇经开区孵化园A区,四川省,成都市,都江堰市,103.6722391,31.02648766
土什社区活动中心,商务住宅,住宅区,社区中心,蒲胥路与011乡道交叉口北150米,四川省,成都市,都江堰市,103.6922879,31.01794655
成都市村(社区)活动中心,商务住宅,住宅区,社区中心,胥家镇新民社区,四川省,成都市,都江堰市,103.7440427,31.0259337
麟家园,商务住宅,商务住宅相关,商务住宅相关,,四川省,成都市,彭州市,103.7654864,31.01890309
德馨苑,商务住宅,住宅区,住宅小区,锦阳西南路131号,四川省,成都市,彭州市,103.94515,31.02047076
东湖小区,商务住宅,住宅区,住宅小区,锦阳西路40号,四川省,成都市,彭州市,103.9429175,31.01909585
集贤园小区,商务住宅,住宅区,住宅小区,锦阳西南路102-附1号附近,四川省,成都市,彭州市,103.9470552,31.02147936
天福阳光苑,商务住宅,商务住宅相关,商务住宅相关,锦阳西南路与006乡道交叉口西50米,四川省,成都市,彭州市,103.9447808,31.02226846
锦阳社区,商务住宅,住宅区,住宅小区,锦田里步行街与锦阳西南路交叉口东北150米,四川省,成都市,彭州市,103.9485942,31.02198688
国家农业综合开发高新科技蔬菜示范园,商务住宅,产业园区,产业园区,彭敖路东50米,四川省,成都市,彭州市,103.9592903,31.01738213
玉泉馨苑小区,商务住宅,住宅区,住宅小区,,四川省,成都市,彭州市,104.0140125,31.02238182
银雀小区,商务住宅,商务住宅相关,商务住宅相关,什彭路西150米,四川省,成都市,彭州市,104.010835,31.02288393
宁德周宁上海商会光彩楼,商务住宅,楼宇,商务写字楼,升平镇中心幼儿园附近,四川省,成都市,彭州市,104.0135839,31.02596004
双龙小区,商务住宅,商务住宅相关,商务住宅相关,,四川省,成都市,彭州市,104.0639576,31.02122465
三界茗苑,商务住宅,住宅区,住宅小区,育才街,四川省,成都市,彭州市,104.1038551,31.02614472
新埝村综合文化活动室,商务住宅,住宅区,社区中心|科教文化服务,105省道西50米,四川省,成都市,彭州市,104.100409,31.02133951
黎明佳苑,商务住宅,住宅区,住宅小区,紫坪铺镇黎明村6组,四川省,成都市,都江堰市,103.5879769,31.01136175
樱花河畔,商务住宅,住宅区,住宅区,玉堂镇都江村,四川省,成都市,都江堰市,103.5898488,31.01149323
岷江会馆,商务住宅,住宅区,别墅,龙池旅游路东50米,四川省,成都市,都江堰市,103.6069494,31.01087157
成青・紫宽路88号,商务住宅,住宅区,别墅,紫宽路88号(二王庙前行100米),四川省,成都市,都江堰市,103.6069494,31.01087157
岷江村1组6号,商务住宅,商务住宅相关,商务住宅相关,龙池旅游路东50米,四川省,成都市,都江堰市,103.6069044,31.01216985
宁馨苑(竹林路),商务住宅,住宅区,住宅小区,灵岩山,四川省,成都市,都江堰市,103.6141236,31.01635294
麝所桂苑,商务住宅,住宅区,住宅小区,百花岭路14号附近,四川省,成都市,都江堰市,103.6171378,31.01155021
都江之春,商务住宅,住宅区,住宅小区,观景路二段,四川省,成都市,都江堰市,103.6196543,31.01111013
南桥花园,商务住宅,住宅区,住宅小区,平义路70号,四川省,成都市,都江堰市,103.6254053,31.00937098
国光纳帕谷,商务住宅,住宅区,住宅小区,观景路(香雪海路玉华酒店旁),四川省,成都市,都江堰市,103.6226497,31.01162178
都电平义苑,商务住宅,住宅区,住宅小区,观景路876号附3号,四川省,成都市,都江堰市,103.6254053,31.01100904
柳岸苑,商务住宅,住宅区,住宅小区,柳岸路11号附近,四川省,成都市,都江堰市,103.6220748,31.00895792
花洲原城小筑,商务住宅,住宅区,住宅小区,观景路876号附22号,四川省,成都市,都江堰市,103.6259883,31.01070553
亲山印象,商务住宅,住宅区,住宅小区,香雪海路162号,四川省,成都市,都江堰市,103.6252256,31.01077239
未名苑,商务住宅,住宅区,住宅小区,灌口镇观景路731号,四川省,成都市,都江堰市,103.626221,31.00912916
银海花园3期,商务住宅,住宅区,住宅小区,平武巷104-附7号附近,四川省,成都市,都江堰市,103.6235954,31.00807178
雅卓苑,商务住宅,住宅区,住宅小区,柳岸路34号,四川省,成都市,都江堰市,103.6229324,31.00934778
金桂苑(平武巷),商务住宅,住宅区,住宅小区,灌口镇平义路5号,四川省,成都市,都江堰市,103.6226798,31.00833863
柳岸公寓,商务住宅,住宅区,住宅小区,灌口镇平义社区畔溪巷23号,四川省,成都市,都江堰市,103.6244969,31.00829164
岷旺花园,商务住宅,住宅区,住宅小区,平义路68号,四川省,成都市,都江堰市,103.6254693,31.00870129
南苑小区,商务住宅,住宅区,住宅小区,平义路60号,四川省,成都市,都江堰市,103.6249122,31.00912469
岷电家属区,商务住宅,住宅区,住宅小区,外北街266号附近,四川省,成都市,都江堰市,103.6278592,31.007666
留馨花园,商务住宅,住宅区,住宅小区,蒲阳路335附10号,四川省,成都市,都江堰市,103.6277165,31.00718246
金三花园,商务住宅,住宅区,住宅小区,灌口镇平义路58号,四川省,成都市,都江堰市,103.6245129,31.00887229
村镇办家属区,商务住宅,住宅区,住宅区,外北街,四川省,成都市,都江堰市,103.6269079,31.00765318
柳苑,商务住宅,商务住宅相关,商务住宅相关,香雪海路57号,四川省,成都市,都江堰市,103.6269226,31.01245741
规划局宿舍,商务住宅,住宅区,宿舍,灌口镇外北街平武巷104号附52,四川省,成都市,都江堰市,103.6229404,31.00826439
拦马桥街和苑小区,商务住宅,住宅区,住宅小区,平武巷66号1栋,四川省,成都市,都江堰市,103.6228925,31.00808154
四川农业大学都江堰校区后勤职工临时住房,商务住宅,住宅区,宿舍,平武巷与柳岸路交叉口西150米,四川省,成都市,都江堰市,103.6208207,31.0084585
爱心家园,商务住宅,住宅区,住宅小区,文荟路,四川省,成都市,都江堰市,103.6337499,31.01397355
银杏公寓(外北街),商务住宅,住宅区,住宅小区,外北街738号,四川省,成都市,都江堰市,103.6328059,31.01016406
爱家佳苑(清池路),商务住宅,住宅区,住宅小区,都江堰蒲阳路677号(灌口镇镇政府侧50米),四川省,成都市,都江堰市,103.6361073,31.01104482
古堰春晓,商务住宅,住宅区,住宅小区,外北街423号,四川省,成都市,都江堰市,103.6298505,31.01093659
清池苑,商务住宅,住宅区,住宅小区,灌口镇清池路113号,四川省,成都市,都江堰市,103.6337161,31.0106525
天海花园,商务住宅,住宅区,住宅小区,灌口镇外北街延伸段549号,四川省,成都市,都江堰市,103.6338358,31.01278311
城北别院,商务住宅,住宅区,住宅小区,外北街852号,四川省,成都市,都江堰市,103.635275,31.01202048
都江森林别墅,商务住宅,住宅区,别墅,灵岩山香雪海路83号,四川省,成都市,都江堰市,103.6295409,31.01463488
城北风景苑,商务住宅,住宅区,住宅小区,清池路46号,四川省,成都市,都江堰市,103.6349287,31.01001313
灵岩公寓,商务住宅,住宅区,住宅小区,银杏路东100米,四川省,成都市,都江堰市,103.6309903,31.01282701
北郡,商务住宅,住宅区,住宅小区,银杏路180号,四川省,成都市,都江堰市,103.6318896,31.01205923
玉垒名居,商务住宅,住宅区,住宅小区,观景路678号,四川省,成都市,都江堰市,103.630159,31.00737223
宁江小区,商务住宅,住宅区,住宅小区,蒲阳路下段594号,四川省,成都市,都江堰市,103.633338,31.00724099
春天花园(文荟路),商务住宅,住宅区,住宅小区,文汇路文荟路939号,四川省,成都市,都江堰市,103.6366402,31.01190554
平义教师园,商务住宅,住宅区,住宅小区,清池路80号,四川省,成都市,都江堰市,103.6345395,31.01094716
岷江公寓,商务住宅,住宅区,住宅小区,银杏路25号附近,四川省,成都市,都江堰市,103.6334517,31.00846912
双江苑,商务住宅,住宅区,住宅小区,蒲阳路694号,四川省,成都市,都江堰市,103.6361424,31.00739386
中城・美山居,商务住宅,住宅区,住宅小区,银杏路202号,四川省,成都市,都江堰市,103.6314714,31.01302225
中旅家属区,商务住宅,住宅区,住宅区,拦马桥,四川省,成都市,都江堰市,103.6305091,31.01324041
仙客来苑,商务住宅,住宅区,住宅小区,蒲阳路563号灌口镇政府家属区,四川省,成都市,都江堰市,103.6325216,31.00771985
金杏苑,商务住宅,住宅区,住宅小区,蒲阳路血站路口,四川省,成都市,都江堰市,103.633349,31.00739389
玉垒竹韵山P,商务住宅,住宅区,别墅,富民北路中段(玉华酒店向前100米左右),四川省,成都市,都江堰市,103.6289752,31.00850711
城北苑,商务住宅,楼宇,商务写字楼,灌口镇外北街408号(平义社区医院对面),四川省,成都市,都江堰市,103.6287396,31.00838049
蒲阳路673附4号路桥公寓,商务住宅,商务住宅相关,商务住宅相关,蒲阳路673附4号,四川省,成都市,都江堰市,103.6356453,31.01130535
振馨家园,商务住宅,住宅区,住宅小区,外北街668号,四川省,成都市,都江堰市,103.6316571,31.00947203
岷电小区,商务住宅,住宅区,住宅小区,外北街与观景路二段交叉口南100米,四川省,成都市,都江堰市,103.6285979,31.00766608
山青家园,商务住宅,住宅区,住宅小区,香雪海路西100米,四川省,成都市,都江堰市,103.6312347,31.01483153
崇义粮站家属区,商务住宅,住宅区,住宅区,蒲阳路794号,四川省,成都市,都江堰市,103.6377011,31.00999204
观景路707号院,商务住宅,住宅区,住宅小区,灌口镇观景路707号,四川省,成都市,都江堰市,103.6285899,31.00773205
宁江厂家属区,商务住宅,住宅区,住宅小区,蒲阳路宁江厂,四川省,成都市,都江堰市,103.6352352,31.00745116
天福家园Ⅱ期,商务住宅,住宅区,住宅小区,文荟路西150米,四川省,成都市,都江堰市,103.6383518,31.00853888
天福家园2期,商务住宅,住宅区,住宅小区,蒲阳大道,四川省,成都市,都江堰市,103.6383518,31.00853888
大诚畔溪苑,商务住宅,住宅区,住宅小区,蒲阳路673号附1号,四川省,成都市,都江堰市,103.6359307,31.00995371
国际名都,商务住宅,住宅区,住宅小区,蒲阳大道,四川省,成都市,都江堰市,103.6458082,31.01433751
钱江美域,商务住宅,住宅区,住宅小区,都江堰内二环文荟路818号(都江堰内二环蒲阳路交汇处),四川省,成都市,都江堰市,103.6404512,31.01077633
君悦名筑,商务住宅,住宅区,住宅小区,蒲阳路888号,四川省,成都市,都江堰市,103.6424957,31.0120863
城北阳光小区,商务住宅,住宅区,住宅小区,蒲阳路895号,四川省,成都市,都江堰市,103.6404291,31.01439329
堰山和畔4期,商务住宅,住宅区,住宅小区,彩虹大道北段(国际名都斜对面),四川省,成都市,都江堰市,103.6456996,31.01177216
岷山公寓,商务住宅,住宅区,住宅小区,蒲阳路719号,四川省,成都市,都江堰市,103.6393156,31.01223327
慧民苑,商务住宅,住宅区,住宅小区,蒲阳大道807号,四川省,成都市,都江堰市,103.6390601,31.01268041
天福家园,商务住宅,住宅区,住宅小区,灌口镇宁江社区,四川省,成都市,都江堰市,103.6391232,31.00715748
钱江丽坊,商务住宅,住宅区,住宅小区,文荟路,四川省,成都市,都江堰市,103.6392019,31.01006969
牡丹园(金桂街),商务住宅,住宅区,住宅小区,金桂街16号,四川省,成都市,都江堰市,103.6531789,31.01504817
山茶园,商务住宅,住宅区,住宅小区,问道西路65号,四川省,成都市,都江堰市,103.6545916,31.01359843
杜鹃园(杜鹃街),商务住宅,住宅区,住宅小区,杜鹃街22,四川省,成都市,都江堰市,103.6547112,31.01508436
海棠园,商务住宅,住宅区,住宅小区,问道西路48号,四川省,成都市,都江堰市,103.6538294,31.01437237
金桂园(金桂街),商务住宅,住宅区,住宅小区,金桂街6,四川省,成都市,都江堰市,103.6541316,31.01568507
香樟园(问道路),商务住宅,住宅区,住宅小区,问道东路7号,四川省,成都市,都江堰市,103.6576211,31.01660212
堰山和畔Ⅲ期(建设中),商务住宅,住宅区,住宅小区,尚阳大道与彩虹大道北段交叉口西南50米,四川省,成都市,都江堰市,103.6508137,31.01120361
高桥B7,商务住宅,住宅区,住宅小区,双林路15号,四川省,成都市,都江堰市,103.6537039,31.00955036
银桂园,商务住宅,住宅区,住宅小区,问道西路9号,四川省,成都市,都江堰市,103.6566984,31.01512668
上游・槐苑,商务住宅,住宅区,住宅小区,勤俭路85号,四川省,成都市,都江堰市,103.651522,31.01341608
上游小区,商务住宅,住宅区,住宅小区,兴堰路,四川省,成都市,都江堰市,103.6564561,31.011855
高桥阳光,商务住宅,住宅区,住宅小区,勤俭路与重庆路交叉口东北200米,四川省,成都市,都江堰市,103.6574967,31.00828811
尚阳西区,商务住宅,住宅区,住宅小区,玉垒路与青纸路交叉口西北100米,四川省,成都市,都江堰市,103.6504813,31.01691893
上游新居,商务住宅,商务住宅相关,商务住宅相关,蒲阳镇尚阳大道48号,四川省,成都市,都江堰市,103.6569848,31.01103749
楠园,商务住宅,住宅区,住宅小区,太白东街17,四川省,成都市,都江堰市,103.6581259,31.01565972
堰山和畔2期,商务住宅,住宅区,住宅区,彩虹大道北段329号,四川省,成都市,都江堰市,103.6509954,31.00774227
都江堰创业孵化园,商务住宅,产业园区,产业园区,尚阳大道与永安大道北二段交叉口西南100米,四川省,成都市,都江堰市,103.6576641,31.01337988
珙桐园,商务住宅,住宅区,住宅小区,都江堰问道西路45号,四川省,成都市,都江堰市,103.655641,31.01462292
都江堰市青年创业园,商务住宅,产业园区,产业园区,尚阳大道与永安大道北二段交叉口西南50米,四川省,成都市,都江堰市,103.6579005,31.01356534
高桥社区文化活动中心,商务住宅,住宅区,社区中心,重庆路230号号附近,四川省,成都市,都江堰市,103.6571825,31.00714535
紫荆园(问道路),商务住宅,住宅区,住宅小区,问道东路39号,四川省,成都市,都江堰市,103.6588231,31.01690171
红豆园,商务住宅,住宅区,住宅小区,尚阳大道一街区香樟街20号,四川省,成都市,都江堰市,103.6595075,31.01505248
银杏园(银杏西路),商务住宅,住宅区,住宅小区,银杏西路235号,四川省,成都市,都江堰市,103.6604321,31.0156494
紫薇园(问道路),商务住宅,住宅区,住宅小区,拜水东路与银杏西路交叉口东南100米,四川省,成都市,都江堰市,103.6602715,31.01687
都江堰市壹街区拆迁双槐安置点,商务住宅,住宅区,住宅小区,尚阳大道与银杏西路交叉口南100米,四川省,成都市,都江堰市,103.6603395,31.01376565
高桥小区,商务住宅,住宅区,住宅小区,重庆路269号,四川省,成都市,都江堰市,103.6604684,31.00834551
清泉小区,商务住宅,住宅区,住宅小区,,四川省,成都市,彭州市,103.7605548,31.00755483
黄龙小区(秀山庭院),商务住宅,商务住宅相关,商务住宅相关,八庙路东150米,四川省,成都市,彭州市,103.8518042,31.01378704
秀山庭院,商务住宅,住宅区,住宅小区,黄龙村,四川省,成都市,彭州市,103.849988,31.01425279
丽春镇花草翠竹小区,商务住宅,商务住宅相关,商务住宅相关,丽隆路与大同路交叉口东南200米,四川省,成都市,彭州市,103.8706705,31.00995555
杜家小区,商务住宅,住宅区,住宅小区,利军路,四川省,成都市,彭州市,103.9375997,31.01077808
百和苑,商务住宅,住宅区,住宅小区,石化大道东50米,四川省,成都市,彭州市,103.9454415,31.0153641
天彭镇百和社区,商务住宅,住宅区,住宅小区,石化大道东50米,四川省,成都市,彭州市,103.9454355,31.01554701
金鹏花苑,商务住宅,住宅区,住宅区,滨河北路西50米,四川省,成都市,彭州市,103.9460592,31.00959018
清凉村道,商务住宅,住宅区,住宅区,,四川省,成都市,彭州市,104.1103977,31.01674824
文庙街22号院,商务住宅,住宅区,住宅小区,灌口镇文庙街22号,四川省,成都市,都江堰市,103.6151309,31.0021383
井福公寓,商务住宅,住宅区,住宅小区,井福街23号,四川省,成都市,都江堰市,103.6167198,31.00084571
文庙街1号院,商务住宅,住宅区,住宅小区,文庙街1号,四川省,成都市,都江堰市,103.6151998,31.00167151
文庙街7号院,商务住宅,住宅区,住宅小区,文庙街7号,四川省,成都市,都江堰市,103.6156402,31.00208591
文庙街9号院,商务住宅,住宅区,住宅小区,灌口镇文庙街9号,四川省,成都市,都江堰市,103.6157621,31.00224272
文庙街44号院,商务住宅,住宅区,住宅小区,文庙街44号,四川省,成都市,都江堰市,103.6157001,31.00295236
文庙街50号院,商务住宅,住宅区,住宅小区,文庙街50号,四川省,成都市,都江堰市,103.6159258,31.00322602
井福街52号院,商务住宅,住宅区,住宅小区,井福街52号,四川省,成都市,都江堰市,103.6163962,31.00176946
文庙街82号院,商务住宅,住宅区,住宅小区,灌口镇文庙街82号,四川省,成都市,都江堰市,103.6162494,31.00289194
文庙街25号院,商务住宅,住宅区,住宅小区,文庙街25号,四川省,成都市,都江堰市,103.6164072,31.00306071
邮电公寓家属院,商务住宅,住宅区,住宅小区,幸福路207号,四川省,成都市,都江堰市,103.6160607,31.00034956
书院街61号院,商务住宅,住宅区,住宅小区,灌口镇书院街61号,四川省,成都市,都江堰市,103.6176175,31.00371527
文庙山街102号院,商务住宅,住宅区,住宅小区,文庙山街102号,四川省,成都市,都江堰市,103.6154124,31.00569703
文庙街23号院,商务住宅,住宅区,住宅区,灌口镇文庙街23号,四川省,成都市,都江堰市,103.6163782,31.00273792
瑞莲街65号院,商务住宅,住宅区,住宅小区,灌口镇瑞莲街65号,四川省,成都市,都江堰市,103.6181998,31.00110824
新堰坎91号小区,商务住宅,住宅区,住宅小区,新堰坎91号,四川省,成都市,都江堰市,103.6153627,30.99811242
水巷子10号院,商务住宅,住宅区,住宅小区,水巷子10号,四川省,成都市,都江堰市,103.6183317,31.00049947
茶厂家属区,商务住宅,住宅区,住宅区,文庙街84号,四川省,成都市,都江堰市,103.6163712,31.00317268
南桥映象,商务住宅,商务住宅相关,商务住宅相关,南街与西街交叉口东北50米,四川省,成都市,都江堰市,103.6145137,31.00031583
都江堰管理局第三生活区,商务住宅,住宅区,住宅小区,复兴街155号,四川省,成都市,都江堰市,103.6104495,30.99743534
都机复兴街家属区,商务住宅,住宅区,住宅区,复兴街36号1幢,四川省,成都市,都江堰市,103.6129997,30.99722375
都江堰管理局第一生活区,商务住宅,住宅区,住宅小区,公园路30号,四川省,成都市,都江堰市,103.6164993,30.99740088
灌口镇南桥社区幸福路215号邮电公寓家属区,商务住宅,住宅区,住宅区,幸福路207号,四川省,成都市,都江堰市,103.6160328,31.00042454
涛声园,商务住宅,住宅区,住宅小区,宝瓶下街40号,四川省,成都市,都江堰市,103.6183497,30.99861254
瑞莲社区-粮食局家属区-楼外楼公寓,商务住宅,住宅区,住宅区,灌口镇幸福路水巷子10号楼,四川省,成都市,都江堰市,103.6183396,31.00051246
银杏生活广场,商务住宅,住宅区,住宅小区,灌口镇建设路129号,四川省,成都市,都江堰市,103.620805,31.00267483
馨苑(蒲阳路),商务住宅,住宅区,住宅小区,蒲阳路335附2号,四川省,成都市,都江堰市,103.6282855,31.00496702
岷山雅居,商务住宅,住宅区,住宅小区,蒲阳路313号,四川省,成都市,都江堰市,103.6277155,31.00499471
蒲阳路101号小区,商务住宅,住宅区,住宅小区,蒲阳路101号,四川省,成都市,都江堰市,103.623945,31.00270147
都江堰恒生商业广场D-25-4-A,商务住宅,楼宇,商务写字楼,建设路与蒲阳路交叉口东100米,四川省,成都市,都江堰市,103.6232462,31.00141099
怡晴苑,商务住宅,住宅区,住宅小区,建设路永康巷56号附7号,四川省,成都市,都江堰市,103.6230456,30.99913651
胡家巷14号院,商务住宅,住宅区,住宅小区,胡家巷14号,四川省,成都市,都江堰市,103.6245191,31.00294968
兴隆街32号小区,商务住宅,住宅区,住宅小区,兴隆街32号,四川省,成都市,都江堰市,103.6251291,31.00200852
都江堰市农业银行家属院,商务住宅,住宅区,住宅小区,建设路191号,四川省,成都市,都江堰市,103.6219512,31.00215295
都江堰市灌口镇D-25-3地块灾后重建项目,商务住宅,楼宇,商务写字楼,蒲阳路42号,四川省,成都市,都江堰市,103.6242096,31.00180769
青馨苑,商务住宅,住宅区,住宅小区,灌口镇蒲阳路42号,四川省,成都市,都江堰市,103.6244552,31.0018324
鑫隆公寓(兴盛街),商务住宅,住宅区,住宅小区,兴盛街141号,四川省,成都市,都江堰市,103.6258419,31.00201069
蒲阳路社区建设路224号院,商务住宅,住宅区,住宅小区,建设路224号,四川省,成都市,都江堰市,103.6224863,31.00350061
乔富休闲广场,商务住宅,楼宇,楼宇相关,建设路与白果巷交叉口西100米,四川省,成都市,都江堰市,103.6209517,31.00312842
柳河家园,商务住宅,住宅区,住宅小区,外北街253号附近,四川省,成都市,都江堰市,103.6225672,31.00445797
都江堰市水务局家属区,商务住宅,住宅区,住宅小区,外北街70号附近,四川省,成都市,都江堰市,103.6218054,31.00457671
胡家巷84号院,商务住宅,住宅区,住宅小区,胡家巷84号,四川省,成都市,都江堰市,103.6233449,31.00456307
紫东社区活动中心,商务住宅,住宅区,社区中心,蒲阳路22号,四川省,成都市,都江堰市,103.6238692,31.00185205
胡家巷92号院,商务住宅,住宅区,住宅小区,灌口镇胡家巷92号,四川省,成都市,都江堰市,103.6231882,31.00475413
紫东苑(兴盛街),商务住宅,住宅区,住宅小区,兴盛街181号,四川省,成都市,都江堰市,103.6266456,31.00134911
杨柳河街152号院,商务住宅,住宅区,住宅小区,杨柳河街152号,四川省,成都市,都江堰市,103.620125,31.00229473
静馨苑公寓,商务住宅,住宅区,住宅小区,蒲阳路118号,四川省,成都市,都江堰市,103.6255025,31.00254778
杨柳河116号院,商务住宅,住宅区,住宅小区,杨柳河街116号,四川省,成都市,都江堰市,103.620119,31.00180501
平安府邸,商务住宅,住宅区,住宅小区,马家巷57号,四川省,成都市,都江堰市,103.6201201,31.0009525
陈家巷49号院,商务住宅,住宅区,住宅小区,灌口镇陈家巷49号,四川省,成都市,都江堰市,103.6212913,30.99983796
外北馨居,商务住宅,住宅区,住宅小区,外北街98号,四川省,成都市,都江堰市,103.6221758,31.00507304
幸福商业城,商务住宅,楼宇,商务写字楼,灌口镇永康巷5号,四川省,成都市,都江堰市,103.6220952,30.9984999
五桂苑,商务住宅,住宅区,住宅小区,陈家巷68号,四川省,成都市,都江堰市,103.621488,30.99972183
玉带苑(玉带新街),商务住宅,住宅区,住宅小区,灌口镇玉带新街79号,四川省,成都市,都江堰市,103.6241089,30.99897843
外北街20号小区,商务住宅,住宅区,住宅小区,外北街20号,四川省,成都市,都江堰市,103.6205832,31.00424715
银海花园2期,商务住宅,住宅区,住宅小区,玉带新街81号,四川省,成都市,都江堰市,103.6236936,30.99892692
外北街120号院,商务住宅,住宅区,住宅小区,灌口镇外北街120号,四川省,成都市,都江堰市,103.6227908,31.00537421
都江堰市水务局北外街家属区,商务住宅,住宅区,住宅小区,灌口镇漫花巷16,四川省,成都市,都江堰市,103.6218263,31.0045647
外北街25号院,商务住宅,住宅区,住宅小区,灌口镇外北街25号,四川省,成都市,都江堰市,103.6206271,31.00464888
外北街23号院,商务住宅,住宅区,住宅小区,外北街23号,四川省,成都市,都江堰市,103.6205513,31.00461397
外北街156号院,商务住宅,住宅区,住宅小区,外北街156号,四川省,成都市,都江堰市,103.6233,31.00567948
大观街157号院,商务住宅,住宅区,住宅小区,大观街157号,四川省,成都市,都江堰市,103.619417,31.0026712
华夏广场小区,商务住宅,住宅区,住宅小区,金玉路52号,四川省,成都市,都江堰市,103.6272726,30.9986519
外北佳苑,商务住宅,住宅区,住宅小区,灌口镇外北街176号,四川省,成都市,都江堰市,103.6237303,31.00589388
怡家新城小区,商务住宅,住宅区,住宅小区,玉带新街54号1,四川省,成都市,都江堰市,103.6244524,30.99850731
柳岸新居,商务住宅,住宅区,住宅小区,柳岸路4号,四川省,成都市,都江堰市,103.6214978,31.00573637
成都信托投资公司都江堰办事处营业大楼,商务住宅,楼宇,商务写字楼,建设路85号,四川省,成都市,都江堰市,103.6219483,30.9996334
陈家巷29号院,商务住宅,住宅区,住宅区,陈家巷29,四川省,成都市,都江堰市,103.620889,30.99941762
碧城苑,商务住宅,住宅区,住宅小区,碧玉巷16号,四川省,成都市,都江堰市,103.6247167,31.00483238
瑞莲街10号院,商务住宅,住宅区,住宅小区,瑞莲街10号,四川省,成都市,都江堰市,103.6190636,31.00163813
柳河巷35号院,商务住宅,住宅区,住宅小区,柳河巷35,四川省,成都市,都江堰市,103.6191294,31.00306125
瑞莲巷7号院,商务住宅,住宅区,住宅小区,瑞莲巷7号,四川省,成都市,都江堰市,103.6189547,31.00207798
瑞莲街113号院,商务住宅,住宅区,住宅小区,瑞莲街113号,四川省,成都市,都江堰市,103.6188568,31.00247585
外北街206号院,商务住宅,住宅区,住宅小区,外北街206号,四川省,成都市,都江堰市,103.6241586,31.00609429
曾家巷47号院,商务住宅,住宅区,住宅小区,曾家巷47号,四川省,成都市,都江堰市,103.6198156,30.99969153
都江堰市交通局家属区,商务住宅,住宅区,住宅小区,蒲阳河南路上段33号附近,四川省,成都市,都江堰市,103.6269531,30.99945383
大观街91号院,商务住宅,住宅区,住宅小区,大观街91号,四川省,成都市,都江堰市,103.6189637,31.00097761
蒲阳路社区红庙巷97号院,商务住宅,住宅区,住宅小区,红庙巷97号,四川省,成都市,都江堰市,103.6252997,31.00574019
北街59号院,商务住宅,住宅区,住宅小区,灌口镇北街59号,四川省,成都市,都江堰市,103.6186701,31.00307468
水巷子35号院,商务住宅,住宅区,住宅小区,水巷子35号,四川省,成都市,都江堰市,103.618803,31.00065394
华夏水岸公园,商务住宅,住宅区,住宅区,蒲阳河南路上段与金玉路交叉口东100米,四川省,成都市,都江堰市,103.6267335,30.99891341
都江堰佳苑学生公寓,商务住宅,住宅区,宿舍,灌口镇外北街56号,四川省,成都市,都江堰市,103.6210266,31.00436863
柳岸路2号院,商务住宅,住宅区,住宅区,柳岸路2号,四川省,成都市,都江堰市,103.6212971,31.00496102
怡景雅苑(蒲阳路),商务住宅,住宅区,住宅小区,蒲阳路335附4号,四川省,成都市,都江堰市,103.6280539,31.005499
佳瑞苑,商务住宅,住宅区,住宅小区,瑞莲街瑞莲巷6号,四川省,成都市,都江堰市,103.6189907,31.00166818
蒲阳路335号院,商务住宅,住宅区,住宅小区,蒲阳路335附6号,四川省,成都市,都江堰市,103.6278593,31.00577808
幸福路小区,商务住宅,住宅区,住宅小区,外北街190号,四川省,成都市,都江堰市,103.6242095,31.00538863
建委家属区,商务住宅,住宅区,住宅区,外北街23号,四川省,成都市,都江堰市,103.6198305,31.0016264
成都怡家小院独栋别墅,商务住宅,住宅区,住宅区,五桂桥街与杨柳河街交界处锦宴楼三楼幸福路华光商城,四川省,成都市,都江堰市,103.619494,31.0004574
交通银行家属区,商务住宅,住宅区,住宅小区,蒲阳路335附12号,四川省,成都市,都江堰市,103.6277175,31.00633294
都江堰市幸福路派出所原址扩建附属功能用房,商务住宅,楼宇,商务写字楼,曾家巷25号,四川省,成都市,都江堰市,103.6196867,30.99951076
乡镇企业局重建家属区,商务住宅,商务住宅相关,商务住宅相关,玉带新街188-附3号附近,四川省,成都市,都江堰市,103.6267753,31.00110809
水利管理局第二家属区,商务住宅,住宅区,住宅区,瑞莲巷与瑞莲街交叉口北50米,四川省,成都市,都江堰市,103.6185133,31.00220832
五桂桥搬迁房,商务住宅,住宅区,住宅区,幸福路88-附25号附近,四川省,成都市,都江堰市,103.6193732,30.99979589
灌口镇柳河社区李家花园家属区,商务住宅,住宅区,住宅区,五桂桥街49号附1号,四川省,成都市,都江堰市,103.6209109,30.99982336
灌口镇柳河社区五桂新居家属区,商务住宅,住宅区,住宅区,灌口镇五桂桥,四川省,成都市,都江堰市,103.6212155,30.99981006
蒲阳路283号附1号,商务住宅,商务住宅相关,商务住宅相关,平义二巷与蒲阳路交叉口西北50米,四川省,成都市,都江堰市,103.6272664,31.00455052
蒲阳路245号附2号,商务住宅,商务住宅相关,商务住宅相关,蒲阳路245附2号1附近,四川省,成都市,都江堰市,103.6269379,31.00457091
教育局家属区,商务住宅,住宅区,住宅区,建设路371号,四川省,成都市,都江堰市,103.6191303,31.00478426
星河园,商务住宅,商务住宅相关,商务住宅相关,建设路41号附近,四川省,成都市,都江堰市,103.6214451,30.99886936
同发苑(平义二巷),商务住宅,住宅区,住宅小区,平义二巷3号,四川省,成都市,都江堰市,103.6272214,31.00445363
逸苑,商务住宅,住宅区,住宅小区,陈家巷29,四川省,成都市,都江堰市,103.6209888,30.99931158
上基地宿舍,商务住宅,住宅区,宿舍,蒲阳路166号,四川省,成都市,都江堰市,103.6267533,31.0032269
灌口街道紫东社区文化活动室,商务住宅,住宅区,社区中心,玉带新街188-附3号附近,四川省,成都市,都江堰市,103.6265278,31.00086953
水景坊,商务住宅,商务住宅相关,商务住宅相关,宝瓶下街33号,四川省,成都市,都江堰市,103.6185454,30.99846044
宅里居homestay公寓,商务住宅,商务住宅相关,商务住宅相关,宝瓶口下街40号,四川省,成都市,都江堰市,103.6184615,30.99858345
阿林灌县经销部宿舍,商务住宅,住宅区,宿舍,碧玉巷14,四川省,成都市,都江堰市,103.625152,31.00442411
四川农业大学都江堰校区-学生公寓,商务住宅,住宅区,宿舍,柳岩路与柳岸路交叉口西南200米,四川省,成都市,都江堰市,103.6208677,31.00665049
龙腾公寓,商务住宅,住宅区,住宅小区,紫荆巷2号1幢,四川省,成都市,都江堰市,103.6358044,30.99955985
国税局家属院,商务住宅,住宅区,住宅小区,观景路416号,四川省,成都市,都江堰市,103.6328343,30.99951213
紫荆公寓(牡丹巷),商务住宅,住宅区,住宅小区,紫荆巷8号,四川省,成都市,都江堰市,103.6374271,31.00054987
观景苑(学府路一段),商务住宅,住宅区,住宅小区,观景路418号,四川省,成都市,都江堰市,103.6325558,31.00016514
解放社区,商务住宅,住宅区,住宅小区,学府路141号,四川省,成都市,都江堰市,103.6363882,30.99946705
岷江华庭,商务住宅,住宅区,住宅小区,灌口镇观景路483号,四川省,成都市,都江堰市,103.6312513,31.00027485
梧桐苑(杜鹃巷),商务住宅,住宅区,住宅小区,杜鹃巷47号,四川省,成都市,都江堰市,103.6328712,31.00075336
黄龙花园,商务住宅,住宅区,住宅小区,光明街281号,四川省,成都市,都江堰市,103.6372855,30.99770871
汶川教育局家属区,商务住宅,住宅区,住宅小区,建兴路19号,四川省,成都市,都江堰市,103.6340507,31.00427069
岷山馨苑,商务住宅,住宅区,住宅小区,观景路中段322号,四川省,成都市,都江堰市,103.6326607,30.99767243
青城山家属院,商务住宅,住宅区,住宅小区,建兴路3号1栋,四川省,成都市,都江堰市,103.6337683,31.00403922
水郡别墅,商务住宅,住宅区,别墅,蒲阳河南路82号21,四川省,成都市,都江堰市,103.6381264,31.00482135
灌口镇建兴社区建设小区,商务住宅,住宅区,住宅小区,观景路523号,四川省,成都市,都江堰市,103.6310126,31.00269578
佳美公寓,商务住宅,住宅区,住宅小区,兴盛街339号,四川省,成都市,都江堰市,103.6296841,31.00325621
都江堰市聚资园,商务住宅,住宅区,住宅小区,杜鹃巷64号,四川省,成都市,都江堰市,103.6342734,31.00080436
都煤家属院,商务住宅,住宅区,住宅小区,学府路69号,四川省,成都市,都江堰市,103.6336238,30.99962096
宝瓶公寓,商务住宅,住宅区,住宅小区,兴盛街371号,四川省,成都市,都江堰市,103.6306603,31.0033179
茶厂家属区,商务住宅,住宅区,住宅小区,观景路421号,四川省,成都市,都江堰市,103.6316775,30.99952771
龙胜花园,商务住宅,住宅区,住宅小区,茶树巷96号,四川省,成都市,都江堰市,103.6380658,30.99787843
静苑(学府路),商务住宅,住宅区,住宅小区,灌口镇学府路171号,四川省,成都市,都江堰市,103.6369501,30.99979902
茶厂综合楼,商务住宅,住宅区,住宅小区,灌口镇观景路423号,四川省,成都市,都江堰市,103.6316076,30.99982263
建兴公寓(蒲阳路),商务住宅,住宅区,住宅小区,观景路597号,四川省,成都市,都江堰市,103.6303378,31.00441569
佳美景园,商务住宅,住宅区,住宅小区,牡丹巷1号,四川省,成都市,都江堰市,103.6367065,31.00143744
水芙蓉小区,商务住宅,住宅区,住宅小区,学府路127号附近,四川省,成都市,都江堰市,103.6348873,30.99923338
学府路59号院,商务住宅,住宅区,住宅小区,学府路59号,四川省,成都市,都江堰市,103.6334551,30.99884864
正泰综合楼,商务住宅,住宅区,住宅小区,灌口镇观景路388号,四川省,成都市,都江堰市,103.6325978,30.99870892
阿坝州农行都江堰住宅花苑,商务住宅,住宅区,住宅小区,灌口镇金桂巷48号,四川省,成都市,都江堰市,103.6354032,31.00108856
古堰雅居,商务住宅,住宅区,住宅小区,灌口镇建兴路44号(宝瓶花园内),四川省,成都市,都江堰市,103.6362583,31.0045913
建兴社区环保局家属区,商务住宅,住宅区,住宅小区,灌口镇兴盛街222号,四川省,成都市,都江堰市,103.6290483,31.00215167
合作社家属院,商务住宅,住宅区,住宅小区,观景路585号,四川省,成都市,都江堰市,103.6303688,31.00425374
人保公司家属区,商务住宅,住宅区,住宅小区,灌口镇兴盛街299号,四川省,成都市,都江堰市,103.6290493,31.00271834
堰锦新居,商务住宅,住宅区,住宅小区,207号学府路104号,四川省,成都市,都江堰市,103.6345919,30.99832832
第二人民医院家属区,商务住宅,住宅区,住宅小区,灌口镇学府路46号,四川省,成都市,都江堰市,103.6334192,30.99803316
下基地小区,商务住宅,住宅区,住宅小区,蒲阳路350号,四川省,成都市,都江堰市,103.6296391,31.00486335
三羊公寓,商务住宅,住宅区,住宅小区,茶厂巷10,四川省,成都市,都江堰市,103.6310048,30.99843924
新城建投,商务住宅,商务住宅相关,商务住宅相关,建兴路24号,四川省,成都市,都江堰市,103.6345717,31.00384019
地毯厂安置小区,商务住宅,住宅区,住宅小区,玉带桥街301号,四川省,成都市,都江堰市,103.6302333,30.99823338
解放大院,商务住宅,住宅区,住宅小区,灌口镇学府路190号,四川省,成都市,都江堰市,103.636998,30.99870557
灌口镇建兴社区审计局家属区,商务住宅,住宅区,住宅小区,兴盛街216号,四川省,成都市,都江堰市,103.6286161,31.0020013
紫薇苑(紫薇巷),商务住宅,住宅区,住宅小区,紫薇巷43号,四川省,成都市,都江堰市,103.6351748,30.99735704
玲珑居,商务住宅,住宅区,住宅小区,蒲阳路与观景路二段交叉口西北50米,四川省,成都市,都江堰市,103.6298037,31.0061494
招商局家属区,商务住宅,住宅区,住宅小区,灌口镇建兴路5号,四川省,成都市,都江堰市,103.6333251,31.00443162
电管所家属区,商务住宅,住宅区,住宅区,蒲阳镇观景路618号,四川省,成都市,都江堰市,103.6310285,31.00510238
和睦家园,商务住宅,住宅区,住宅小区,玉带桥街318号,四川省,成都市,都江堰市,103.630926,30.99754586
鸿园大楼,商务住宅,楼宇,商务写字楼,蒲阳路416号,四川省,成都市,都江堰市,103.6309027,31.00565223
四川省建六公司家属区,商务住宅,住宅区,住宅小区,玉带桥街97号,四川省,成都市,都江堰市,103.6291353,30.99809588
学府路46号院,商务住宅,住宅区,住宅区,学府路46号,四川省,成都市,都江堰市,103.6328503,30.9981259
交通局家属院,商务住宅,商务住宅相关,商务住宅相关,观景路583号,四川省,成都市,都江堰市,103.6309337,31.00380525
金桔巷79号院,商务住宅,住宅区,住宅区,金桔巷79号,四川省,成都市,都江堰市,103.6357236,30.99828471
紫薇巷32号院,商务住宅,住宅区,住宅区,紫薇巷32号,四川省,成都市,都江堰市,103.6339532,30.99771859
都江堰市卫生局家属区,商务住宅,住宅区,住宅小区,紫薇巷32号,四川省,成都市,都江堰市,103.6339762,30.99751267
都江堰市司法局家属区住宅楼,商务住宅,住宅区,住宅小区,玉带桥街103号,四川省,成都市,都江堰市,103.6296903,30.99807218
梦圆,商务住宅,住宅区,住宅小区,幸福镇光明街145号,四川省,成都市,都江堰市,103.6340111,30.99724478
欣星源,商务住宅,住宅区,住宅小区,蒲阳路389号,四川省,成都市,都江堰市,103.6287786,31.00564401
华丽茗居,商务住宅,住宅区,住宅小区,灌口镇学府路195号,四川省,成都市,都江堰市,103.6381695,31.00005403
阳光公寓(紫薇巷),商务住宅,住宅区,住宅小区,灌口镇紫薇巷4号,四川省,成都市,都江堰市,103.634024,30.99814924
宁江大院,商务住宅,住宅区,住宅小区,蒲阳路496号,四川省,成都市,都江堰市,103.6319487,31.00575077
水电十局宝瓶住宅小区,商务住宅,住宅区,住宅小区,建兴路45号附近,四川省,成都市,都江堰市,103.6353631,31.00497339
统计局宿舍,商务住宅,住宅区,宿舍,灌口镇解放小区杜鹃巷27号,四川省,成都市,都江堰市,103.6338064,30.99904503
中兴镇家属区,商务住宅,住宅区,住宅小区,灌口镇兴盛街242号,四川省,成都市,都江堰市,103.6294466,31.00230407
光能苑,商务住宅,住宅区,住宅小区,金家磨巷22,四川省,成都市,都江堰市,103.629266,30.99874634
天字一号,商务住宅,商务住宅相关,商务住宅相关,新生巷与玉带桥街交叉口西50米,四川省,成都市,都江堰市,103.6301454,30.99792067
学府路228号院,商务住宅,商务住宅相关,商务住宅相关,茶树巷39号附近,四川省,成都市,都江堰市,103.6377086,30.99841167
翠苑(玉带桥街),商务住宅,住宅区,住宅小区,灌口镇玉带桥街256号,四川省,成都市,都江堰市,103.6301954,30.99731995
农业银行干休所宿舍,商务住宅,住宅区,宿舍,蒲阳路359号,四川省,成都市,都江堰市,103.6285021,31.00511366
中国人民银行阿坝州中心支行都江堰公寓,商务住宅,住宅区,住宅小区|商务住宅,灌口镇金桔巷79号,四川省,成都市,都江堰市,103.6362166,30.99788121
天和・天逸花园,商务住宅,住宅区,住宅小区,茶树巷1号,四川省,成都市,都江堰市,103.6389779,30.99858962
岭秀都江,商务住宅,住宅区,住宅小区,文荟路107号,四川省,成都市,都江堰市,103.647965,30.99801118
锦水苑,商务住宅,住宅区,住宅小区,光明街438号,四川省,成都市,都江堰市,103.6441886,30.99739194
和谐家园,商务住宅,住宅区,住宅小区,中山北路19号,四川省,成都市,都江堰市,103.6409347,30.99773304
羊叉村村民安置房,商务住宅,住宅区,住宅小区,文荟路366-370附近,四川省,成都市,都江堰市,103.6432705,31.00189088
金都茗苑,商务住宅,住宅区,住宅小区,灌口镇学府路197号,四川省,成都市,都江堰市,103.6386585,30.99994334
学府社区,商务住宅,住宅区,住宅小区,学府路一段与文荟路交叉口东南100米,四川省,成都市,都江堰市,103.645717,31.00034968
儒城春天,商务住宅,住宅区,住宅小区,都江堰二环文荟路332号,四川省,成都市,都江堰市,103.6460243,30.9999404
佳美新居,商务住宅,住宅区,住宅小区,光明街397号,四川省,成都市,都江堰市,103.6400426,30.99865892
欣海国际,商务住宅,住宅区,住宅区,胥家镇文荟路107号岭秀都江3期,四川省,成都市,都江堰市,103.6463477,30.99819985
惠民社区第一居民小组落,商务住宅,住宅区,住宅区,学府路一段北50米,四川省,成都市,都江堰市,103.6475278,31.00170981
锦水1苑,商务住宅,住宅区,住宅小区,文荟路281号,四川省,成都市,都江堰市,103.6454298,30.99843027
河岸苑,商务住宅,住宅区,住宅区,内二环文荟路羊叉村前510米,四川省,成都市,都江堰市,103.6400563,31.00609763
玉林都江,商务住宅,住宅区,住宅小区,都江堰彩虹大道北段重庆路66号,四川省,成都市,都江堰市,103.6546398,31.00572785
康桥水乡,商务住宅,住宅区,住宅小区,学府路中段,四川省,成都市,都江堰市,103.6485633,31.00345401
慧民雅居,商务住宅,住宅区,住宅小区,彩虹大道北段261号,四川省,成都市,都江堰市,103.651661,31.00443098
堰山和畔,商务住宅,住宅区,住宅小区,蒲阳镇彩虹大道北段329号,四川省,成都市,都江堰市,103.6497843,31.00677197
紫坪福园,商务住宅,住宅区,住宅小区,柏条路北路下段95号,四川省,成都市,都江堰市,103.6547008,31.00113437
天源佐岸,商务住宅,住宅区,住宅小区,柏条河北路中段113号,四川省,成都市,都江堰市,103.6515226,30.99917125
高桥鑫玉,商务住宅,住宅区,住宅小区,柏条河北路下段139号附近,四川省,成都市,都江堰市,103.6559458,31.0007693
高桥鑫玉B1小区,商务住宅,住宅区,住宅小区,发展路238号附近,四川省,成都市,都江堰市,103.6561044,31.00098288
高桥鑫玉B1小区西区,商务住宅,住宅区,住宅小区,发展路238号,四川省,成都市,都江堰市,103.6562311,31.00092768
福苑(新颜院东),商务住宅,住宅区,住宅小区,灌口镇学府路康桥水乡A区二栋,四川省,成都市,都江堰市,103.6501157,31.00470057
翰林院(水乡路),商务住宅,住宅区,住宅小区,胥家镇学府路一段康桥水乡25号,四川省,成都市,都江堰市,103.6490233,31.00298348
康乐园(水乡路),商务住宅,住宅区,住宅小区,胥家镇学府路康桥水乡A区,四川省,成都市,都江堰市,103.6494124,31.00364042
高桥鑫玉B1小区东区,商务住宅,住宅区,住宅小区,发展路181号,四川省,成都市,都江堰市,103.6578162,31.00199712
中冶・堰景,商务住宅,住宅区,住宅小区,幸福镇彩虹大道北段348号,四川省,成都市,都江堰市,103.6566093,30.99833047
新颜院,商务住宅,住宅区,住宅小区,水乡路东50米,四川省,成都市,都江堰市,103.6493096,31.00454808
桂花苑(重庆路),商务住宅,住宅区,住宅小区,康桥水乡a区6栋,四川省,成都市,都江堰市,103.6494642,31.00505652
都江华府,商务住宅,住宅区,住宅小区,莲花堰路71号,四川省,成都市,都江堰市,103.6529412,30.99736174
恒园,商务住宅,住宅区,住宅小区,胥家镇学府路康桥水乡A区17栋,四川省,成都市,都江堰市,103.6503432,31.00306311
攀欣花园,商务住宅,住宅区,住宅小区,二环路北段重庆路33号,四川省,成都市,都江堰市,103.6535105,31.00679329
水岸,商务住宅,住宅区,住宅小区|商务住宅,柏条河南路下段附近,四川省,成都市,都江堰市,103.6579988,30.99942226
高桥B1,商务住宅,住宅区,住宅区,都江堰柏条河北路下段179号,四川省,成都市,都江堰市,103.65708,31.00103904
高桥B2,商务住宅,住宅区,住宅区,发展路19-21号附近,四川省,成都市,都江堰市,103.6564144,31.00631125
信园,商务住宅,住宅区,住宅区,学府路一段与水乡路交叉口北200米,四川省,成都市,都江堰市,103.6501267,31.00371212
彩朋苑,商务住宅,住宅区,住宅小区,学府路741号,四川省,成都市,都江堰市,103.6512012,31.00254788
滨江苑(联盟北路),商务住宅,住宅区,住宅小区,联盟北路198号莲花社区,四川省,成都市,都江堰市,103.6511784,30.9973669
高桥河畔,商务住宅,住宅区,住宅小区,胥家镇学府路二段237号,四川省,成都市,都江堰市,103.6637813,31.00339707
阳光西里,商务住宅,住宅区,住宅小区,都江堰学府路二段(光亚学校对面),四川省,成都市,都江堰市,103.6638372,31.0017629
桂花苑(永安大道北一段),商务住宅,住宅区,住宅小区,胥家镇永安大道北一段521号,四川省,成都市,都江堰市,103.6605835,30.99869383
都江堰市公安局综合办公楼,商务住宅,商务住宅相关,商务住宅相关,北灌路北50米,四川省,成都市,都江堰市,103.6653833,31.00301223
高桥B-4,商务住宅,住宅区,住宅区,学府路二段237号,四川省,成都市,都江堰市,103.6639459,31.00375455
高桥B3,商务住宅,住宅区,住宅小区,高桥路95号,四川省,成都市,都江堰市,103.6587956,31.00567718
山水田园,商务住宅,住宅区,住宅小区,灌天路(都江堰2.5环路与灌天路交汇处),四川省,成都市,都江堰市,103.6746211,31.00224697
兰亭别墅,商务住宅,住宅区,别墅,实新村66号,四川省,成都市,都江堰市,103.6734201,31.00321971
实新社区十里小区,商务住宅,住宅区,住宅小区,北灌路525号,四川省,成都市,都江堰市,103.6740984,31.00327538
天赐景观苑,商务住宅,商务住宅相关,商务住宅相关,"灌天路光亚学校下行500米,建国汽车对面",四川省,成都市,都江堰市,103.6685713,31.00213763
实新小区,商务住宅,住宅区,住宅小区,石龙上街,四川省,成都市,都江堰市,103.6879966,31.00063101
胥家镇圣寿村5组41号,商务住宅,商务住宅相关,商务住宅相关,,四川省,成都市,都江堰市,103.75101,31.0012057
水岸名都(滨河北街),商务住宅,住宅区,住宅小区,滨河路67号,四川省,成都市,彭州市,103.9349756,30.99835147
彭州市滨河社区,商务住宅,住宅区,住宅小区,新余北街21号,四川省,成都市,彭州市,103.9285014,30.99819182
龙塔社区活动中心,商务住宅,住宅区,社区中心,延秀街与朝阳北路交叉口西南150米,四川省,成都市,彭州市,103.935239,30.99985819
杜家十组44,商务住宅,商务住宅相关,商务住宅相关,利军路与005乡道交叉口西南50米,四川省,成都市,彭州市,103.9342457,31.00638799
杜家十组11,商务住宅,商务住宅相关,商务住宅相关,利军路与005乡道交叉口西南50米,四川省,成都市,彭州市,103.9342457,31.00638799
财信上河新界,商务住宅,住宅区,住宅小区,朝阳北路116号(市公安局旁),四川省,成都市,彭州市,103.9406874,31.00104231
瑞通花园,商务住宅,住宅区,住宅小区,天彭镇朝阳北路159号,四川省,成都市,彭州市,103.9398872,30.99979745
澎洲岛,商务住宅,住宅区,住宅小区,朝阳北路18号(公安局旁),四川省,成都市,彭州市,103.9450043,30.9983837
彭州市公安局警察公寓,商务住宅,住宅区,住宅小区,,四川省,成都市,彭州市,103.9476634,31.00443287
太平洋・彭州岛2期,商务住宅,住宅区,住宅小区,朝阳中路与朝阳北路交叉口东北150米,四川省,成都市,彭州市,103.9458303,30.99788835
龙锦小区,商务住宅,住宅区,住宅小区,龙锦东路54号附近,四川省,成都市,彭州市,103.9391259,30.99875238
信达・御景C区,商务住宅,住宅区,住宅小区,北新路126号,四川省,成都市,彭州市,103.9412383,30.99747536
信达・御景B区,商务住宅,住宅区,住宅小区,北新巷49号,四川省,成都市,彭州市,103.9418818,30.99781998
信达・御景A区,商务住宅,住宅区,住宅小区,天彭镇北新路69号,四川省,成都市,彭州市,103.9423048,30.99830392
民居苑,商务住宅,住宅区,住宅小区,朝阳北路69号,四川省,成都市,彭州市,103.9438422,30.99734756
彭州市氮肥厂综合楼,商务住宅,住宅区,住宅小区,天彭镇朝阳北路69号,四川省,成都市,彭州市,103.9439599,30.99787003
金凯莱公寓,商务住宅,商务住宅相关,商务住宅相关,天彭镇龙兴北巷61号附4号,四川省,成都市,彭州市,103.9405598,30.99729569
中和新城,商务住宅,住宅区,住宅小区,天彭镇泰安北路575号,四川省,成都市,彭州市,103.9543085,31.00259343
美林墅,商务住宅,楼宇,商务写字楼,泰安北路231号附近,四川省,成都市,彭州市,103.9522813,30.99914699
紫光兴城(回龙西路),商务住宅,住宅区,住宅小区,回龙西路216号,四川省,成都市,彭州市,103.9561354,31.00035847
辰兴锦城国际,商务住宅,住宅区,住宅小区,泰安北路777号,四川省,成都市,彭州市,103.9565022,31.00384859
温哥华牡丹花园小区,商务住宅,住宅区,住宅小区,三圣北路西100米,四川省,成都市,彭州市,103.9577147,31.00214668
朋城・远界,商务住宅,住宅区,住宅小区,天彭镇金华西路一段159号(彭州行政中心北侧),四川省,成都市,彭州市,103.955951,30.99746356
天泰・贤庭,商务住宅,住宅区,住宅小区,龙塔路78号,四川省,成都市,彭州市,103.9484885,30.9989523
嘉仁・七里香溪,商务住宅,住宅区,住宅小区,天彭镇北部新城泰安北路219号,四川省,成都市,彭州市,103.9515344,30.99926358
紫光・兴城2期,商务住宅,住宅区,住宅小区,三圣北路35号,四川省,成都市,彭州市,103.9568363,31.00111537
恒昌・贵筑,商务住宅,住宅区,住宅小区,天彭镇三圣路46号,四川省,成都市,彭州市,103.9582563,30.99750404
牡丹名城(建设中),商务住宅,住宅区,住宅小区,回龙东路99号,四川省,成都市,彭州市,103.9649993,30.99967282
温哥华国际广场,商务住宅,楼宇,商务写字楼,三圣北路与石化大道交叉口西150米,四川省,成都市,彭州市,103.9590576,31.00276907
中节能新时代广场,商务住宅,住宅区,住宅小区,回龙西路136号(行政中心后面),四川省,成都市,彭州市,103.9585074,30.99960123
置信逸都・丹郡F区,商务住宅,住宅区,住宅小区,天彭镇回龙西路61号,四川省,成都市,彭州市,103.9604058,30.99750477
吉ME小镇,商务住宅,商务住宅相关,商务住宅相关,回龙东路牡丹名城牡丹金街三楼,四川省,成都市,彭州市,103.9653881,30.99895522
跃进苑,商务住宅,住宅区,住宅小区,调露寺东路229号,四川省,成都市,彭州市,103.9659294,30.99727676
彭州苑住宅区,商务住宅,住宅区,住宅小区,人民中路,四川省,成都市,彭州市,103.9766023,31.00024464
龙锦C区,商务住宅,住宅区,住宅小区,胜利路东50米,四川省,成都市,彭州市,103.9701326,30.99765326
光明安居苑小区,商务住宅,住宅区,住宅小区,胜利路西200米,四川省,成都市,彭州市,103.9683525,30.99712339
光明苑,商务住宅,住宅区,住宅小区,天彭镇光明苑,四川省,成都市,彭州市,103.9683186,30.99711449
鹿鹤苑,商务住宅,住宅区,住宅小区|餐饮服务,鹿鹤苑底商,四川省,成都市,彭州市,104.0314631,30.99905271
书香苑,商务住宅,住宅区,住宅小区,九兴中路164,四川省,成都市,彭州市,104.0348315,30.999354
水岸明珠,商务住宅,住宅区,住宅区,九尺镇太平街118号,四川省,成都市,彭州市,104.0375912,30.99754029
百兴苑,商务住宅,住宅区,住宅小区,梁家院子,四川省,成都市,彭州市,104.1413547,31.00206703
}园振心家园小区,商务住宅,商务住宅相关,商务住宅相关,,四川省,成都市,彭州市,104.1497387,31.0009316
彭州市三界镇振兴家园,商务住宅,商务住宅相关,商务住宅相关,,四川省,成都市,彭州市,104.1496896,31.00133129
青城山韵,商务住宅,楼宇,商务写字楼,水泉村(赵公山风景区),四川省,成都市,都江堰市,103.5814205,30.9891453
青城逸景,商务住宅,住宅区,住宅区,玉堂镇水泉村8组,四川省,成都市,都江堰市,103.5902716,30.99224739
美丽新城,商务住宅,住宅区,住宅小区,公园路69号,四川省,成都市,都江堰市,103.6154477,30.99614048
都之都,商务住宅,住宅区,住宅小区,天乙街141号,四川省,成都市,都江堰市,103.6180133,30.99549964
华峰大厦(康复路),商务住宅,楼宇,商住两用楼宇,天乙街298号,四川省,成都市,都江堰市,103.6167921,30.9913611
映电花园,商务住宅,住宅区,住宅小区,康复路147号,四川省,成都市,都江堰市,103.6129481,30.98896154
新乐苑(新乐巷),商务住宅,住宅区,住宅小区,奎光路新乐巷26号,四川省,成都市,都江堰市,103.6145042,30.9880479
团结大院(团结巷),商务住宅,住宅区,住宅小区,幸福镇天乙街团结巷22号,四川省,成都市,都江堰市,103.616848,30.9935408
亲情小区,商务住宅,住宅区,住宅小区,奎光路25号,四川省,成都市,都江堰市,103.6169799,30.99059638
都机红专街小区,商务住宅,住宅区,住宅小区,三江路与天乙街交叉口西150米,四川省,成都市,都江堰市,103.616007,30.99520556
奎光大楼,商务住宅,住宅区,住宅小区,幸福镇天乙街187号,四川省,成都市,都江堰市,103.6176868,30.99357904
青城山管理局家属区,商务住宅,住宅区,住宅小区,幸福镇江安中路62号,四川省,成都市,都江堰市,103.6177428,30.99282742
市林业局家属区,商务住宅,住宅区,住宅区,康复路38号,四川省,成都市,都江堰市,103.6157615,30.99142794
康复路林业局家属院,商务住宅,住宅区,住宅区,康复路38号,四川省,成都市,都江堰市,103.6157635,30.99145992
映电家属区,商务住宅,住宅区,住宅小区,天乙街163号,四川省,成都市,都江堰市,103.6177228,30.99404174
都江堰管理局第二生活区,商务住宅,住宅区,住宅小区,幸福镇复兴街155号,四川省,成都市,都江堰市,103.6109591,30.99494145
安居苑(奎光东一街),商务住宅,住宅区,住宅小区,奎光东一街3号,四川省,成都市,都江堰市,103.618367,30.99007743
成大都江堰校区住宅小区,商务住宅,住宅区,住宅小区,新乐巷22,四川省,成都市,都江堰市,103.6159614,30.98828058
都江堰市政府家属区,商务住宅,住宅区,住宅区,幸福镇天乙街264号,四川省,成都市,都江堰市,103.6167322,30.99259744
兴泰苑(新乐巷),商务住宅,住宅区,住宅小区,幸福镇奎光路新乐巷34号,四川省,成都市,都江堰市,103.6149487,30.98727799
金桂苑(奎光西上街),商务住宅,住宅区,住宅小区,奎光西上街74号,四川省,成都市,都江堰市,103.61625,30.98744182
都管局小区,商务住宅,住宅区,住宅小区,幸福镇公园路30号,四川省,成都市,都江堰市,103.617492,30.99658448
卫校家属区,商务住宅,住宅区,住宅区,新乐巷22号,四川省,成都市,都江堰市,103.6153072,30.9890177
四川水利职业技术学院学生公寓1幢,商务住宅,住宅区,宿舍,康复路与康复路下街交叉口东北150米,四川省,成都市,都江堰市,103.6127932,30.99166909
兰庭居,商务住宅,商务住宅相关,商务住宅相关,天乙街288-290号附近,四川省,成都市,都江堰市,103.6170518,30.99197852
成勘院,商务住宅,住宅区,住宅小区,奎光路184号,四川省,成都市,都江堰市,103.6180356,30.98765213
四川水利职业技术学院学生公寓3幢,商务住宅,住宅区,宿舍,康复路与康复路下街交叉口东北200米,四川省,成都市,都江堰市,103.6124605,30.99251884
古堰新天地(江安路),商务住宅,住宅区,住宅小区,江安路38号,四川省,成都市,都江堰市,103.6181922,30.99105803
四川水利职业技术学院学生公寓2幢,商务住宅,住宅区,宿舍,康复路与康复路下街交叉口东北100米,四川省,成都市,都江堰市,103.6121739,30.9917105
武建机施大楼,商务住宅,商务住宅相关,商务住宅相关,奎光路与江安路交叉口东北50米,四川省,成都市,都江堰市,103.6175831,30.99139739
奎光路小区,商务住宅,住宅区,住宅小区,奎光西上街与观江街交叉口北100米,四川省,成都市,都江堰市,103.6173086,30.98748888
客运公司宿舍,商务住宅,住宅区,宿舍,奎光路上段,四川省,成都市,都江堰市,103.6166635,30.98788122
新苑(观凤二巷),商务住宅,住宅区,住宅小区,观凤二巷2号,四川省,成都市,都江堰市,103.6264064,30.99215569
幸福公寓(都江堰大道),商务住宅,住宅区,住宅小区,都江堰大道93号,四川省,成都市,都江堰市,103.6271689,30.99508608
满城广场,商务住宅,楼宇,商住两用楼宇,新马路91附近,四川省,成都市,都江堰市,103.6256346,30.99350582
岷江国际,商务住宅,楼宇,商住两用楼宇,都江堰大道2号附1号,四川省,成都市,都江堰市,103.6228371,30.99650425
江安通讯城小区,商务住宅,住宅区,住宅小区,幸福镇走马河街258号,四川省,成都市,都江堰市,103.6227295,30.99119242
水利大厦,商务住宅,楼宇,商务写字楼,天乙街9号,四川省,成都市,都江堰市,103.6188401,30.99625244
卫星家苑,商务住宅,住宅区,住宅小区,灌口镇西川社区走马河街310号,四川省,成都市,都江堰市,103.6236221,30.99067874
新马路73号小区,商务住宅,住宅区,住宅小区,新马路73号,四川省,成都市,都江堰市,103.6251594,30.99303765
同心苑(江安东一街),商务住宅,住宅区,住宅小区,江安东一街58号附近,四川省,成都市,都江堰市,103.6231758,30.99026347
开源大厦(都江堰大道),商务住宅,楼宇,商务写字楼,都江堰大道52-54号,四川省,成都市,都江堰市,103.6278388,30.9939539
天乙街小区,商务住宅,住宅区,住宅小区,西川街108号附近,四川省,成都市,都江堰市,103.6213157,30.99093806
桂苑(观凤二巷),商务住宅,住宅区,住宅小区,观凤二巷4、8号,四川省,成都市,都江堰市,103.6260799,30.99143649
中国十九冶疗养大厦,商务住宅,楼宇,商务写字楼,幸福镇都江堰大道18号,四川省,成都市,都江堰市,103.6259999,30.99486561
检察院家属区,商务住宅,住宅区,住宅小区,幸福镇江安东一街67号,四川省,成都市,都江堰市,103.6235652,30.98984229
江安东一街6号附2号院,商务住宅,住宅区,住宅小区,江安东一街6号附2号,四川省,成都市,都江堰市,103.6221095,30.98997079
都江堰长途传输通信局家属区,商务住宅,住宅区,住宅区,走马河街116号,四川省,成都市,都江堰市,103.6233605,30.99059308
市法院家属区,商务住宅,住宅区,住宅小区,江安中路46号,四川省,成都市,都江堰市,103.6210701,30.99044159
三官桥街51号小区,商务住宅,住宅区,住宅小区,三官桥街51号,四川省,成都市,都江堰市,103.6252562,30.99445172
青旅西川小区,商务住宅,住宅区,住宅小区,幸福镇江安中路62号,四川省,成都市,都江堰市,103.6212198,30.9901626
三官桥街53号小区,商务住宅,住宅区,住宅小区,三官桥街53号,四川省,成都市,都江堰市,103.6251813,30.99454875
成都至都江堰客运铁路支线拆迁安置房重置项目地块2,商务住宅,楼宇,商务写字楼,太平街与江安路交叉口北150米,四川省,成都市,都江堰市,103.6236309,30.99356307
水都新城,商务住宅,住宅区,住宅区,新马路11号(基督教堂对面),四川省,成都市,都江堰市,103.624195,30.99306373
新马路91号院,商务住宅,住宅区,住宅区,新马路91号,四川省,成都市,都江堰市,103.6252453,30.99308952
都江堰仰天广场,商务住宅,楼宇,商务写字楼,三江路与走马河街交叉口东北150米,四川省,成都市,都江堰市,103.6204158,30.99555631
都江堰市军民街100号大院,商务住宅,住宅区,住宅小区,军民街100号,四川省,成都市,都江堰市,103.6195702,30.99262783
银杏新苑(观凤东街),商务住宅,住宅区,住宅小区,幸福镇三官桥下街35号,四川省,成都市,都江堰市,103.6266679,30.99296091
江西街47号院,商务住宅,住宅区,住宅小区,江西街47号,四川省,成都市,都江堰市,103.619767,30.98957839
楠院,商务住宅,住宅区,住宅小区,观凤东街227-229号,四川省,成都市,都江堰市,103.6284229,30.98930984
物资局家属区,商务住宅,住宅区,住宅小区,江安路56号,四川省,成都市,都江堰市,103.6187524,30.99083464
青城山都江堰旅游景区管理局家属区,商务住宅,住宅区,住宅小区,江安中路66号附近,四川省,成都市,都江堰市,103.6211809,30.99000573
观凤村3组,商务住宅,楼宇,商务写字楼,太平街与观凤东街交叉口东北50米,四川省,成都市,都江堰市,103.6281175,30.98904938
红光园,商务住宅,住宅区,住宅小区,幸福镇太平街388号,四川省,成都市,都江堰市,103.6266291,30.98862145
若尔盖养路队职工住宅楼,商务住宅,住宅区,住宅区,江安东一街与走马河街交叉口西南100米,四川省,成都市,都江堰市,103.6234324,30.98989241
幸福镇观凤楼社区,商务住宅,住宅区,住宅小区,观凤东街200号,四川省,成都市,都江堰市,103.6275864,30.9894548
望江公寓(江安河东路上段),商务住宅,住宅区,住宅小区,西川江东街162、345号,四川省,成都市,都江堰市,103.6207167,30.98886486
银海小区,商务住宅,住宅区,住宅小区,江安中一街63号3栋,四川省,成都市,都江堰市,103.6213507,30.98770688
木材厂家属区,商务住宅,住宅区,住宅小区,玉带桥街20号,四川省,成都市,都江堰市,103.6251303,30.99672556
6914工厂家属区,商务住宅,住宅区,住宅小区,奎东巷49号,四川省,成都市,都江堰市,103.6192179,30.98883535
观凤新区・西苑,商务住宅,住宅区,住宅小区,观凤东街100号,四川省,成都市,都江堰市,103.6281194,30.99171684
柏条河西路28号院,商务住宅,住宅区,住宅小区,柏条河西路28号,四川省,成都市,都江堰市,103.6283099,30.99507767
西川花苑,商务住宅,住宅区,住宅小区,江东街347号,四川省,成都市,都江堰市,103.6209124,30.98819505
奎东苑,商务住宅,住宅区,住宅小区,奎光路观江街奎东巷,四川省,成都市,都江堰市,103.6197661,30.98755855
江帆大厦,商务住宅,楼宇,商务写字楼,幸福镇江安路72号,四川省,成都市,都江堰市,103.619063,30.99103423
成都至都江堰客运铁路支线拆迁安置房地块1,商务住宅,住宅区,住宅区,太平街,四川省,成都市,都江堰市,103.6226165,30.99468354
西川军民街五建宿舍,商务住宅,住宅区,宿舍,西川军民街17号,四川省,成都市,都江堰市,103.621004,30.99324405
江安中路附129号,商务住宅,商务住宅相关,商务住宅相关,江安中路160号附近,四川省,成都市,都江堰市,103.6222883,30.98862837
财经大厦,商务住宅,楼宇,商务写字楼,玉带桥与玉带桥街交叉口东南100米,四川省,成都市,都江堰市,103.6244585,30.99628758
鑫桥苑,商务住宅,住宅区,住宅小区,灌口镇江安东四街52号,四川省,成都市,都江堰市,103.6241124,30.98799974
凤凰里小区,商务住宅,住宅区,住宅小区,都江堰太平街446号,四川省,成都市,都江堰市,103.6282633,30.98820968
实强公司-家属区,商务住宅,住宅区,住宅区,奎光东二街与江安河西路上段交叉口西南50米,四川省,成都市,都江堰市,103.6199119,30.98805812
清和苑(观凤东街),商务住宅,住宅区,住宅小区,观凤东街257号,四川省,成都市,都江堰市,103.6283042,30.98904814
凤凰里2期,商务住宅,住宅区,住宅小区,金平巷78号,四川省,成都市,都江堰市,103.6278051,30.9882992
都江堰大道58号商会大厦院落,商务住宅,住宅区,住宅区,幸福镇都江堰大道58号,四川省,成都市,都江堰市,103.628297,30.99381341
四川电力疗养院家属区,商务住宅,住宅区,住宅小区,灌口镇观凤东街52号,四川省,成都市,都江堰市,103.6282051,30.9935077
瑞风苑,商务住宅,住宅区,住宅小区,灌口镇玉带桥街208号,四川省,成都市,都江堰市,103.6282799,30.99669777
都江堰大道56号木机厂单身宿舍院落,商务住宅,住宅区,宿舍,柏条河南路上段与都江堰大道交叉口西南50米,四川省,成都市,都江堰市,103.6280245,30.99397366
灌口街道西川社区活动中心,商务住宅,住宅区,社区中心,江安河东路上段与江安西三街交叉口东北100米,四川省,成都市,都江堰市,103.6217901,30.98741459
幸福街道翔凤桥社区活动中心,商务住宅,住宅区,社区中心,太平街与金平巷交叉口南50米,四川省,成都市,都江堰市,103.6283531,30.98838646
四川省水利电工工程局宿舍,商务住宅,住宅区,宿舍,幸福镇天乙街17号,四川省,成都市,都江堰市,103.6186294,30.99630161
丽水商厦,商务住宅,楼宇,商务写字楼,都江堰大道215附5号附近,四川省,成都市,都江堰市,103.6375681,30.99263521
都鹏花园,商务住宅,住宅区,住宅小区,观景路148号,四川省,成都市,都江堰市,103.6324973,30.99066069
丽水青城,商务住宅,住宅区,住宅小区,都江堰大道219号,四川省,成都市,都江堰市,103.6383664,30.99277091
四合院,商务住宅,住宅区,住宅小区,幸福镇中山路中新巷50号,四川省,成都市,都江堰市,103.6370852,30.98875417
美林花园,商务住宅,住宅区,住宅小区,景环路58号,四川省,成都市,都江堰市,103.6339136,30.99050779
都江堰花园,商务住宅,住宅区,住宅小区,都江堰柏条河西路49号,四川省,成都市,都江堰市,103.6297912,30.99513374
河畔雅居,商务住宅,住宅区,住宅小区,新发北路1号,四川省,成都市,都江堰市,103.6368934,30.99412536
凤凰园(金平巷),商务住宅,住宅区,住宅小区,幸福镇金平巷221,四川省,成都市,都江堰市,103.6288023,30.98763433
和平苑(景环路),商务住宅,住宅区,住宅小区,景环路132号,四川省,成都市,都江堰市,103.635724,30.99050018
天骄大厦(都江堰大道),商务住宅,楼宇,商务写字楼,幸福镇都江堰大道100号,四川省,成都市,都江堰市,103.629921,30.99359745
精文・国际广场,商务住宅,楼宇,商务写字楼,观景路一段43附近,四川省,成都市,都江堰市,103.6319812,30.99240639
钰诚大厦,商务住宅,住宅区,住宅小区,幸福大道柏条河西路125号,四川省,成都市,都江堰市,103.6291883,30.99442393
美佳公寓,商务住宅,住宅区,住宅小区,观凤小区泰东巷74号,四川省,成都市,都江堰市,103.631041,30.99150318
金桥商住楼,商务住宅,楼宇,商住两用楼宇,幸福镇景中路60号,四川省,成都市,都江堰市,103.6345434,30.98857501
都江电力家属区,商务住宅,住宅区,住宅小区,幸福镇都江堰大道122号,四川省,成都市,都江堰市,103.6341231,30.99271122
水印长滩(柏条河北路中段),商务住宅,住宅区,住宅小区,灌怀路1号(柏条河北路中段),四川省,成都市,都江堰市,103.6359852,30.99537999
碧茗苑,商务住宅,住宅区,住宅小区,新发南路130号,四川省,成都市,都江堰市,103.6344985,30.98931165
瑞康花园,商务住宅,住宅区,住宅小区,灌口镇玉带桥街210号,四川省,成都市,都江堰市,103.6292082,30.99694645
长城福苑小区,商务住宅,住宅区,住宅小区,都江堰大道126-附4号附近,四川省,成都市,都江堰市,103.6348516,30.99256726
上景春江,商务住宅,住宅区,住宅区,三官桥下街与观景路一段交叉口西北50米,四川省,成都市,都江堰市,103.6312396,30.99227147
幸福社区化工厂家属院,商务住宅,住宅区,住宅小区,灌口镇新发南路6号,四川省,成都市,都江堰市,103.6353606,30.99214277
观景苑(景环路),商务住宅,住宅区,住宅小区,观景路63号,四川省,成都市,都江堰市,103.6309922,30.9905308
西御阳光,商务住宅,住宅区,住宅小区,申家巷12号,四川省,成都市,都江堰市,103.6364125,30.99151658
荣康公寓,商务住宅,住宅区,住宅小区,太东巷59号,四川省,成都市,都江堰市,103.6302116,30.99116547
电力家属院,商务住宅,住宅区,住宅区,都江堰大道102号附近,四川省,成都市,都江堰市,103.634153,30.99274616
观凤苑,商务住宅,住宅区,住宅小区,幸福镇泰和巷103号,四川省,成都市,都江堰市,103.6288711,30.99002786
荟文苑,商务住宅,住宅区,住宅小区,光明街222号,四川省,成都市,都江堰市,103.6368005,30.99631025
太东巷77号院,商务住宅,住宅区,住宅小区,太东巷77号,四川省,成都市,都江堰市,103.6305,30.99178074
景环路79号院,商务住宅,住宅区,住宅区,景环路79号,四川省,成都市,都江堰市,103.634189,30.99126496
思源居,商务住宅,住宅区,住宅小区,金桔巷135号,四川省,成都市,都江堰市,103.6360391,30.99619644
四川三羊大厦,商务住宅,楼宇,商务写字楼,幸福镇观景路,四川省,成都市,都江堰市,103.6312078,30.98957607
太东巷62号院,商务住宅,住宅区,住宅小区,太东巷62号,四川省,成都市,都江堰市,103.6306927,30.99098894
紫兰阁,商务住宅,商务住宅相关,商务住宅相关,景凤街1-7号,四川省,成都市,都江堰市,103.6336231,30.99100192
人大家属区,商务住宅,住宅区,住宅区,幸福镇景环路79号,四川省,成都市,都江堰市,103.6341031,30.99146697
龙池电厂家属院,商务住宅,住宅区,住宅小区,太东巷58号,四川省,成都市,都江堰市,103.630562,30.99056236
景环路89号院,商务住宅,住宅区,住宅区,景环路89号,四川省,成都市,都江堰市,103.6350523,30.99114679
阳光新城(景中路),商务住宅,住宅区,住宅小区,景中路45号,四川省,成都市,都江堰市,103.6338238,30.98950949
新发南路6号院,商务住宅,住宅区,住宅区,新发南路6号,四川省,成都市,都江堰市,103.6354255,30.99186983
国太园,商务住宅,住宅区,住宅小区,太东巷39号,四川省,成都市,都江堰市,103.6300889,30.99049902
和光上苑,商务住宅,住宅区,住宅小区,景凤街35号,四川省,成都市,都江堰市,103.6335832,30.99059921
石羊政府家属院,商务住宅,住宅区,住宅小区,太东巷55号,四川省,成都市,都江堰市,103.6297634,30.99078828
观凤楼社区职高家属院,商务住宅,住宅区,住宅小区,泰和巷53号,四川省,成都市,都江堰市,103.6303674,30.98991299
技术监督局家属区,商务住宅,住宅区,住宅小区,幸福镇观凤小区太东巷57号,四川省,成都市,都江堰市,103.6295478,30.99082054
华鑫商业广场,商务住宅,楼宇,商务写字楼,光明街与观景路一段交叉口东150米,四川省,成都市,都江堰市,103.6329182,30.99698246
林管局,商务住宅,住宅区,住宅小区,泰和巷76号,四川省,成都市,都江堰市,103.6296187,30.99048464
新发南路37号院,商务住宅,住宅区,住宅区,新发南路37号,四川省,成都市,都江堰市,103.6359105,30.99117852
观凤东街92号院,商务住宅,住宅区,住宅小区,观凤东街92号,四川省,成都市,都江堰市,103.6288401,30.99234557
熊猫花园,商务住宅,住宅区,住宅区,柏条河南路中段百伦酒店后柏条河铺面,四川省,成都市,都江堰市,103.634621,30.99455445
花鸟小区,商务住宅,住宅区,住宅小区,三官桥下街与观凤东街交叉口西北150米,四川省,成都市,都江堰市,103.6285036,30.99313554
成都市政府新市委大楼,商务住宅,楼宇,商务写字楼,104号附21号,四川省,成都市,都江堰市,103.6360293,30.99234467
烟草公司家属区(观凤东街),商务住宅,住宅区,住宅小区,幸福镇观凤东街35号,四川省,成都市,都江堰市,103.629435,30.9930544
地税局家属区院落,商务住宅,住宅区,住宅区,新发北路与柏条河南路中段交叉口西南100米,四川省,成都市,都江堰市,103.6359055,30.99368808
若苑,商务住宅,住宅区,住宅小区,幸福镇太平街太东巷19号,四川省,成都市,都江堰市,103.6292045,30.98901902
观凤新区・东苑,商务住宅,住宅区,住宅小区,观凤东街100号,四川省,成都市,都江堰市,103.6293482,30.9915044
幸龙苑,商务住宅,住宅区,住宅小区,天府巷与新发南路交叉口东100米,四川省,成都市,都江堰市,103.6359844,30.99003307
泰康公寓,商务住宅,住宅区,住宅小区,幸福镇太平街太东巷59号,四川省,成都市,都江堰市,103.6301298,30.99109262
人民医院家属院,商务住宅,住宅区,住宅区,新发南路37号,四川省,成都市,都江堰市,103.6363327,30.9915087
都江堰大道205号附2号院,商务住宅,住宅区,住宅区,都江堰大道205-附2号附近,四川省,成都市,都江堰市,103.6329373,30.99490963
都江堰大道84号新华书店院,商务住宅,住宅区,住宅小区,都江堰大道84号,四川省,成都市,都江堰市,103.6286314,30.99375003
幸福镇联心苑E-35-5重建,商务住宅,住宅区,住宅区,太东巷与泰和巷交叉口东50米,四川省,成都市,都江堰市,103.6306868,30.99015643
钰诚,商务住宅,住宅区,住宅小区,都江堰大道167-15号附近,四川省,成都市,都江堰市,103.6291883,30.99442393
都江森邻・香郡,商务住宅,住宅区,住宅小区,都江堰新发南路110号,四川省,成都市,都江堰市,103.6346282,30.99036385
古堰馨居,商务住宅,住宅区,住宅小区,都江堰大道136-附6号附近,四川省,成都市,都江堰市,103.6383256,30.99143874
幸福社区居民楼院,商务住宅,住宅区,住宅小区,中山路186号,四川省,成都市,都江堰市,103.6367759,30.98730447
观景路280号院,商务住宅,住宅区,住宅区,观景路280号,四川省,成都市,都江堰市,103.6329562,30.99590303
都江堰市九寨运业家属楼,商务住宅,住宅区,住宅小区,幸福镇太平街473号,四川省,成都市,都江堰市,103.6288552,30.98869065
电解锰厂家属区,商务住宅,住宅区,住宅区,幸福镇观凤东街92号,四川省,成都市,都江堰市,103.628853,30.99233456
景申苑,商务住宅,住宅区,住宅小区,申家巷37号,四川省,成都市,都江堰市,103.6375213,30.99063143
都江堰大道191号,商务住宅,商务住宅相关,商务住宅相关,都江堰大道195-附3号附近,四川省,成都市,都江堰市,103.6300148,30.99429293
金桥苑(中山路),商务住宅,住宅区,住宅小区,中山路123号(新阳光百货斜对面),四川省,成都市,都江堰市,103.6382329,30.98760509
解放社区茂盛苑,商务住宅,住宅区,住宅小区,灌口镇光明街金桔巷140号,四川省,成都市,都江堰市,103.6354253,30.99640023
四合大院,商务住宅,住宅区,住宅小区,幸福镇景环路136号,四川省,成都市,都江堰市,103.6380003,30.98973322
宝石花石油花园,商务住宅,住宅区,住宅小区,石油街25号,四川省,成都市,都江堰市,103.6358408,30.98758869
光明街252号院,商务住宅,住宅区,住宅区,光明街252号,四川省,成都市,都江堰市,103.637045,30.99691253
幸福街道观凤楼社区活动中心,商务住宅,住宅区,社区中心,太东巷75号附5,四川省,成都市,都江堰市,103.6304991,30.99156786
百伦国际酒店员工公寓,商务住宅,住宅区,宿舍,灌口镇太平街480号,四川省,成都市,都江堰市,103.6288023,30.98763533
观凤小区玲珑新居,商务住宅,住宅区,住宅小区,观凤小区观凤东街54号,四川省,成都市,都江堰市,103.6284487,30.9926389
堰都新居,商务住宅,住宅区,住宅小区,幸福镇太东巷75号,四川省,成都市,都江堰市,103.6300928,30.99176029
尚居一城,商务住宅,商务住宅相关,商务住宅相关,幸福镇迎宾路华鑫商务酒店旁,四川省,成都市,都江堰市,103.6319405,30.9874433
玉垒・商业中心,商务住宅,商务住宅相关,商务住宅相关,光明街46号,四川省,成都市,都江堰市,103.6327046,30.99707171
马尔康中学都江堰住宅小区,商务住宅,住宅区,住宅小区,景环路189号,四川省,成都市,都江堰市,103.6381869,30.99041454
都江堰市建行宿舍,商务住宅,住宅区,宿舍,泰和巷104号,四川省,成都市,都江堰市,103.6287144,30.99046481
都江明珠,商务住宅,住宅区,住宅小区,莲花南路31号,四川省,成都市,都江堰市,103.6427351,30.98948589
爱心园,商务住宅,住宅区,住宅小区,文荟路与都江堰大道交叉口西北150米,四川省,成都市,都江堰市,103.6445081,30.99165871
平安园,商务住宅,住宅区,住宅小区,幸福镇莲花村四组,四川省,成都市,都江堰市,103.6451706,30.99265703
美都华庭,商务住宅,住宅区,住宅小区,莲花北路76号,四川省,成都市,都江堰市,103.6448073,30.99469546
中山苑,商务住宅,住宅区,住宅小区,中山路1号,四川省,成都市,都江堰市,103.640492,30.99105859
秀水绿园,商务住宅,住宅区,住宅小区,幸福大道中段莲花南路34号,四川省,成都市,都江堰市,103.6416295,30.99060403
水电花园,商务住宅,住宅区,住宅小区,都江堰岷江路2号(岷江国际对面),四川省,成都市,都江堰市,103.6442069,30.98969434
钰诚花园,商务住宅,住宅区,住宅小区,莲花北路18号,四川省,成都市,都江堰市,103.6431671,30.99174888
友爱园,商务住宅,住宅区,住宅小区,莲花北路与莲花堰路交叉口南150米,四川省,成都市,都江堰市,103.6437278,30.9925405
水源地,商务住宅,住宅区,别墅,中山北路23号,四川省,成都市,都江堰市,103.6385309,30.99618869
丽锦花园(岷江路),商务住宅,住宅区,住宅小区,岷江路13号,四川省,成都市,都江堰市,103.6456815,30.98978882
和谐家园西区,商务住宅,住宅区,住宅小区,中山北路19号,四川省,成都市,都江堰市,103.6384701,30.99552217
崇武苑,商务住宅,住宅区,住宅小区,都江堰大道225-附1号附近,四川省,成都市,都江堰市,103.6438276,30.99160687
翡丽岛,商务住宅,住宅区,住宅小区,灌口镇解放小区中山北路28号,四川省,成都市,都江堰市,103.6407582,30.99602431
文荟苑,商务住宅,住宅区,住宅区,莲花北路68号8栋附10号,四川省,成都市,都江堰市,103.6443614,30.99309213
岷江花园,商务住宅,住宅区,住宅小区,都江堰幸福大道中山北路8号,四川省,成都市,都江堰市,103.6415915,30.99358338
佳和花园,商务住宅,住宅区,住宅小区,都江堰安康北路17号(都江堰大道233号附近),四川省,成都市,都江堰市,103.6477837,30.99095855
银杏苑(都江堰大道),商务住宅,住宅区,住宅小区,都江堰大道219号,四川省,成都市,都江堰市,103.6384792,30.99325346
上尚春天,商务住宅,住宅区,住宅小区,岷江路18号,四川省,成都市,都江堰市,103.6426704,30.98802683
和谐苑(莲花北路),商务住宅,住宅区,住宅小区,幸福镇莲花北路68号12栋2单元,四川省,成都市,都江堰市,103.6440191,30.9934415
兰花村,商务住宅,住宅区,住宅小区,莲花南路140号,四川省,成都市,都江堰市,103.6398874,30.98734068
古堰人家,商务住宅,住宅区,住宅小区,景环路270号,四川省,成都市,都江堰市,103.6454302,30.98770244
福临家园(景环路),商务住宅,住宅区,住宅小区,景环路535号,四川省,成都市,都江堰市,103.6481968,30.98792958
桂苑(莲花北路),商务住宅,住宅区,住宅小区,幸福镇连花北路68号8栋,四川省,成都市,都江堰市,103.6442756,30.99301532
紫坪丽景(文荟路),商务住宅,住宅区,住宅小区,幸福镇文荟路16号,四川省,成都市,都江堰市,103.6482275,30.99398904
文瑞苑,商务住宅,住宅区,住宅小区,文荟路2号,四川省,成都市,都江堰市,103.6464078,30.99162153
平顺园,商务住宅,住宅区,住宅小区,幸福大道文荟路莲花北路68号,四川省,成都市,都江堰市,103.6450628,30.99228142
吉祥苑(景环路),商务住宅,住宅区,住宅小区,莲花村六组,四川省,成都市,都江堰市,103.6402944,30.98982561
都江花园,商务住宅,商务住宅相关,商务住宅相关,莲花堰路11号附近,四川省,成都市,都江堰市,103.6478045,30.99487626
堰锦家园,商务住宅,住宅区,住宅小区,光明街278号,四川省,成都市,都江堰市,103.6386966,30.99689003
和谐苑(莲花一街),商务住宅,住宅区,住宅小区,中山路与莲花一街交叉口东南100米,四川省,成都市,都江堰市,103.6395181,30.99045946
幸福生活广场,商务住宅,住宅区,住宅区,幸福大道下段莲花村三、五组,四川省,成都市,都江堰市,103.6475143,30.99033837
中山北路16号院,商务住宅,住宅区,住宅区,中山北路16号,四川省,成都市,都江堰市,103.6403333,30.99220218
兰香苑,商务住宅,住宅区,住宅小区,景环路277号附近,四川省,成都市,都江堰市,103.6393435,30.99005796
赠品区,商务住宅,商务住宅相关,商务住宅相关,莲花南路1号大润发F1,四川省,成都市,都江堰市,103.6426104,30.99060944
都江森邻,商务住宅,住宅区,住宅小区,都江堰新发南路110号,四川省,成都市,都江堰市,103.6393824,30.98907047
江都庭园,商务住宅,住宅区,住宅区,都江堰大道182-184号附近,四川省,成都市,都江堰市,103.6408682,30.99130685
新领地,商务住宅,住宅区,住宅区,中山北路16号,四川省,成都市,都江堰市,103.6404301,30.99195916
观林苑,商务住宅,住宅区,住宅小区,中山路73号都江森邻花园(西北门)附近,四川省,成都市,都江堰市,103.6386759,30.98842294
都江森邻花园,商务住宅,住宅区,住宅小区,景环路188号,四川省,成都市,都江堰市,103.6393764,30.98923339
桂花苑(景环路),商务住宅,住宅区,住宅小区,桂花村1组,四川省,成都市,都江堰市,103.6404441,30.99028711
骏驰苑,商务住宅,住宅区,住宅小区,中山路,四川省,成都市,都江堰市,103.64141,30.98995776
岷江路15号4幢莲-3,商务住宅,住宅区,住宅区,岷江路15-4栋附22号附近,四川省,成都市,都江堰市,103.645521,30.98858778
文荟三园,商务住宅,住宅区,住宅小区,文荟路3号,四川省,成都市,都江堰市,103.6453382,30.99303253
岷江路15号9幢莲-3,商务住宅,住宅区,住宅区,岷江路15号9幢,四川省,成都市,都江堰市,103.6467801,30.98873455
文荟二园,商务住宅,住宅区,住宅小区,文荟路3号莲花九社区,四川省,成都市,都江堰市,103.6454539,30.99341911
星月尚溪河畔,商务住宅,住宅区,住宅小区,都江灌口镇柏条河北路中段59号,四川省,成都市,都江堰市,103.6430292,30.99628649
堰上居,商务住宅,住宅区,住宅小区,景环路272号,四川省,成都市,都江堰市,103.6466694,30.98734554
莲花苑(景环路),商务住宅,住宅区,住宅小区,幸福镇景环路302号,四川省,成都市,都江堰市,103.6478068,30.98729362
中欣苑,商务住宅,住宅区,住宅小区,幸福大道中山路10号,四川省,成都市,都江堰市,103.6387327,30.99072053
幸福盛世,商务住宅,住宅区,住宅区,安康南路与景环路交叉口东南50米,四川省,成都市,都江堰市,103.6475414,30.98756792
文荟一园,商务住宅,住宅区,住宅小区,莲花北路与莲花堰路交叉口东100米,四川省,成都市,都江堰市,103.6457682,30.99392929
景环二院,商务住宅,住宅区,住宅小区,岷江路15-2栋附12号附近,四川省,成都市,都江堰市,103.6452944,30.9890329
景环三院,商务住宅,住宅区,住宅小区,幸福镇岷江路15号,四川省,成都市,都江堰市,103.6451318,30.98861242
景环一院,商务住宅,住宅区,住宅小区,岷江路15-6栋附6号附近,四川省,成都市,都江堰市,103.646359,30.98911206
景环五院,商务住宅,住宅区,住宅小区,安康南路与景环路交叉口西北100米,四川省,成都市,都江堰市,103.6465666,30.9882522
景环四院,商务住宅,住宅区,住宅小区,莲花村3组,四川省,成都市,都江堰市,103.6467142,30.9886707
紫坪锦苑,商务住宅,住宅区,住宅小区,彩虹大道108号,四川省,成都市,都江堰市,103.6561337,30.99226784
建川・丽水青城,商务住宅,住宅区,住宅小区,安康北路北三巷与联盟北路交叉口东南150米,四川省,成都市,都江堰市,103.6525933,30.99268306
紫坪大厦,商务住宅,楼宇,商务写字楼,彩虹大道与兴贤路交叉口东南100米,四川省,成都市,都江堰市,103.6545895,30.9927354
林涧花语,商务住宅,住宅区,住宅小区,都江堰二环路彩虹大道北段120号,四川省,成都市,都江堰市,103.6559531,30.99371034
友谊苑,商务住宅,住宅区,住宅小区,莲花堰路与莲花堰路南一巷交叉口西北100米,四川省,成都市,都江堰市,103.650116,30.99582068
聚福苑,商务住宅,住宅区,住宅小区,联盟北路78号,四川省,成都市,都江堰市,103.6505661,30.99356618
和谐苑,商务住宅,住宅区,住宅小区,莲花六组联盟北路78号,四川省,成都市,都江堰市,103.6513811,30.99315496
都江逸家,商务住宅,住宅区,住宅小区,桂花路199号,四川省,成都市,都江堰市,103.6578314,30.99614246
和谐苑南区,商务住宅,住宅区,住宅小区,联盟北路198号5栋,四川省,成都市,都江堰市,103.6513811,30.99315496
西蜀苑,商务住宅,住宅区,住宅小区,联盟北路20号,四川省,成都市,都江堰市,103.6503377,30.99187255
都江金座,商务住宅,住宅区,住宅小区,彩虹大道北段,四川省,成都市,都江堰市,103.6546283,30.99451931
莲花苑,商务住宅,住宅区,住宅小区,幸福镇联盟北路,四川省,成都市,都江堰市,103.6511257,30.99483445
桂西院,商务住宅,住宅区,住宅小区,桂花路40号附近,四川省,成都市,都江堰市,103.6560319,30.99465765
安康苑,商务住宅,住宅区,住宅小区,莲花社区安康北路88号,四川省,成都市,都江堰市,103.6499914,30.99295654
吉祥苑,商务住宅,住宅区,住宅小区,联盟北路78号-1,四川省,成都市,都江堰市,103.6499714,30.99381009
桂花苑(莲花堰路),商务住宅,住宅区,住宅小区,联盟北路198号,四川省,成都市,都江堰市,103.6510608,30.99608885
鑫庭园,商务住宅,住宅区,住宅小区,莲花村六组,四川省,成都市,都江堰市,103.6510419,30.99409203
团结苑,商务住宅,住宅区,住宅小区,幸福镇莲花村七组,四川省,成都市,都江堰市,103.6514109,30.99692374
和谐苑北区,商务住宅,住宅区,住宅小区,莲花村4组,四川省,成都市,都江堰市,103.6516324,30.99650858
天娇花园,商务住宅,住宅区,住宅小区,都江堰大道下段安康南路1号,四川省,成都市,都江堰市,103.6487974,30.98922279
聚馨苑,商务住宅,住宅区,住宅小区,联盟北路198号,四川省,成都市,都江堰市,103.6518399,30.99611644
世代都江,商务住宅,住宅区,住宅小区,桂花路12号附近,四川省,成都市,都江堰市,103.655562,30.99598875
联盟12苑,商务住宅,住宅区,住宅小区,联盟南路9号-附7,四川省,成都市,都江堰市,103.6520986,30.98796966
桂花新型社区,商务住宅,住宅区,住宅小区,桂花路20号,四川省,成都市,都江堰市,103.6559042,30.99486177
联盟3苑,商务住宅,住宅区,住宅区,联盟南路9号,四川省,成都市,都江堰市,103.6503817,30.9880117
老院子,商务住宅,住宅区,住宅小区,安康北路东四巷与莲花堰路南二巷交叉口北100米,四川省,成都市,都江堰市,103.6511955,30.99490828
友爱苑,商务住宅,住宅区,住宅小区,联盟北路198号,四川省,成都市,都江堰市,103.6507156,30.99665613
桂花路40号院,商务住宅,住宅区,住宅区,桂花路40号,四川省,成都市,都江堰市,103.6561117,30.99481941
莲花6组,商务住宅,住宅区,住宅区,联盟北路78号,四川省,成都市,都江堰市,103.6498737,30.99365835
凯撒豪庭,商务住宅,商务住宅相关,商务住宅相关,联盟北路78号-32栋-附6号,四川省,成都市,都江堰市,103.6517412,30.99399384
顺河苑,商务住宅,住宅区,住宅小区,联盟北路198号33栋,四川省,成都市,都江堰市,103.6497898,30.99657082
金光家园,商务住宅,住宅区,住宅小区,安康南路7号,四川省,成都市,都江堰市,103.6485031,30.98847973
聚宝苑,商务住宅,住宅区,住宅小区,安康北路东四巷与莲花堰路南一巷交叉口西南50米,四川省,成都市,都江堰市,103.6499385,30.99439181
莲花社区7组,商务住宅,住宅区,住宅区,幸福镇联盟北路198号,四川省,成都市,都江堰市,103.6511835,30.99587475
联盟苑,商务住宅,住宅区,住宅区,联盟1巷,四川省,成都市,都江堰市,103.6504036,30.9886423
吉鑫苑,商务住宅,住宅区,住宅小区,安康北路东四巷与莲花堰路南一巷交叉口西北50米,四川省,成都市,都江堰市,103.6501749,30.99501503
政通家园,商务住宅,住宅区,住宅小区,安康北路34号,四川省,成都市,都江堰市,103.649346,30.99140657
联盟6苑,商务住宅,住宅区,住宅区,联盟南路9号,四川省,成都市,都江堰市,103.6512158,30.98760545
联盟8苑,商务住宅,住宅区,住宅区,联盟南路9号,四川省,成都市,都江堰市,103.6509664,30.98715416
阿坝师范学院教师公寓,商务住宅,住宅区,住宅区,景环路537号附近,四川省,成都市,都江堰市,103.6491945,30.98743912
联盟2苑,商务住宅,住宅区,住宅区,联盟南路9号,四川省,成都市,都江堰市,103.6510262,30.98844331
方庭苑,商务住宅,住宅区,住宅小区,联盟北路78号15栋,四川省,成都市,都江堰市,103.6504912,30.9942709
滨河苑(柏条河南路中段),商务住宅,住宅区,住宅小区,联盟北路198号,四川省,成都市,都江堰市,103.6504671,30.99710332
山水天成(莲花堰路),商务住宅,住宅区,住宅小区,胥家镇莲花堰路314号(气象局旁),四川省,成都市,都江堰市,103.6598594,30.99662339
岷江枇杷园,商务住宅,住宅区,住宅小区,永安大道北一段与莲花堰路交叉口南100米,四川省,成都市,都江堰市,103.6609856,30.99574377
正成源筑(建设中),商务住宅,住宅区,住宅小区,善政路东虹路交汇处,四川省,成都市,都江堰市,103.6585318,30.99192258
如逸人家,商务住宅,住宅区,住宅小区,桂花路6号,四川省,成都市,都江堰市,103.6610335,30.99579565
枫宛小区,商务住宅,住宅区,住宅小区,红石桥村,四川省,成都市,彭州市,103.7772585,30.99510373
天泉小区,商务住宅,商务住宅相关,商务住宅相关,彭白路南100米,四川省,成都市,彭州市,103.9175598,30.99314819
滨江家园,商务住宅,住宅区,住宅小区,新康西路166号(近空瓶子kt),四川省,成都市,彭州市,103.9265008,30.99528998
兰桂苑(滨河街),商务住宅,住宅区,住宅小区,天彭镇新余街228号,四川省,成都市,彭州市,103.9250051,30.99353874
西园庄,商务住宅,住宅区,住宅小区,金彭西路476号,四川省,成都市,彭州市,103.9276422,30.99102004
金彭佳园,商务住宅,住宅区,住宅小区,金彭西路522号,四川省,成都市,彭州市,103.9259179,30.99098715
柳河花园西区,商务住宅,住宅区,住宅小区,滨河西路51,四川省,成都市,彭州市,103.926428,30.99418271
梅桂园(滨河街),商务住宅,商务住宅相关,商务住宅相关,天彭镇滨河街33号,四川省,成都市,彭州市,103.9255902,30.99398781
绣城路北段276号院,商务住宅,住宅区,住宅区,绣城路北段276号,四川省,成都市,彭州市,103.9259699,30.98961088
固信花苑,商务住宅,住宅区,住宅小区,金彭西路510号,四川省,成都市,彭州市,103.927137,30.99099168
关电小区,商务住宅,住宅区,住宅小区,绣城路北段270号,四川省,成都市,彭州市,103.9260208,30.98932599
绣城苑,商务住宅,住宅区,住宅区,天彭镇绣城路北段329号,四川省,成都市,彭州市,103.9260897,30.98983861
紫薇园,商务住宅,商务住宅相关,商务住宅相关,繁江北路和金彭西路交叉口南行300米,四川省,成都市,彭州市,103.9255056,30.98788142
新外滩18,商务住宅,商务住宅相关,商务住宅相关,新余北街与新康西路交叉口东50米,四川省,成都市,彭州市,103.9274922,30.99487401
彭州市国税局住宅楼,商务住宅,住宅区,住宅小区,翠湖路76号,四川省,成都市,彭州市,103.9308418,30.98978752
粼江府邸,商务住宅,住宅区,住宅小区,天彭镇体育场西街185号,四川省,成都市,彭州市,103.9308185,30.99607393
中和苑,商务住宅,住宅区,住宅小区,天彭街道办彭州市四通北街36号,四川省,成都市,彭州市,103.9350296,30.99477444
金彭西路242号院,商务住宅,住宅区,住宅区,金彭西路242号,四川省,成都市,彭州市,103.9335736,30.99097787
天然气公司新宿舍,商务住宅,住宅区,宿舍,天彭镇体育场东街138号,四川省,成都市,彭州市,103.9321292,30.99473884
农发局家属院,商务住宅,住宅区,住宅区,金彭西路332号,四川省,成都市,彭州市,103.9314626,30.99091399
西北市街167号院,商务住宅,住宅区,住宅小区,西北市街167号,四川省,成都市,彭州市,103.9348103,30.99008549
体育场西街1号院,商务住宅,住宅区,住宅小区,体育场西街1号,四川省,成都市,彭州市,103.9305881,30.99144791
延秀苑,商务住宅,住宅区,住宅小区,天彭镇延秀街107号,四川省,成都市,彭州市,103.9354518,30.99409917
金穗苑(小北街),商务住宅,住宅区,住宅小区,小北街157号,四川省,成都市,彭州市,103.9358582,30.99056855
永兴巷109号院,商务住宅,住宅区,住宅区,永兴巷109号,四川省,成都市,彭州市,103.9324238,30.99050585
柳河花园,商务住宅,住宅区,住宅小区,体育场西街138号(彭州市审计局北),四川省,成都市,彭州市,103.9285206,30.99419909
彭州市设计院小区,商务住宅,住宅区,住宅小区,体育场西街116号,四川省,成都市,彭州市,103.9295569,30.9932133
体育场东街,商务住宅,住宅区,住宅区,体育场东街130号1栋,四川省,成都市,彭州市,103.9321791,30.99422306
彭州市科技苑,商务住宅,住宅区,住宅小区,四通北街15号,四川省,成都市,彭州市,103.9340995,30.99458399
延秀街27号院,商务住宅,住宅区,住宅区,延秀街27号,四川省,成都市,彭州市,103.9361954,30.99163839
商家小区,商务住宅,住宅区,住宅小区,西北市街82号,四川省,成都市,彭州市,103.9362325,30.98878897
小北街153号院,商务住宅,住宅区,住宅区,小北街153号,四川省,成都市,彭州市,103.9358701,30.99060351
彭州市农机局家属区,商务住宅,住宅区,住宅区,西北市街179号,四川省,成都市,彭州市,103.9351366,30.9903868
延秀街56号院,商务住宅,住宅区,住宅区,延秀街56号,四川省,成都市,彭州市,103.9365926,30.9924173
小北街160号院,商务住宅,住宅区,住宅小区,天彭镇小北街160号,四川省,成都市,彭州市,103.9367294,30.98952774
延秀街20号院,商务住宅,住宅区,住宅区,延秀街20号,四川省,成都市,彭州市,103.9366305,30.99150976
桂花街29号院,商务住宅,住宅区,住宅区,桂花街29号,四川省,成都市,彭州市,103.936894,30.9922479
新康路89号院,商务住宅,住宅区,住宅区,新康路89号,四川省,成都市,彭州市,103.9328269,30.99519755
体育场西街89号院,商务住宅,住宅区,住宅区,体育场西街89号,四川省,成都市,彭州市,103.930065,30.99324059
顺达楼,商务住宅,楼宇,商务写字楼,西北市街与西南市街交叉口北150米,四川省,成都市,彭州市,103.9351667,30.98751241
里仁街172号院,商务住宅,住宅区,住宅区,里仁街172号,四川省,成都市,彭州市,103.9368242,30.99052601
小北街137号院,商务住宅,住宅区,住宅区,小北街137号,四川省,成都市,彭州市,103.9360837,30.99003749
云锦国际大厦,商务住宅,楼宇,商务写字楼,天彭镇金彭西路365号,四川省,成都市,彭州市,103.9309316,30.99032608
延秀街122号院,商务住宅,住宅区,住宅区,天彭镇延秀街122号2栋,四川省,成都市,彭州市,103.9367612,30.99403509
里仁街154号院,商务住宅,住宅区,住宅区,里仁街154号,四川省,成都市,彭州市,103.936891,30.99037298
光明巷28号院,商务住宅,住宅区,住宅小区,光明巷28号,四川省,成都市,彭州市,103.9346477,30.98762516
小北街121号院,商务住宅,住宅区,住宅区,小北街121号,四川省,成都市,彭州市,103.9362374,30.98960349
小北街127号院,商务住宅,住宅区,住宅区,小北街127号,四川省,成都市,彭州市,103.9362115,30.98955357
西北市街101号院,商务住宅,住宅区,住宅区,西北市街101号,四川省,成都市,彭州市,103.9350758,30.98897871
小北街198号院,商务住宅,住宅区,住宅区,小北街198号,四川省,成都市,彭州市,103.9369669,30.99004705
四通北街79号院,商务住宅,住宅区,住宅区,四通北街79号,四川省,成都市,彭州市,103.9343649,30.99569795
利民巷1号院,商务住宅,住宅区,住宅区,利民巷1号,四川省,成都市,彭州市,103.9288551,30.99155318
里仁街114号院,商务住宅,住宅区,住宅区,里仁街114号,四川省,成都市,彭州市,103.9375078,30.99036397
彭州市卫生局-家属区,商务住宅,住宅区,住宅区,小北街160号,四川省,成都市,彭州市,103.9365039,30.98949812
里仁街112号院,商务住宅,住宅区,住宅区,里仁街112号,四川省,成都市,彭州市,103.9376275,30.99039775
里仁街110号院,商务住宅,住宅区,住宅区,里仁街110号,四川省,成都市,彭州市,103.9376155,30.99036379
桂花街77号院,商务住宅,住宅区,住宅区,桂花街77号,四川省,成都市,彭州市,103.937811,30.99276008
月光河谷,商务住宅,商务住宅相关,商务住宅相关,翠湖路与金彭西路交叉口东50米,四川省,成都市,彭州市,103.930685,30.99046035
保险公司家属区,商务住宅,住宅区,住宅区,天彭镇金彭西路410号,四川省,成都市,彭州市,103.9291177,30.99078028
纽约小区,商务住宅,住宅区,住宅小区,小北街与钟楼路交叉口东100米,四川省,成都市,彭州市,103.9374151,30.98772164
民政局家属院,商务住宅,住宅区,住宅区,利民巷与金彭西路交叉口西北50米,四川省,成都市,彭州市,103.9285956,30.99073898
柳河雅居院,商务住宅,住宅区,住宅小区,天彭镇体育场西街127号,四川省,成都市,彭州市,103.9307976,30.99438893
昔缘家园,商务住宅,住宅区,住宅区,翠湖东路116号附近,四川省,成都市,彭州市,103.9325787,30.98775221
牡丹云锦,商务住宅,楼宇,商住两用楼宇,金彭西路357号,四川省,成都市,彭州市,103.9309376,30.99014018
彭州市建筑设计院家属区,商务住宅,住宅区,住宅小区,体育场西街与新余街交叉口西南100米,四川省,成都市,彭州市,103.9296677,30.99321615
水润尚居,商务住宅,住宅区,住宅小区,四通北街龙锦路88号,四川省,成都市,彭州市,103.9351004,30.99695508
畜牧局家属区,商务住宅,住宅区,住宅区,天彭镇广场西街47号,四川省,成都市,彭州市,103.9372254,30.98835859
翠湖路2号大院,商务住宅,住宅区,住宅小区,天彭镇翠湖路24号,四川省,成都市,彭州市,103.9311542,30.98920441
钟楼路41号院,商务住宅,住宅区,住宅区,钟楼路41号,四川省,成都市,彭州市,103.9382263,30.98822899
城市花园,商务住宅,住宅区,住宅小区,翠湖东路45号,四川省,成都市,彭州市,103.9335758,30.98757682
西北市街77号院,商务住宅,商务住宅相关,商务住宅相关,西北市街77号,四川省,成都市,彭州市,103.9351417,30.98785425
彭州市司法局宿舍区,商务住宅,住宅区,宿舍,天彭镇体育场东街169、189号,四川省,成都市,彭州市,103.9328618,30.9955553
小北街40号院,商务住宅,商务住宅相关,商务住宅相关,小北街40号,四川省,成都市,彭州市,103.9365609,30.98732728
中国银行彭州支行公寓,商务住宅,住宅区,宿舍,天彭镇钟楼路55号,四川省,成都市,彭州市,103.9380407,30.9882383
四川省地方铁路局彭州分局住宅楼,商务住宅,住宅区,宿舍,四通北街56号,四川省,成都市,彭州市,103.9350395,30.99657439
天泰花园,商务住宅,住宅区,住宅小区,花园路56号,四川省,成都市,彭州市,103.947618,30.99328537
广院,商务住宅,住宅区,住宅小区,东升路59号,四川省,成都市,彭州市,103.9469768,30.9897957
书香居,商务住宅,住宅区,住宅小区,团结巷8号,四川省,成都市,彭州市,103.9445057,30.99357944
凤鸣苑,商务住宅,住宅区,住宅小区,天彭镇东湖路14号,四川省,成都市,彭州市,103.9470715,30.99048311
天泰苑,商务住宅,住宅区,住宅小区,天彭镇上升街109号,四川省,成都市,彭州市,103.9427421,30.99018977
百丽苑,商务住宅,住宅区,住宅小区,红照壁北街5号,四川省,成都市,彭州市,103.9441068,30.99155938
花簇锦绣,商务住宅,住宅区,住宅小区,北新路2号(职业教育中心对面),四川省,成都市,彭州市,103.943073,30.99662344
天和苑,商务住宅,住宅区,住宅小区,花园路114号,四川省,成都市,彭州市,103.9467003,30.99436063
碧城豪庭,商务住宅,住宅区,住宅小区,天彭镇团结街团结巷27号,四川省,成都市,彭州市,103.9441945,30.99415372
紫丹阁(铧炉街),商务住宅,住宅区,住宅小区,天彭镇铧炉街19号,四川省,成都市,彭州市,103.9420187,30.9923069
团结小苑,商务住宅,住宅区,住宅小区,天彭镇团结街120号,四川省,成都市,彭州市,103.942725,30.99326203
铧炉景园,商务住宅,住宅区,住宅小区,团结街与龙兴北路交汇处,四川省,成都市,彭州市,103.943577,30.99336836
鸿运楼,商务住宅,住宅区,住宅区,天彭镇金彭中路74号,四川省,成都市,彭州市,103.9429964,30.99137261
跃煤小区,商务住宅,住宅区,住宅小区,团结街246号,四川省,成都市,彭州市,103.9449067,30.99522072
天彭苑,商务住宅,住宅区,住宅小区,泰安路9号,四川省,成都市,彭州市,103.94521,30.99363203
锦绣尚城,商务住宅,住宅区,住宅小区,东湖路65号,四川省,成都市,彭州市,103.9483123,30.9902107
团结街149号院,商务住宅,住宅区,住宅小区,团结街149号,四川省,成都市,彭州市,103.9426571,30.99446747
团结街164号院,商务住宅,住宅区,住宅区,团结街164号,四川省,成都市,彭州市,103.9430612,30.99372014
天彭镇金彭中路社区,商务住宅,住宅区,住宅小区,金彭中路102号,四川省,成都市,彭州市,103.9437137,30.99146119
兰苑小区(花园路),商务住宅,住宅区,住宅小区,天彭镇金彭中路280号,四川省,成都市,彭州市,103.9466764,30.99176018
团结街159号院,商务住宅,住宅区,住宅小区,天彭镇团结街159号,四川省,成都市,彭州市,103.9432746,30.99505296
彭州市龙兴园丁苑,商务住宅,住宅区,住宅小区,晋原镇龙兴北街49号,四川省,成都市,彭州市,103.9415407,30.99329421
上升街29号院,商务住宅,住宅区,住宅小区,上升街29号,四川省,成都市,彭州市,103.9410899,30.98972309
东北市街119号院,商务住宅,住宅区,住宅小区,东北市街119号,四川省,成都市,彭州市,103.9422134,30.98911438
龙兴南街12号院,商务住宅,住宅区,住宅小区,龙兴南街12号,四川省,成都市,彭州市,103.9393307,30.99285642
上升街62号院,商务住宅,住宅区,住宅小区,上升街62号,四川省,成都市,彭州市,103.9416267,30.98890658
东北市街136号小区,商务住宅,住宅区,住宅小区,东北市街136号,四川省,成都市,彭州市,103.9421385,30.990008
东北市街134号小区,商务住宅,住宅区,住宅小区,东北市街134号,四川省,成都市,彭州市,103.9423081,30.98983978
许家巷37号院,商务住宅,住宅区,住宅小区,许家巷37号,四川省,成都市,彭州市,103.9414661,30.98855808
上升街19号小区,商务住宅,住宅区,住宅小区,上升街与北大街交叉口东100米,四川省,成都市,彭州市,103.9407777,30.98933288
天泰玲珑居南园,商务住宅,住宅区,住宅小区,天彭镇团结巷37号,四川省,成都市,彭州市,103.9441865,30.99446255
金彭中路115号大院,商务住宅,商务住宅相关,商务住宅相关,上升街与金彭中路交叉口南50米,四川省,成都市,彭州市,103.9435641,30.99084683
东北市街169号小区,商务住宅,住宅区,住宅小区,上升街与东北市街交叉口西北100米,四川省,成都市,彭州市,103.9414092,30.98993139
济生小区,商务住宅,住宅区,住宅小区,许家巷80号,四川省,成都市,彭州市,103.9427472,30.98800102
天泰玲珑居北园,商务住宅,住宅区,住宅小区,天彭镇花园路116号,四川省,成都市,彭州市,103.9456798,30.99437567
八二八大院,商务住宅,住宅区,住宅小区,鑫盛巷7号,四川省,成都市,彭州市,103.939254,30.98994923
成都市人民检察院职工住宅,商务住宅,住宅区,住宅小区,金彭中路285号附近,四川省,成都市,彭州市,103.9468131,30.99066453
北大街187号院,商务住宅,住宅区,住宅区,北大街187号,四川省,成都市,彭州市,103.9398926,30.99055476
东北市街67号院,商务住宅,住宅区,住宅小区,东北市街67号,四川省,成都市,彭州市,103.9429008,30.98758197
里仁街6号院,商务住宅,住宅区,住宅区,里仁街6号,四川省,成都市,彭州市,103.9398677,30.99026996
洪安苑,商务住宅,住宅区,住宅小区,天彭镇金彭中路189号,四川省,成都市,彭州市,103.9443742,30.99076632
上升街98号小区,商务住宅,住宅区,住宅小区,上升街98号,四川省,成都市,彭州市,103.9429606,30.98950675
团结街312号院,商务住宅,住宅区,住宅区,团结街312号,四川省,成都市,彭州市,103.9450802,30.99598893
北大街131号院,商务住宅,住宅区,住宅区,北大街131号,四川省,成都市,彭州市,103.9396262,30.98939889
里仁街22号院,商务住宅,住宅区,住宅区,里仁街22号,四川省,成都市,彭州市,103.939234,30.99025608
里仁街24号小区,商务住宅,住宅区,住宅小区,里仁街24号,四川省,成都市,彭州市,103.9392331,30.99025609
济安商务楼(朝阳中路),商务住宅,楼宇,商务写字楼,朝阳中路381-387号,四川省,成都市,彭州市,103.9465456,30.99569618
兴苑・幸福人家,商务住宅,住宅区,住宅小区,,四川省,成都市,彭州市,103.9437737,30.98863371
金彭西路69号院,商务住宅,住宅区,住宅区,金彭西路69号,四川省,成都市,彭州市,103.9384946,30.99074308
里仁街55号院,商务住宅,住宅区,住宅区,里仁街55号,四川省,成都市,彭州市,103.9385745,30.99007333
北大街115号院,商务住宅,住宅区,住宅区,北大街115号,四川省,成都市,彭州市,103.9399785,30.98891455
城南兴苑,商务住宅,住宅区,住宅区,天彭镇东北市街20号,四川省,成都市,彭州市,103.9438366,30.98741429
北大街160附2号,商务住宅,商务住宅相关,商务住宅相关,北大街与里仁街交叉口东南50米,四川省,成都市,彭州市,103.9404723,30.98995807
彭州市星星小区,商务住宅,住宅区,住宅小区,东北市街与许家巷交叉口东50米,四川省,成都市,彭州市,103.9432161,30.98813306
北大街69号院,商务住宅,住宅区,住宅区,北大街69号,四川省,成都市,彭州市,103.9399775,30.98765927
龙塔社区,商务住宅,住宅区,住宅小区,团结街与龙塔西一巷交叉口东50米,四川省,成都市,彭州市,103.9450503,30.99604996
北大街29号院,商务住宅,住宅区,住宅区,北大街29号,四川省,成都市,彭州市,103.9399686,30.98716558
钟楼路44号院,商务住宅,住宅区,住宅区,钟楼路44号,四川省,成都市,彭州市,103.9393719,30.98736451
花触景秀,商务住宅,商务住宅相关,商务住宅相关,天彭镇北新路2号,四川省,成都市,彭州市,103.9427997,30.99624518
中国工商银行彭州市支行宿舍,商务住宅,住宅区,宿舍,金彭中路102号,四川省,成都市,彭州市,103.9435391,30.99200421
彭州市东湖园丁苑,商务住宅,住宅区,住宅小区,红照壁南街97号,四川省,成都市,彭州市,103.9456801,30.98781945
福林楼,商务住宅,商务住宅相关,商务住宅相关,龙塔东五巷8,四川省,成都市,彭州市,103.9466972,30.99555295
彭一中教工宿舍,商务住宅,住宅区,宿舍,天彭镇龙兴北街55号,四川省,成都市,彭州市,103.9400072,30.99443832
舜苑国色天香,商务住宅,住宅区,住宅小区,牡丹北路103号,四川省,成都市,彭州市,103.951375,30.99515129
顺风港,商务住宅,住宅区,住宅小区,金彭东路33号,四川省,成都市,彭州市,103.9534843,30.99144372
N华台,商务住宅,住宅区,住宅小区,朝阳中路366号,四川省,成都市,彭州市,103.9509283,30.99269669
缤纷四季,商务住宅,住宅区,住宅小区,天彭镇金彭中路381号,四川省,成都市,彭州市,103.9496169,30.99001306
兰庭丽景,商务住宅,住宅区,住宅小区,牡丹北路162号(彭州政府旁),四川省,成都市,彭州市,103.9531322,30.99291267
金盆花园,商务住宅,住宅区,住宅小区,金彭中路284号,四川省,成都市,彭州市,103.9487162,30.99177196
逸都中心,商务住宅,楼宇,商务写字楼,金彭东路122号置信・逸都城F1层,四川省,成都市,彭州市,103.9546162,30.98998098
华融小区,商务住宅,住宅区,住宅小区,金彭东路31号,四川省,成都市,彭州市,103.9523844,30.99137024
航利・星海湾,商务住宅,住宅区,住宅小区,朝阳东巷63号,四川省,成都市,彭州市,103.9527325,30.98930765
置信逸都・丹郡C区,商务住宅,住宅区,住宅小区,天彭镇东湖北街118号置信逸都,四川省,成都市,彭州市,103.9557411,30.9874948
置信逸都・丹郡A区,商务住宅,住宅区,住宅小区,天彭镇国泰西路59号,四川省,成都市,彭州市,103.9555376,30.98918929
德坤・汀城,商务住宅,住宅区,住宅小区,牡丹北路199号,四川省,成都市,彭州市,103.9557288,30.99481861
牛心山电站住宅区,商务住宅,住宅区,住宅小区,天彭镇金彭中路379号,四川省,成都市,彭州市,103.9489995,30.99058104
碧美・恋城中央,商务住宅,住宅区,住宅小区,天彭镇牡丹新城朝阳东巷82号,四川省,成都市,彭州市,103.9526997,30.98735784
绿城牡丹苑,商务住宅,住宅区,住宅小区,天彭镇牡丹西路南段158号(南北街道交界处),四川省,成都市,彭州市,103.9537767,30.98731044
圣乔治亚广场,商务住宅,楼宇,商务写字楼,近郊东湖北街45号,四川省,成都市,彭州市,103.9575178,30.98912365
香水蓝庭,商务住宅,住宅区,住宅小区,国泰西路22附近,四川省,成都市,彭州市,103.955062,30.98863572
鸿运星城-4期・名城,商务住宅,住宅区,住宅小区,牡丹北路247号,四川省,成都市,彭州市,103.9581757,30.99377838
鸿运星城,商务住宅,住宅区,住宅小区,金华西路一段296号,四川省,成都市,彭州市,103.9594817,30.99489256
金彭东路社区活动中心,商务住宅,住宅区,社区中心,汉彭路与石化大道交叉口东南100米,四川省,成都市,彭州市,103.963026,30.98981459
置信逸都・丹郡B区,商务住宅,住宅区,住宅小区,国泰西路99号,四川省,成都市,彭州市,103.9585447,30.98968185
盛世天彭,商务住宅,住宅区,住宅小区,金彭东路121号,四川省,成都市,彭州市,103.9585227,30.99207452
牡丹大道北二段226号院,商务住宅,住宅区,住宅小区,牡丹大道北二段226号,四川省,成都市,彭州市,103.9629739,30.99492478
品源商务楼,商务住宅,楼宇,商务写字楼,天彭镇金彭东路155号(国家电网斜对面),四川省,成都市,彭州市,103.9593253,30.9909722
爱国小区,商务住宅,住宅区,住宅小区,天彭镇外东街与牡丹大道北段交叉口西北角,四川省,成都市,彭州市,103.9605248,30.98776409
置信逸都・丹郡D区,商务住宅,住宅区,住宅小区,天彭镇东湖北街105号,四川省,成都市,彭州市,103.9585658,30.98753503
调露公寓,商务住宅,住宅区,住宅小区,调露寺东路152号附22号,四川省,成都市,彭州市,103.9677556,30.99562386
光明统规自建小区,商务住宅,商务住宅相关,商务住宅相关,什彭路与105省道交叉口东北200米,四川省,成都市,彭州市,103.9765339,30.9919666
水润天府现代生态农业示范园,商务住宅,产业园区,产业园区,105省道南50米,四川省,成都市,彭州市,104.0187472,30.98919413
双土小区,商务住宅,住宅区,住宅小区,九清路附近,四川省,成都市,彭州市,104.0381308,30.99408798
九尺镇金沙小区,商务住宅,住宅区,住宅小区,九尺镇金沙村,四川省,成都市,彭州市,104.0556211,30.9902167
元胜新居小区,商务住宅,住宅区,住宅小区,什新路与元春路交叉口西150米,四川省,成都市,彭州市,104.1070735,30.99115111
元春美庐,商务住宅,商务住宅相关,商务住宅相关,元春路东150米,四川省,成都市,彭州市,104.1006663,30.99476779
青城山韵,商务住宅,住宅区,住宅小区,玉堂镇水泉村5组,四川省,成都市,都江堰市,103.5513434,30.97962791
青城流水音,商务住宅,住宅区,住宅小区,都江堰赵公山风景区玉堂镇水泉村三组(巡岳会所旁),四川省,成都市,都江堰市,103.5584139,30.98401593
青城上院,商务住宅,住宅区,别墅,玉堂镇水泉村三组,四川省,成都市,都江堰市,103.5601534,30.98554483
潘佳苑,商务住宅,住宅区,住宅小区|体育休闲服务,赵公山大坪村(近大坪庵),四川省,成都市,都江堰市,103.5601916,30.98283445
青城赵公驿,商务住宅,住宅区,住宅区,青城赵公山旅游风景区(距青城大桥4公里),四川省,成都市,都江堰市,103.559904,30.98614309
楠林苑,商务住宅,商务住宅相关,商务住宅相关,,四川省,成都市,都江堰市,103.5789408,30.97795004
山水间,商务住宅,住宅区,住宅小区,赵公路158号,四川省,成都市,都江堰市,103.5964536,30.97899664
石牛小区(三台小区一期北),商务住宅,住宅区,住宅小区,S9(都汶高速公路),四川省,成都市,都江堰市,103.5954967,30.98485428
三台小区,商务住宅,住宅区,住宅小区,041乡道南150米,四川省,成都市,都江堰市,103.5982498,30.9795322
青景苑(041乡道),商务住宅,住宅区,住宅小区,长乐街270号,四川省,成都市,都江堰市,103.5977829,30.98212575
玉堂镇石牛社区活动中心,商务住宅,住宅区,社区中心,玉堂镇,四川省,成都市,都江堰市,103.5960216,30.98382487
长乐苑,商务住宅,住宅区,住宅小区,鑫玉大道66号,四川省,成都市,都江堰市,103.5998669,30.9799767
临江尚品,商务住宅,住宅区,住宅小区,上游街3号,四川省,成都市,都江堰市,103.6039771,30.98130582
江都花园2期,商务住宅,住宅区,住宅小区,青城路,四川省,成都市,都江堰市,103.6061693,30.98250924
宁江尚品,商务住宅,住宅区,住宅区,上游街45,四川省,成都市,都江堰市,103.6047955,30.98112261
双和苑,商务住宅,住宅区,住宅小区,自慧路与213国道交叉口北150米,四川省,成都市,都江堰市,103.6013359,30.98437785
西度新村,商务住宅,住宅区,住宅小区,滨江街附近,四川省,成都市,都江堰市,103.6071057,30.97753866
梧桐花园(奎光路),商务住宅,住宅区,住宅小区,奎光路301号,四川省,成都市,都江堰市,103.6149149,30.98476946
银桂花园,商务住宅,住宅区,住宅小区,幸福镇奎光西上街139号铝厂,四川省,成都市,都江堰市,103.6135155,30.98609677
青城外滩,商务住宅,住宅区,住宅小区,青城路663号,四川省,成都市,都江堰市,103.6173739,30.97909566
岷山水都商厦,商务住宅,住宅区,住宅小区,奎光路464号,四川省,成都市,都江堰市,103.6170671,30.982445
奎光塔社区,地名地址信息,普通地名,村庄级地名|商务住宅,奎光路485号,四川省,成都市,都江堰市,103.6158248,30.98295876
岷江局家属区,商务住宅,住宅区,住宅小区,奎光东三街与奎光路交叉口东北50米,四川省,成都市,都江堰市,103.6167715,30.98233732
警苑,商务住宅,住宅区,住宅小区,奎光路408-410号附近,四川省,成都市,都江堰市,103.6159236,30.98249495
观江社区-B-11-9B地块,商务住宅,楼宇,商务写字楼,奎光东街与奎光路交叉口北100米,四川省,成都市,都江堰市,103.6171359,30.98478559
阿坝铝厂都江堰生活区,商务住宅,住宅区,宿舍,幸福镇奎光路西上街139号银桂花园,四川省,成都市,都江堰市,103.6152274,30.98574465
20栋都机厂家属区,商务住宅,商务住宅相关,商务住宅相关,奎光西街369-397号附近,四川省,成都市,都江堰市,103.6135785,30.98358717
福来苑,商务住宅,住宅区,住宅小区,灌温路48号(木材市场旁),四川省,成都市,都江堰市,103.6153575,30.97838778
造林局小区,商务住宅,住宅区,住宅小区,奎光路464号,四川省,成都市,都江堰市,103.6168424,30.98239323
外滩星空,商务住宅,住宅区,住宅小区,灌温路53号,四川省,成都市,都江堰市,103.6168416,30.97812269
观林怡苑,商务住宅,住宅区,住宅区,幸福镇奎光路367号,四川省,成都市,都江堰市,103.6165997,30.98428135
奎光西上街43号附1号,商务住宅,商务住宅相关,商务住宅相关,奎光西上街39号附近,四川省,成都市,都江堰市,103.6159534,30.98657058
都江堰市幸福镇观江社区b-11-10重建工程,商务住宅,商务住宅相关,商务住宅相关,奎光东三街35号附近,四川省,成都市,都江堰市,103.6173098,30.98285755
水乡人家,商务住宅,住宅区,住宅区,奎光东街96号,四川省,成都市,都江堰市,103.6182454,30.98486355
锦绣苑,商务住宅,住宅区,住宅小区,安轻路与灌温路交叉口东南150米,四川省,成都市,都江堰市,103.6182776,30.97939967
405地质队家属区,商务住宅,住宅区,住宅小区,奎光路250号,四川省,成都市,都江堰市,103.6173895,30.98597468
阿坝州工业局宿舍楼,商务住宅,住宅区,宿舍,奎光路301号附2号,四川省,成都市,都江堰市,103.6137552,30.98574779
安青社区活动中心,商务住宅,住宅区,社区中心,安轻路与灌温路交叉口东南100米,四川省,成都市,都江堰市,103.6182915,30.98008326
小红楼,商务住宅,住宅区,住宅小区,走马河西路中段158号,四川省,成都市,都江堰市,103.627462,30.97926583
恬园,商务住宅,住宅区,住宅小区,奎光东街163号,四川省,成都市,都江堰市,103.6201387,30.9842391
水都城市花园,商务住宅,住宅区,住宅小区,江东街449号,四川省,成都市,都江堰市,103.6234216,30.98601665
金桥小区(金平巷),商务住宅,住宅区,住宅小区,都江堰金平巷26号,四川省,成都市,都江堰市,103.6280537,30.98669581
江都花园,商务住宅,住宅区,住宅小区,幸福镇青城路336号,四川省,成都市,都江堰市,103.6222425,30.98494254
都市・美丽洲小区,商务住宅,住宅区,住宅小区,江安河东路中段27号,四川省,成都市,都江堰市,103.6252558,30.98080758
龙潭湾广场,商务住宅,住宅区,住宅小区,都江堰走马河西路上段256号(走马河西路上段与一环路相交处),四川省,成都市,都江堰市,103.6244958,30.98682698
临江阁,商务住宅,住宅区,住宅小区,走马河西路中段36号,四川省,成都市,都江堰市,103.6260983,30.98272049
龙潭壹号院,商务住宅,住宅区,住宅小区,江安中路468号,四川省,成都市,都江堰市,103.6245188,30.98442034
龙潭湾-西河苑,商务住宅,住宅区,住宅区,江安河东路上段581-589号,四川省,成都市,都江堰市,103.6240127,30.98398616
水乡人家南区,商务住宅,住宅区,住宅小区,青城路336号,四川省,成都市,都江堰市,103.6202236,30.98314865
水乡人家B区,商务住宅,住宅区,住宅小区,奎光东街96号,四川省,成都市,都江堰市,103.6202157,30.98274888
紫荆苑(安轻路),商务住宅,住宅区,住宅小区,安青社区安轻路41栋,四川省,成都市,都江堰市,103.6235976,30.97910544
观江社区,商务住宅,住宅区,住宅小区,幸福镇奎光东街114号,四川省,成都市,都江堰市,103.6203774,30.98345332
顺风苑(安轻路),商务住宅,住宅区,住宅小区,安轻路与江安河西滨河路交叉口西南50米,四川省,成都市,都江堰市,103.6243453,30.97910261
轻机小区,商务住宅,住宅区,住宅小区,青城路395号,四川省,成都市,都江堰市,103.6216755,30.98168002
四川新华发行集团啊坝州新华书店中转站灾后重建工程业务楼,商务住宅,楼宇,商务写字楼,江安河东路上段与青城路交叉口东北150米,四川省,成都市,都江堰市,103.6248833,30.98330857
龙潭三号院,商务住宅,住宅区,住宅小区,幸福镇江安中路276号,四川省,成都市,都江堰市,103.6242642,30.98572688
恒成花园,商务住宅,住宅区,住宅小区,安轻路152附1,四川省,成都市,都江堰市,103.6188688,30.97754819
上善居(奎光东四街),商务住宅,住宅区,住宅小区,一环安轻路1号(青城桥头郦湾酒旁),四川省,成都市,都江堰市,103.6188767,30.98079331
人和小院,商务住宅,住宅区,住宅小区,青城路235号,四川省,成都市,都江堰市,103.6259215,30.98318843
龙湾潭小区,商务住宅,住宅区,住宅小区,江安中路468号龙潭壹号院附近,四川省,成都市,都江堰市,103.6248004,30.98469386
莲花苑(安轻路),商务住宅,住宅区,住宅小区,安轻路254号附近,四川省,成都市,都江堰市,103.6215109,30.97785839
银海苑,商务住宅,商务住宅相关,商务住宅相关,青城路395号,四川省,成都市,都江堰市,103.6218512,30.98164386
吉祥苑(安轻路),商务住宅,住宅区,住宅小区,安轻路237-239号附近,四川省,成都市,都江堰市,103.6210526,30.9779748
清风苑(安轻路),商务住宅,住宅区,住宅小区,安轻路24栋,四川省,成都市,都江堰市,103.6211355,30.97767189
金羊新苑,商务住宅,住宅区,住宅小区,走马河西路上段244号,四川省,成都市,都江堰市,103.6251856,30.987153
祥和苑(江安西四街),商务住宅,住宅区,住宅小区,幸福镇江安中路西四街20号,四川省,成都市,都江堰市,103.6228375,30.98698473
安居苑,商务住宅,住宅区,住宅小区,安轻路480号22幢,四川省,成都市,都江堰市,103.6209947,30.97760407
和谐苑(安轻路),商务住宅,住宅区,住宅小区,安轻路223号附近,四川省,成都市,都江堰市,103.6206372,30.97776234
幸福苑(安轻路),商务住宅,住宅区,住宅小区,安轻路与江安河西滨河路交叉口西南100米,四川省,成都市,都江堰市,103.6237084,30.97877851
滨江花园(安金路),商务住宅,住宅区,住宅小区,科技开发区安轻路292号,四川省,成都市,都江堰市,103.6237743,30.97751716
富贵苑(安轻路),商务住宅,住宅区,住宅小区,安轻路与安金路交叉口东北100米,四川省,成都市,都江堰市,103.622731,30.97871061
幸金巷1号院,商务住宅,住宅区,住宅小区,幸金巷1号,四川省,成都市,都江堰市,103.6276934,30.98570283
金香苑,商务住宅,住宅区,住宅小区,安轻路152号-1,四川省,成都市,都江堰市,103.6190545,30.97844849
龙潭湾花苑,商务住宅,住宅区,住宅小区,江安中路556号,四川省,成都市,都江堰市,103.6247465,30.98426018
桂花苑(安轻路),商务住宅,住宅区,住宅小区,安轻路144-146号附近,四川省,成都市,都江堰市,103.6194,30.97800342
水乡人家A区,商务住宅,住宅区,住宅小区,青城路,四川省,成都市,都江堰市,103.6188096,30.98460417
幸金巷4号院,商务住宅,住宅区,住宅小区,幸金巷4号,四川省,成都市,都江堰市,103.627878,30.98603241
顺心苑(安轻路),商务住宅,住宅区,住宅小区,安轻路160-162号附近,四川省,成都市,都江堰市,103.6195998,30.97761645
幸金巷6号院,商务住宅,住宅区,住宅小区,幸金巷6号,四川省,成都市,都江堰市,103.6277243,30.9862195
凤凰苑(安轻路),商务住宅,住宅区,住宅小区,安轻路292号-294号,四川省,成都市,都江堰市,103.6225942,30.97829
龙潭二号院,商务住宅,商务住宅相关,商务住宅相关,江安中路464号,四川省,成都市,都江堰市,103.6243072,30.98465945
团结苑(安轻路),商务住宅,住宅区,住宅小区,安轻路188-附2号附近,四川省,成都市,都江堰市,103.6200312,30.97720327
龙江河畔,商务住宅,商务住宅相关,商务住宅相关,江安中路468号龙潭壹号院附近,四川省,成都市,都江堰市,103.6247455,30.98465695
飘香苑,商务住宅,住宅区,住宅区,安轻路480号31幢,四川省,成都市,都江堰市,103.6216627,30.97822702
顺意院,商务住宅,住宅区,住宅小区,东巷9号,四川省,成都市,都江堰市,103.6284274,30.97780747
都江堰东风水泥有限责任公司职工宿舍,商务住宅,住宅区,住宅小区,幸福镇青城路336号7栋,四川省,成都市,都江堰市,103.6223913,30.98337429
金平苑,商务住宅,住宅区,住宅小区,金平巷8,四川省,成都市,都江堰市,103.6274857,30.98712827
龙潭湾社区活动中心,商务住宅,住宅区,社区中心,走马河西路上段246-248,四川省,成都市,都江堰市,103.6252535,30.98710495
芙蓉苑(安轻路),商务住宅,住宅区,住宅小区,安轻路480号8幢,四川省,成都市,都江堰市,103.6188638,30.97870752
顺业院,商务住宅,住宅区,住宅小区,安顺一街与安顺中巷交叉口西北50米,四川省,成都市,都江堰市,103.6271666,30.97720038
都纸小区(走马河西路中段),商务住宅,住宅区,住宅小区,走马河西路中段76号,四川省,成都市,都江堰市,103.6271175,30.98202966
牡丹苑,商务住宅,住宅区,住宅小区,安轻路,四川省,成都市,都江堰市,103.6186211,30.97907354
如意苑,商务住宅,住宅区,住宅小区,安轻路480号20幢,四川省,成都市,都江堰市,103.62078,30.97750534
皇庭.丽舍,商务住宅,商务住宅相关,商务住宅相关,奎光东六街83-85号附近,四川省,成都市,都江堰市,103.6187408,30.98299916
安民院,商务住宅,住宅区,住宅小区,安顺一街与安顺中巷交叉口东北50米,四川省,成都市,都江堰市,103.6277326,30.97737659
丽水印象,商务住宅,住宅区,住宅小区,翔凤路222号,四川省,成都市,都江堰市,103.6317471,30.98101227
银海锦都,商务住宅,住宅区,住宅小区,翔凤路200号,四川省,成都市,都江堰市,103.6308059,30.98240074
迎宾花园,商务住宅,住宅区,住宅小区,迎宾路91号,四川省,成都市,都江堰市,103.6356862,30.98650354
银海金岸(天府大道),商务住宅,住宅区,住宅小区,天府大道49号,四川省,成都市,都江堰市,103.6303738,30.97785793
金沙・水立方广场,商务住宅,楼宇,商务写字楼,一环路与翔凤路交汇处(翔凤路178号),四川省,成都市,都江堰市,103.6292527,30.98188407
驻虹苑,商务住宅,住宅区,住宅小区,彩凤路42号5-8栋,四川省,成都市,都江堰市,103.6358431,30.97988812
流虹苑,商务住宅,住宅区,住宅小区,幸福镇彩虹社区通锦路250号,四川省,成都市,都江堰市,103.6379757,30.98058153
瑞虹苑,商务住宅,住宅区,住宅小区,通锦路250号1、6、8栋,四川省,成都市,都江堰市,103.6370696,30.98105663
贵虹苑,商务住宅,住宅区,住宅小区,幸福镇通锦路250号10栋,四川省,成都市,都江堰市,103.6371814,30.9804748
观虹苑,商务住宅,住宅区,住宅小区,彩凤路42号9-12栋,四川省,成都市,都江堰市,103.6363132,30.97957161
平安苑(通锦路),商务住宅,住宅区,住宅小区,观锦一巷,四川省,成都市,都江堰市,103.633825,30.98430849
落虹苑,商务住宅,住宅区,住宅小区,通锦路250号9-12栋,四川省,成都市,都江堰市,103.6370187,30.98041308
迎宾苑,商务住宅,住宅区,住宅小区,迎宾路208号,四川省,成都市,都江堰市,103.6365735,30.98459233
景中苑(中山路),商务住宅,住宅区,住宅小区,幸福镇中山路155号,四川省,成都市,都江堰市,103.6375374,30.98691555
华夏名居,商务住宅,住宅区,住宅小区,幸福镇迎宾路217号,四川省,成都市,都江堰市,103.6375983,30.98602097
金都苑(迎宾路),商务住宅,住宅区,住宅小区,迎宾路208-12号,四川省,成都市,都江堰市,103.6368629,30.9845899
如虹苑,商务住宅,住宅区,住宅小区,彩凤路42号1-3栋,四川省,成都市,都江堰市,103.635411,30.98041245
飞虹苑,商务住宅,住宅区,住宅小区,通锦路250号2、4、5、7栋,四川省,成都市,都江堰市,103.6377063,30.98088077
通锦苑(通锦五巷),商务住宅,住宅区,住宅小区,通锦路171号-12,四川省,成都市,都江堰市,103.6374068,30.98397144
迎虹苑,商务住宅,住宅区,住宅小区,幸福镇翔凤路彩虹社区42号,四川省,成都市,都江堰市,103.6367274,30.97925518
幸福镇翔凤桥社区木机厂家属区,商务住宅,住宅区,住宅小区,幸福镇翔凤路216号,四川省,成都市,都江堰市,103.629676,30.98159269
映虹苑,商务住宅,住宅区,住宅小区,彩凤路42号21-23号,四川省,成都市,都江堰市,103.6369869,30.97864514
溢虹苑,商务住宅,住宅区,住宅小区,通锦路250号13-15栋,四川省,成都市,都江堰市,103.6379369,30.97957417
上善熙,商务住宅,住宅区,住宅小区,青城路与走马河东路交汇处,四川省,成都市,都江堰市,103.628496,30.98390287
堰都大厦,商务住宅,楼宇,商务写字楼,幸福镇青城路41号,四川省,成都市,都江堰市,103.6297377,30.98584516
吉昌幸福佳苑,商务住宅,住宅区,住宅小区,迎宾大道69号,四川省,成都市,都江堰市,103.6340544,30.98693565
交通大厦(迎宾路),商务住宅,楼宇,商务写字楼,迎宾路214号,四川省,成都市,都江堰市,103.6374596,30.98456202
面粉厂家属区,商务住宅,住宅区,住宅小区,太平街524号,四川省,成都市,都江堰市,103.6298754,30.98715922
天府大道119号,商务住宅,商务住宅相关,商务住宅相关,天府大道与安顺二街交叉口东100米,四川省,成都市,都江堰市,103.6300275,30.97719577
马尔康县林场都江堰职工基地,商务住宅,住宅区,住宅小区,观凤路68号,四川省,成都市,都江堰市,103.6316562,30.98475424
玫瑰公馆,商务住宅,住宅区,住宅区,凤邻一巷与翔凤四巷交叉口西北50米,四川省,成都市,都江堰市,103.6370098,30.97928574
顺遂院,商务住宅,住宅区,住宅小区,东巷15号,四川省,成都市,都江堰市,103.6285043,30.97721871
迎宾大道67号院,商务住宅,住宅区,住宅区,迎宾大道67号,四川省,成都市,都江堰市,103.6333518,30.98710454
同心苑小区,商务住宅,住宅区,住宅小区,中山路262号,四川省,成都市,都江堰市,103.6360575,30.98622316
名都新城,商务住宅,住宅区,住宅小区,灌口镇迎宾大道67号,四川省,成都市,都江堰市,103.6340135,30.98706063
卧龙自然保护区都江堰观凤楼基地,商务住宅,住宅区,住宅小区,观凤路66号,四川省,成都市,都江堰市,103.6315683,30.98522109
翔凤苑,商务住宅,住宅区,住宅小区,翔凤一巷与翔凤路交叉口东北100米,四川省,成都市,都江堰市,103.6294882,30.98480308
幸福镇翔凤桥社区农商银行家属区,商务住宅,住宅区,住宅区,青城路77号,四川省,成都市,都江堰市,103.6291598,30.98576095
四川省成都市都江堰市走马河西路中段178号,商务住宅,商务住宅相关,商务住宅相关,走马河西路中段,四川省,成都市,都江堰市,103.6295862,30.97971889
庆虹苑,商务住宅,住宅区,住宅小区,彩凤路42号17-20栋,四川省,成都市,都江堰市,103.6375996,30.97903999
都市美丽风景,商务住宅,住宅区,住宅小区,彩虹大道南段432号,四川省,成都市,都江堰市,103.6432175,30.97899314
百花苑(莲花南路),商务住宅,住宅区,住宅小区,宝莲路37号,四川省,成都市,都江堰市,103.6421246,30.9863207
金桥花园(彩虹大道南段),商务住宅,住宅区,住宅小区,二环路彩虹大道南段390号,四川省,成都市,都江堰市,103.648263,30.98118535
莲花公寓(莲花南路),商务住宅,住宅区,住宅小区,宝莲路30号,四川省,成都市,都江堰市,103.641071,30.98551486
青城岚田,商务住宅,楼宇,商务写字楼,青城山成灌快铁站终点站旁,四川省,成都市,都江堰市,103.6426068,30.98134179
幸福风景,商务住宅,住宅区,住宅小区,岷江路131号,四川省,成都市,都江堰市,103.6447738,30.98503208
和乐苑,商务住宅,住宅区,住宅小区,宝莲路132号,四川省,成都市,都江堰市,103.6438639,30.98443594
东港银座,商务住宅,楼宇,商务写字楼,幸福镇迎宾大道430号,四川省,成都市,都江堰市,103.6417476,30.98224266
隆兴小区,商务住宅,住宅区,住宅小区,安康南路107号,四川省,成都市,都江堰市,103.6464331,30.98435167
民康二苑,商务住宅,住宅区,住宅小区,安康南路300-17栋附2号附近,四川省,成都市,都江堰市,103.6453636,30.98251554
仁和苑(安康南路),商务住宅,住宅区,住宅小区,安康南路108号,四川省,成都市,都江堰市,103.6447309,30.98361697
迎宾路371号院,商务住宅,住宅区,住宅区,迎宾路371号,四川省,成都市,都江堰市,103.6424361,30.98258735
民康一苑,商务住宅,住宅区,住宅区,安康南路300号,四川省,成都市,都江堰市,103.6448148,30.98209771
隆兴新居,商务住宅,住宅区,住宅小区,幸福镇宝莲路222号,四川省,成都市,都江堰市,103.646012,30.9834719
迎宾路400号院,商务住宅,住宅区,住宅小区,迎宾路400号,四川省,成都市,都江堰市,103.6402888,30.98277368
安澜骏景,商务住宅,住宅区,住宅小区,彩虹大道南段588号,四川省,成都市,都江堰市,103.6404147,30.97801722
岷江苑,商务住宅,住宅区,住宅小区,岷江路151-10栋附6号附近,四川省,成都市,都江堰市,103.6425368,30.98449308
幸福社区,商务住宅,住宅区,住宅小区,安康南路300号,四川省,成都市,都江堰市,103.6457766,30.98204812
安居苑(岷江路),商务住宅,住宅区,住宅小区,岷江路151号16栋,四川省,成都市,都江堰市,103.6417356,30.98426951
康乐苑(莲花南路),商务住宅,住宅区,住宅小区,幸福镇莲花南路97号,四川省,成都市,都江堰市,103.6405201,30.9855707
金桥领寓,商务住宅,住宅区,住宅小区,幸福镇彩虹大道南段555号,四川省,成都市,都江堰市,103.6443231,30.97770606
九寨花苑,商务住宅,住宅区,住宅小区,迎宾路245号,四川省,成都市,都江堰市,103.6389754,30.98532426
丰都庙综合楼,商务住宅,住宅区,住宅小区,安康南路66号,四川省,成都市,都江堰市,103.6465866,30.98666608
中保人家,商务住宅,住宅区,住宅小区,宝莲路32号,四川省,成都市,都江堰市,103.6414492,30.98489461
祥瑞苑(宝莲路),商务住宅,住宅区,住宅小区,岷江路151号,四川省,成都市,都江堰市,103.6437681,30.98398336
幸康苑,商务住宅,住宅区,住宅小区,岷江路,四川省,成都市,都江堰市,103.6450632,30.9839792
蓝郡・新界,商务住宅,住宅区,住宅小区,岷江路111号,四川省,成都市,都江堰市,103.6453015,30.98635144
彩虹二苑,商务住宅,住宅区,住宅小区,彩凤路42号,四川省,成都市,都江堰市,103.6394675,30.98220829
景园小区,商务住宅,住宅区,住宅小区,幸福镇安康南路55号,四川省,成都市,都江堰市,103.647275,30.98612821
彩虹一苑,商务住宅,住宅区,住宅小区,凤邻路与通锦路交叉口北150米,四川省,成都市,都江堰市,103.6402719,30.9808688
凤凰体育场D座,商务住宅,楼宇,商务写字楼,彩虹大道南段附近,四川省,成都市,都江堰市,103.6481264,30.97947058
竹苑,商务住宅,住宅区,住宅小区,安康南路37号,四川省,成都市,都江堰市,103.6475664,30.98667339
家康卫园,商务住宅,商务住宅相关,商务住宅相关,迎宾大道398-28栋附5-6号附近,四川省,成都市,都江堰市,103.6392071,30.98234762
民康三苑,商务住宅,住宅区,住宅小区,幸福村安康南路,四川省,成都市,都江堰市,103.6456419,30.98276993
凤凰体育场B座,商务住宅,楼宇,商务写字楼,迎宾路辅路东100米,四川省,成都市,都江堰市,103.6481583,30.9777645
幸福街道综合文化活动中心,商务住宅,住宅区,社区中心,迎宾大道269号附近,四川省,成都市,都江堰市,103.6417794,30.98524588
民康四苑,商务住宅,住宅区,住宅小区,安康南路与宝莲路交叉口西南100米,四川省,成都市,都江堰市,103.6453286,30.98324718
天伦花园,商务住宅,住宅区,住宅小区,彩虹大道南段146号,四川省,成都市,都江堰市,103.651161,30.98472321
幸福家园(彩虹大道南段),商务住宅,住宅区,住宅小区,彩虹大道南段327号,四川省,成都市,都江堰市,103.6537509,30.98298055
幸福世家(永丰路),商务住宅,住宅区,住宅小区,都江堰二环路彩虹大道南段(都江堰中学与人民医院之间),四川省,成都市,都江堰市,103.6526237,30.97987638
兴堰丽景A区,商务住宅,住宅区,住宅小区,幸福镇永安大道南三段293号,四川省,成都市,都江堰市,103.6567927,30.97722629
山水天成(彩虹大道南段),商务住宅,住宅区,住宅小区,幸福镇彩虹大道南段280号,四川省,成都市,都江堰市,103.649954,30.98247964
银海花园,商务住宅,住宅区,住宅小区,联盟南路82号,四川省,成都市,都江堰市,103.6485431,30.98622096
兴堰逸苑,商务住宅,住宅区,住宅小区,二环路彩虹大道南段313号兴堰,四川省,成都市,都江堰市,103.6537848,30.98404788
杜鹃苑,商务住宅,住宅区,住宅小区,二环路彩虹大道南段208号,四川省,成都市,都江堰市,103.6501006,30.98370568
欣盛大厦,商务住宅,楼宇,商务写字楼,幸福镇宝莲路378号,四川省,成都市,都江堰市,103.6508488,30.98278688
山南花园,商务住宅,住宅区,住宅小区,景环路430号,四川省,成都市,都江堰市,103.6513495,30.98603212
幸福世家,商务住宅,住宅区,住宅小区,永丰路51号附近,四川省,成都市,都江堰市,103.6528662,30.97913437
宝莲4苑,商务住宅,住宅区,住宅小区,幸福镇,四川省,成都市,都江堰市,103.6505645,30.98382079
东能财富广场(彩虹大道南段),商务住宅,楼宇,商务写字楼,彩虹大道南段239号,四川省,成都市,都江堰市,103.6534615,30.98553361
宝莲6苑,商务住宅,住宅区,住宅小区,幸福镇彩虹大道南段196号,四川省,成都市,都江堰市,103.6499848,30.98358295
银海公寓,商务住宅,住宅区,住宅小区,联盟南路9号,四川省,成都市,都江堰市,103.6499757,30.9866532
东能・财富广场营销中心,商务住宅,商务住宅相关,商务住宅相关,幸福镇彩虹大道南段329号,四川省,成都市,都江堰市,103.6525178,30.98331059
宝莲1苑,商务住宅,住宅区,住宅区,幸福镇彩虹大道南段196号,四川省,成都市,都江堰市,103.6500088,30.98417757
新华缘,商务住宅,住宅区,住宅小区,联盟南路19号,四川省,成都市,都江堰市,103.6495328,30.98593939
中铁・瑞景誉都(廖家桥路),商务住宅,住宅区,住宅小区,永丰路3号(都江堰医疗中心、体育中心旁),四川省,成都市,都江堰市,103.6549452,30.97785533
沪都家园,商务住宅,住宅区,住宅区,都江堰宝莲路657号,四川省,成都市,都江堰市,103.6561929,30.9836407
宝莲3苑,商务住宅,住宅区,住宅区,幸福镇彩虹大道南段196号,四川省,成都市,都江堰市,103.6493124,30.9839949
广友苑,商务住宅,住宅区,住宅小区,幸福镇彩虹大道南段320号,四川省,成都市,都江堰市,103.6485293,30.98283793
宝莲5苑,商务住宅,住宅区,住宅小区,幸福镇彩虹大道南段196号,四川省,成都市,都江堰市,103.6493763,30.98369896
凤凰体育场C座,商务住宅,楼宇,商务写字楼,祥瑞路西150米,四川省,成都市,都江堰市,103.6488816,30.97858577
威中花园,商务住宅,住宅区,住宅小区,景环路324号,四川省,成都市,都江堰市,103.6488134,30.98704002
联盟9苑,商务住宅,住宅区,住宅区,联盟5巷,四川省,成都市,都江堰市,103.6495787,30.98689276
永安大道南三段293号8,商务住宅,住宅区,住宅区,永安大道南三段297号附近,四川省,成都市,都江堰市,103.6573005,30.97733928
宝莲2苑,商务住宅,住宅区,住宅区,彩虹大道南段196号,四川省,成都市,都江堰市,103.6509775,30.98396597
尚腾汽车服务有限公司都江堰直营店,汽车销售,汽车销售,汽车销售|商务住宅,彩虹大道南段334-356号,四川省,成都市,都江堰市,103.6486102,30.98131767
乐佳广场,商务住宅,楼宇,商务写字楼,沙西线与都江堰大道交叉口南150米,四川省,成都市,都江堰市,103.6610987,30.98578129
永寿教师楼,商务住宅,住宅区,宿舍,胥家镇永安大道南三段772号,四川省,成都市,都江堰市,103.6608883,30.98414064
都江堰友爱学校-办公大楼,商务住宅,楼宇,商务写字楼,永友路634号附近,四川省,成都市,都江堰市,103.6617175,30.97750689
桂香园,商务住宅,商务住宅相关,商务住宅相关,沙西线南50米,四川省,成都市,都江堰市,103.679057,30.98052405
建友园,商务住宅,商务住宅相关,商务住宅相关,童山村天马蓝天幼儿园斜对面,四川省,成都市,都江堰市,103.7445453,30.98442943
普什宁江C1区,商务住宅,产业园区,产业园区,金堰路东50米,四川省,成都市,都江堰市,103.7468306,30.98213454
建工大院,商务住宅,住宅区,住宅小区,都江堰金堰路46附近,四川省,成都市,都江堰市,103.7523819,30.97795127
尚行国际,商务住宅,商务住宅相关,商务住宅相关,金马街75号,四川省,成都市,都江堰市,103.7531889,30.97789845
航利公寓,商务住宅,住宅区,住宅小区,丽春镇(5719工厂附近),四川省,成都市,彭州市,103.8598376,30.97731335
四川一胜肴食品产业园,商务住宅,产业园区,产业园区,福州路与福建路交叉口东北50米,四川省,成都市,彭州市,103.8695574,30.98335657
彭州航空动力产业功能区,商务住宅,产业园区,产业园区,丽春镇(一胜肴对面),四川省,成都市,彭州市,103.8698337,30.98302109
青杠小区,商务住宅,住宅区,住宅小区,青岗路北50米,四川省,成都市,彭州市,103.8926134,30.98640318
园林式居住小区,商务住宅,住宅区,住宅小区,亚东水泥厂对面,四川省,成都市,彭州市,103.9074477,30.98167363
谢家社区活动中心,商务住宅,住宅区,社区中心|汽车服务,彭温路南50米,四川省,成都市,彭州市,103.902407,30.97976291
天仁小区教师苑,商务住宅,住宅区,住宅小区,天彭镇天人路78号,四川省,成都市,彭州市,103.9255748,30.98204071
天人小区,商务住宅,住宅区,住宅小区,天人南街35号附近,四川省,成都市,彭州市,103.9252373,30.98211905
安信路298号院,商务住宅,住宅区,住宅区,安信路298号,四川省,成都市,彭州市,103.9201971,30.9834615
彭白地铁四苑,商务住宅,住宅区,住宅小区,安彭路19号,四川省,成都市,彭州市,103.9196258,30.98288635
安信路2号院,商务住宅,住宅区,住宅区,安信路2号,四川省,成都市,彭州市,103.9269585,30.98426977
顾福桥社区,商务住宅,住宅区,住宅小区,天人路与彭温路交叉口东北100米,四川省,成都市,彭州市,103.9257974,30.98400931
西大街544号院,商务住宅,住宅区,住宅区,西大街544号,四川省,成都市,彭州市,103.9282235,30.98402233
翠湖西街213号院,商务住宅,住宅区,住宅小区,翠湖西街213号,四川省,成都市,彭州市,103.9269035,30.98714019
西大街477号院,商务住宅,住宅区,住宅区,西大街477号,四川省,成都市,彭州市,103.9281107,30.98468709
翠湖西街163号院,商务住宅,住宅区,住宅区,翠湖西街163号,四川省,成都市,彭州市,103.9275714,30.98678157
西环财富广场,商务住宅,楼宇,商住两用楼宇,园旁,四川省,成都市,彭州市,103.9273049,30.98614227
安居苑,商务住宅,住宅区,住宅小区,西海北街48号,四川省,成都市,彭州市,103.9344342,30.98458324
城中花园,商务住宅,住宅区,住宅小区,西南市街47号,四川省,成都市,彭州市,103.9353514,30.98540833
康居园,商务住宅,住宅区,住宅小区,康居巷36号,四川省,成都市,彭州市,103.9380849,30.98249353
丹景苑,商务住宅,住宅区,住宅小区,西海南街106号,四川省,成都市,彭州市,103.9358406,30.98119598
汇福苑,商务住宅,住宅区,住宅小区,康居北巷4,四川省,成都市,彭州市,103.9375699,30.98340587
天府西苑,商务住宅,住宅区,住宅小区,天府西路131号,四川省,成都市,彭州市,103.9355053,30.98019909
蓝天商住楼,商务住宅,楼宇,商务写字楼,康居巷71号,四川省,成都市,彭州市,103.9372247,30.98117773
丽都苑,商务住宅,住宅区,住宅小区,西海南街42-44号,四川省,成都市,彭州市,103.9353366,30.98230215
天府西路社区,商务住宅,住宅区,住宅小区,西海南街83号附近,四川省,成都市,彭州市,103.9365461,30.98204535
康居北巷111号院,商务住宅,住宅区,住宅小区,康居北巷111号,四川省,成都市,彭州市,103.9370191,30.98296404
枕梁厂家属区,商务住宅,住宅区,住宅小区,天彭镇天府西路276号(西江月旁),四川省,成都市,彭州市,103.9325969,30.98141283
川铁天佑嘉园,商务住宅,住宅区,住宅小区,天彭镇天府西路369号,四川省,成都市,彭州市,103.9311586,30.9798618
新村(西南市街),商务住宅,住宅区,住宅小区,西南市街81号,四川省,成都市,彭州市,103.9359442,30.98495265
西大街314号院,商务住宅,住宅区,住宅小区,天彭镇西大街314号,四川省,成都市,彭州市,103.9332026,30.98602628
西南市街15号院,商务住宅,住宅区,住宅小区,西南市街15号,四川省,成都市,彭州市,103.9348923,30.98600071
西海东街25号附7号院,商务住宅,住宅区,住宅小区,西海东街25号-7,四川省,成都市,彭州市,103.9378284,30.98360532
西海东街25号附3号院,商务住宅,住宅区,住宅小区,西海东街25号-3,四川省,成都市,彭州市,103.9379092,30.98342829
王宫花苑,商务住宅,住宅区,住宅小区,西南市街84号,四川省,成都市,彭州市,103.9374501,30.98531897
彭水苑,商务住宅,住宅区,住宅小区,天彭镇繁江南路319号,四川省,成都市,彭州市,103.9347689,30.9782024
绣城路南段269号院,商务住宅,住宅区,住宅区,绣城路南段269号,四川省,成都市,彭州市,103.9349055,30.97934153
西南市街201号院,商务住宅,住宅区,住宅小区,西南市街201号,四川省,成都市,彭州市,103.9381627,30.98319
康乐苑,商务住宅,住宅区,住宅小区,天彭镇西南市街119号,四川省,成都市,彭州市,103.9369981,30.98422135
沁馨苑,商务住宅,住宅区,住宅小区,西海东街25-7号附近,四川省,成都市,彭州市,103.9379102,30.98357021
西南市街104号院,商务住宅,住宅区,住宅小区,西南市街104号,四川省,成都市,彭州市,103.9372515,30.98500248
翠湖名苑(建设巷),商务住宅,住宅区,住宅小区,建设巷3号,四川省,成都市,彭州市,103.930257,30.98577264
繁江路57号院,商务住宅,住宅区,住宅区,繁江路84号附近,四川省,成都市,彭州市,103.9317036,30.97923938
翠湖居325号小区,商务住宅,住宅区,住宅小区,西大街323-327号,四川省,成都市,彭州市,103.931318,30.98644577
西大街241号院,商务住宅,住宅区,住宅小区,西大街241号,四川省,成都市,彭州市,103.9331516,30.98691084
粮食局家属区,商务住宅,住宅区,住宅小区,西大街160附近,四川省,成都市,彭州市,103.9364761,30.98627702
建设巷34号院,商务住宅,住宅区,住宅小区,建设巷34号,四川省,成都市,彭州市,103.9310375,30.98654511
西海东街25号院,商务住宅,住宅区,住宅区,西海东街25号,四川省,成都市,彭州市,103.9375889,30.98336686
西南市街137号院,商务住宅,住宅区,住宅区,西南市街137号,四川省,成都市,彭州市,103.9371587,30.98444296
西大街290号院,商务住宅,住宅区,住宅区,西大街290号,四川省,成都市,彭州市,103.9332076,30.98613521
西大街368号院,商务住宅,住宅区,住宅区,西大街368号,四川省,成都市,彭州市,103.9314977,30.98571394
西大街440号院,商务住宅,住宅区,住宅区,西大街440号,四川省,成都市,彭州市,103.9303558,30.98541271
翠湖西路68号院,商务住宅,住宅区,住宅小区,翠湖西路68号,四川省,成都市,彭州市,103.9300233,30.98664145
平安苑(西北市街),商务住宅,住宅区,住宅小区,西北市街32号,四川省,成都市,彭州市,103.9359322,30.98702347
西大街228号院,商务住宅,住宅区,住宅区,西大街228号,四川省,成都市,彭州市,103.9341617,30.98611478
西大街285号院,商务住宅,住宅区,住宅区,西大街285号,四川省,成都市,彭州市,103.9315886,30.98616055
小北街20号院,商务住宅,住宅区,住宅小区,小北街20号,四川省,成都市,彭州市,103.9368203,30.98686212
西大街251号院,商务住宅,住宅区,住宅区,西大街251号,四川省,成都市,彭州市,103.9327115,30.98652772
电力公司家属区,商务住宅,住宅区,住宅区,建设巷17号,四川省,成都市,彭州市,103.9303538,30.98591742
西大街152号院,商务住宅,住宅区,住宅区,西大街152号,四川省,成都市,彭州市,103.9363942,30.98618321
顾繁新居,商务住宅,住宅区,住宅小区,繁兴路256号,四川省,成都市,彭州市,103.9292381,30.97730389
花市巷31号院,商务住宅,住宅区,住宅区,花市巷31号,四川省,成都市,彭州市,103.9375718,30.98561859
西大街146号院,商务住宅,住宅区,住宅区,西大街146号,四川省,成都市,彭州市,103.9368224,30.98622349
西大街120号院,商务住宅,住宅区,住宅区,西大街120号,四川省,成都市,彭州市,103.937013,30.98621218
翠湖路3号院,商务住宅,住宅区,住宅区,翠湖路3号,四川省,成都市,彭州市,103.9316125,30.98683313
翠湖路5号院,商务住宅,住宅区,住宅区,翠湖路5号,四川省,成都市,彭州市,103.9316215,30.9868731
花市巷21号院,商务住宅,住宅区,住宅区,花市巷21号,四川省,成都市,彭州市,103.9377644,30.98581016
花市巷13号院,商务住宅,住宅区,住宅区,花市巷13号,四川省,成都市,彭州市,103.9381256,30.98610438
绣城路北段85号院,商务住宅,住宅区,住宅小区,绣城路北段85号,四川省,成都市,彭州市,103.9291868,30.98636773
小北街1号院,商务住宅,住宅区,住宅区,小北街1号,四川省,成都市,彭州市,103.9363044,30.98713181
惠通商住楼,商务住宅,商务住宅相关,商务住宅相关,西南市街47号,四川省,成都市,彭州市,103.9358584,30.98557443
花市巷4号院,商务住宅,住宅区,住宅区,花市巷4号,四川省,成都市,彭州市,103.9380508,30.98622144
钟楼路27号院,商务住宅,住宅区,住宅区,钟楼路27号,四川省,成都市,彭州市,103.9378222,30.98703136
四川省地铁局普乐分局职工生活区,商务住宅,住宅区,宿舍,繁江路29号附近,四川省,成都市,彭州市,103.932045,30.97943778
富民巷29号院,商务住宅,住宅区,住宅区,天彭镇富民巷29号,四川省,成都市,彭州市,103.937477,30.98708891
钟楼路25号院,商务住宅,住宅区,住宅区,钟楼路25号,四川省,成都市,彭州市,103.9381465,30.98707079
金谷苑(西北市街),商务住宅,住宅区,住宅小区,西北市街30号,四川省,成都市,彭州市,103.9358902,30.98701055
翠湖街社区,商务住宅,住宅区,住宅小区,翠湖东路与翠湖路交叉口西南50米,四川省,成都市,彭州市,103.9311653,30.98697868
金龙苑,商务住宅,住宅区,住宅小区,富民巷4,四川省,成都市,彭州市,103.9378582,30.98658356
西北市街27号院,商务住宅,商务住宅相关,商务住宅相关,西北市街27号,四川省,成都市,彭州市,103.9353184,30.98691152
社区活动室,商务住宅,住宅区,社区中心,绣城南路45号附近,四川省,成都市,彭州市,103.9299276,30.98444685
成都西南铁路物资有限公司乘务员之家,商务住宅,住宅区,宿舍,繁江南路276号附近,四川省,成都市,彭州市,103.9362978,30.97799809
天府苑(天府中路),商务住宅,住宅区,住宅小区,天彭镇天府中路101号,四川省,成都市,彭州市,103.9431645,30.9811292
彭州大厦,商务住宅,楼宇,商务写字楼,南大街3号,四川省,成都市,彭州市,103.9399237,30.98610227
蓝天花园(天府南路),商务住宅,住宅区,住宅小区,天府南路97号,四川省,成都市,彭州市,103.9462291,30.9783668
东南苑,商务住宅,住宅区,住宅小区,朝阳路南段397,四川省,成都市,彭州市,103.947448,30.97929379
东南市街88号院,商务住宅,住宅区,住宅小区,东南市街88号,四川省,成都市,彭州市,103.9431106,30.98210673
天星花园,商务住宅,住宅区,住宅小区,天府中路新民东街63号,四川省,成都市,彭州市,103.9467696,30.98264924
东南市街110号院,商务住宅,住宅区,住宅小区,东南市街110号,四川省,成都市,彭州市,103.9429998,30.98162922
思源小区(新民路),商务住宅,住宅区,住宅小区,东南市街48号,四川省,成都市,彭州市,103.9440183,30.98460056
润鑫宅院,商务住宅,住宅区,住宅小区,新民路63号,四川省,成都市,彭州市,103.9450777,30.9846035
警苑(天府南路),商务住宅,住宅区,住宅小区,天府南路43号,四川省,成都市,彭州市,103.9461134,30.97934647
人民渠家属楼,商务住宅,住宅区,住宅区,东南市街88号,四川省,成都市,彭州市,103.9427045,30.9822744
东南市街77号院,商务住宅,住宅区,住宅小区,东南市街77号,四川省,成都市,彭州市,103.942031,30.98319313
蓝天楼,商务住宅,楼宇,商务写字楼,天彭镇西大街27号,四川省,成都市,彭州市,103.9391324,30.98661736
天府巷2号院,商务住宅,住宅区,住宅小区,天府巷2,四川省,成都市,彭州市,103.9421529,30.98036454
新民路1号院,商务住宅,住宅区,住宅小区,新民路1号,四川省,成都市,彭州市,103.9440023,30.9842468
清阁苑,商务住宅,住宅区,住宅小区,天彭镇朝阳南路309-311号(天诚寄卖有限公司),四川省,成都市,彭州市,103.9479727,30.97767764
丰顺苑,商务住宅,住宅区,住宅小区,新民东街6号,四川省,成都市,彭州市,103.9481351,30.98237059
鑫通苑,商务住宅,住宅区,住宅小区,天彭镇新民西街48号,四川省,成都市,彭州市,103.9463706,30.98188049
东南市街43号院,商务住宅,住宅区,住宅小区,东南市街43号,四川省,成都市,彭州市,103.9429548,30.9847655
瑞馨苑,商务住宅,住宅区,住宅小区,古城巷76-1,四川省,成都市,彭州市,103.9387036,30.98144308
园丁巷48号院,商务住宅,住宅区,住宅小区,天彭镇园丁巷48号,四川省,成都市,彭州市,103.9440903,30.97948737
康和苑(南大街),商务住宅,住宅区,住宅小区,南大街138号,四川省,成都市,彭州市,103.9404536,30.98366573
茗蔺逸苑,商务住宅,住宅区,住宅区,新民路18号,四川省,成都市,彭州市,103.9439325,30.98399807
东南市街34号院,商务住宅,住宅区,住宅小区,东南市街34号,四川省,成都市,彭州市,103.9440372,30.98509324
安仁东街2号院,商务住宅,住宅区,住宅小区,安仁东街2号,四川省,成都市,彭州市,103.9406122,30.9840822
渠苑小区,商务住宅,住宅区,住宅小区,天彭镇东南市街88号,四川省,成都市,彭州市,103.9427225,30.98212745
彭州市实验小学教师苑,商务住宅,住宅区,宿舍,天府南路13号,四川省,成都市,彭州市,103.946241,30.98009478
显圣街30号院,商务住宅,住宅区,住宅小区,显圣街30号,四川省,成都市,彭州市,103.939399,30.98280409
外南商住楼,商务住宅,住宅区,住宅小区,外南街附4号,四川省,成都市,彭州市,103.9419813,30.97996608
安仁东街1号院,商务住宅,住宅区,住宅小区,安仁东街1号,四川省,成都市,彭州市,103.940689,30.98478266
中国石油宝石花花园,商务住宅,住宅区,住宅小区,天彭镇南大街229号,四川省,成都市,彭州市,103.9397363,30.98196099
显圣街31号院,商务住宅,住宅区,住宅小区,显圣街31号,四川省,成都市,彭州市,103.9394149,30.9834407
安仁街22号院,商务住宅,住宅区,住宅小区,安仁街22号,四川省,成都市,彭州市,103.9395816,30.9839771
靖武园,商务住宅,住宅区,住宅小区,天彭镇小南街68号,四川省,成都市,彭州市,103.9417626,30.98390322
康乐大院,商务住宅,住宅区,住宅小区,近郊近郊东南市街72号附2号,四川省,成都市,彭州市,103.9435963,30.98390377
南河东街29号院,商务住宅,住宅区,住宅小区,南河东街29号,四川省,成都市,彭州市,103.9420682,30.97835985
园丁巷141号院,商务住宅,住宅区,住宅小区,园丁巷141,四川省,成都市,彭州市,103.9441822,30.9782569
东大街148号院,商务住宅,住宅区,住宅小区,东大街148号,四川省,成都市,彭州市,103.9443804,30.98601804
南大街319号院,商务住宅,住宅区,住宅小区,南大街319号,四川省,成都市,彭州市,103.9396127,30.97974348
康居巷6号院,商务住宅,住宅区,住宅小区,康居巷6号,四川省,成都市,彭州市,103.9386666,30.98265944
康居巷1号院,商务住宅,住宅区,住宅小区,康居巷1号,四川省,成都市,彭州市,103.9387714,30.98181575
西南市街330号院,商务住宅,住宅区,住宅区,西南市街330号,四川省,成都市,彭州市,103.939891,30.98119116
水厂家属区,商务住宅,住宅区,住宅区,新民街与新民西一巷交叉口东南50米,四川省,成都市,彭州市,103.9459357,30.98141263
西南市街206号院,商务住宅,住宅区,住宅小区,西南市街206号,四川省,成都市,彭州市,103.9387314,30.98367175
宏发商住楼,商务住宅,楼宇,商住两用楼宇,外南街4号6幢,四川省,成都市,彭州市,103.9418865,30.98034204
西南市街市委职工住宅区,商务住宅,住宅区,住宅小区,天彭镇西南市街康居巷32号,四川省,成都市,彭州市,103.9383852,30.98251301
东大街212号院,商务住宅,住宅区,住宅小区,东大街212号,四川省,成都市,彭州市,103.9460822,30.9861676
银杏春天A段,商务住宅,住宅区,住宅小区,东大街2号附近,四川省,成都市,彭州市,103.9454418,30.98621285
东顺苑(东大街),商务住宅,住宅区,住宅小区,东大街259号(彭州一中旁),四川省,成都市,彭州市,103.9466168,30.98678017
家园出租公寓,商务住宅,住宅区,住宅区,新民路154号,四川省,成都市,彭州市,103.9467556,30.98424635
城南阳光苑,商务住宅,住宅区,住宅小区,天彭镇东北市街18号,四川省,成都市,彭州市,103.9443274,30.98691863
龙顺苑,商务住宅,住宅区,住宅小区,天府南路80号,四川省,成都市,彭州市,103.9453513,30.97830059
南大街89号院,商务住宅,住宅区,住宅区,南大街89号,四川省,成都市,彭州市,103.9400525,30.9846049
中地小区,商务住宅,住宅区,住宅小区,外南街15号,四川省,成都市,彭州市,103.9411622,30.97915705
南大街61号院,商务住宅,住宅区,住宅区,南大街61号,四川省,成都市,彭州市,103.9400096,30.98468093
亨达小区,商务住宅,住宅区,住宅小区,天彭镇东南市街18号,四川省,成都市,彭州市,103.9439554,30.98569405
巴黎不夜城小区,商务住宅,住宅区,住宅小区,东大街24号,四川省,成都市,彭州市,103.9418264,30.98555814
春色满园,商务住宅,商务住宅相关,商务住宅相关,新民街与新民西三巷交叉口东北50米,四川省,成都市,彭州市,103.9458439,30.98255916
南大街335号院,商务住宅,住宅区,住宅区,南大街335号,四川省,成都市,彭州市,103.9397893,30.9793424
彭州市酿造厂住宅小区,商务住宅,住宅区,宿舍,天彭镇安仁东街38号,四川省,成都市,彭州市,103.9408697,30.9838009
园丁街13号院,商务住宅,住宅区,住宅区,园丁街13号,四川省,成都市,彭州市,103.9394051,30.98009664
南苑小区,商务住宅,住宅区,住宅小区,天贸巷6,四川省,成都市,彭州市,103.9420691,30.97907344
康居巷12号院,商务住宅,住宅区,住宅区,康居巷12号,四川省,成都市,彭州市,103.9386796,30.98248252
安仁街54号院,商务住宅,住宅区,住宅区,安仁街54号,四川省,成都市,彭州市,103.9387643,30.98419239
东大街324号院,商务住宅,住宅区,住宅小区,东大街324号,四川省,成都市,彭州市,103.9480502,30.98614559
成都市官仓电厂综合楼,商务住宅,住宅区,住宅区,安仁街54号,四川省,成都市,彭州市,103.9389309,30.98482574
海强佳苑,商务住宅,住宅区,住宅小区,致和镇朝阳南路185号,四川省,成都市,彭州市,103.9451738,30.97728253
园丁街44号院,商务住宅,住宅区,住宅区,园丁街44号,四川省,成都市,彭州市,103.938538,30.98027404
园丁巷61号院,商务住宅,商务住宅相关,商务住宅相关,南河东街与园丁巷交叉口东北150米,四川省,成都市,彭州市,103.9444884,30.97912681
南大街143号院,商务住宅,商务住宅相关,商务住宅相关,南大街143号,四川省,成都市,彭州市,103.9400405,30.98367646
佳缘公寓,商务住宅,住宅区,住宅区,致和镇萧公路,四川省,成都市,彭州市,103.9429362,30.97747174
银杏春天,商务住宅,住宅区,住宅区,东大街210号,四川省,成都市,彭州市,103.9454427,30.98622884
联升街67号院,商务住宅,住宅区,住宅区,联升街67号,四川省,成都市,彭州市,103.9386156,30.98463139
银行拍卖彭州苑商住房售楼中心,商务住宅,商务住宅相关,商务住宅相关,园丁巷与天府中路交叉口西北50米,四川省,成都市,彭州市,103.9443227,30.98093609
