名称,大类,中类,小类,地址,省,市,区,WGS84_经度,WGS84_纬度
老王小学,科教文化服务,科教文化场所,科教文化场所,北水路,陕西省,西安市,阎良区,109.377386,34.73318694
孙家小学,科教文化服务,科教文化场所,科教文化场所,关山镇孙家村,陕西省,西安市,阎良区,109.361284,34.73007859
南房小学,科教文化服务,科教文化场所,科教文化场所,水腰路,陕西省,西安市,阎良区,109.3729047,34.71378973
驸马幼儿园,科教文化服务,学校,幼儿园,驸马村,陕西省,西安市,阎良区,109.4039673,34.71717831
界坊小学,科教文化服务,科教文化场所,科教文化场所,,陕西省,西安市,阎良区,109.3992293,34.70468429
陕西省农作物品种试验站,科教文化服务,科研机构,科研机构,北塬环线,陕西省,西安市,阎良区,109.182948,34.69740409
西安阎良坤源科三考场,科教文化服务,科教文化场所,科教文化场所,富阎路附近,陕西省,西安市,阎良区,109.2239454,34.69214512
关山镇康村小学,科教文化服务,学校,小学,关山镇,陕西省,西安市,阎良区,109.3413295,34.69197977
关山中学,科教文化服务,学校,中学,闫良区关山镇,陕西省,西安市,阎良区,109.3806762,34.69369728
驰奥驾校,科教文化服务,驾校,驾校,关山镇南街,陕西省,西安市,阎良区,109.373079,34.69600443
关山镇中心小学,科教文化服务,科教文化场所,科教文化场所,阎油路,陕西省,西安市,阎良区,109.3787389,34.69222406
学成教育,科教文化服务,科教文化场所,科教文化场所,关山镇政府西隔壁,陕西省,西安市,阎良区,109.3755824,34.69277714
青春年华军事文化拓展训练基地,科教文化服务,科教文化场所,科教文化场所,航空城大道西段1号,陕西省,西安市,阎良区,109.1677465,34.68634341
坡底小学,科教文化服务,学校,小学,战备路与G5京昆高速交叉口东200米,陕西省,西安市,阎良区,109.2004378,34.68698442
荆山路小学,科教文化服务,学校,小学,302乡道,陕西省,西安市,阎良区,109.2178872,34.68551309
坤原驾校训练基地,科教文化服务,驾校,驾校,战备路与阎荆路交叉口南200米,陕西省,西安市,阎良区,109.2125167,34.684954
坤原科目三考场,科教文化服务,科教文化场所,科教文化场所,富阎路与战备路交叉口西南200米,陕西省,西安市,阎良区,109.2289783,34.6821108
坤元科三考场,科教文化服务,科教文化场所,科教文化场所,富阎路17-19号附近,陕西省,西安市,阎良区,109.2306684,34.68328864
阎良坤原科目二考场,科教文化服务,驾校,驾校,,陕西省,西安市,阎良区,109.2909942,34.68314183
康桥小学,科教文化服务,科教文化场所,科教文化场所,关山镇康桥老街西段,陕西省,西安市,阎良区,109.3035909,34.68452455
康桥中学,科教文化服务,学校,中学,关山镇东丁村,陕西省,西安市,阎良区,109.3127138,34.68556083
关山文体中心,科教文化服务,科教文化场所,科教文化场所,关山镇和谐路关山胜景南400米,陕西省,西安市,阎良区,109.3772606,34.68494301
关山永丰小学,科教文化服务,学校,小学,永丰路,陕西省,西安市,阎良区,109.3828821,34.68670639
乔家王娜幼儿园,科教文化服务,学校,幼儿园,关山镇,陕西省,西安市,阎良区,109.4073001,34.68812507
凤凰幼儿园,科教文化服务,学校,幼儿园,迎宾北路航城佳苑小区内,陕西省,西安市,阎良区,109.2098576,34.67247237
凤凰小学,科教文化服务,学校,小学,阎良村老街道,陕西省,西安市,阎良区,109.2185446,34.67362367
启蒙作业辅导学生托管,科教文化服务,培训机构,培训机构,村老街道凤凰小学附近,陕西省,西安市,阎良区,109.2188158,34.67365289
疯狂龙博士托管学习中心,科教文化服务,科教文化场所,科教文化场所,阎良街(派出所向东150米),陕西省,西安市,阎良区,109.2194682,34.67225077
相习教育,科教文化服务,科教文化场所,科教文化场所,阎良老街派出所向东一百米路南,陕西省,西安市,阎良区,109.2204247,34.67176207
阎良区第一中学,科教文化服务,学校,中学,阎良街3号,陕西省,西安市,阎良区,109.2223293,34.67439527
东方清华幼儿园,科教文化服务,学校,幼儿园,富阎路与阎良街交叉口东南200米,陕西省,西安市,阎良区,109.2304013,34.67242549
凤凰路断垣小学,科教文化服务,科教文化场所,科教文化场所,凤凰路街道凤凰路,陕西省,西安市,阎良区,109.2327306,34.68025543
官路幼儿园,科教文化服务,学校,幼儿园,新兴街道官路村五组,陕西省,西安市,阎良区,109.2524312,34.67714867
嘴子小学,科教文化服务,科教文化场所,科教文化场所,,陕西省,西安市,阎良区,109.302703,34.67698408
驰奥驾校训练场,科教文化服务,科教文化场所,科教文化场所,原嘴子小学院内,陕西省,西安市,阎良区,109.302702,34.67698208
关山新义小学,科教文化服务,科教文化场所,科教文化场所,关山镇新义村,陕西省,西安市,阎良区,109.3979525,34.67485402
新颖乐乐幼儿园,科教文化服务,学校,幼儿园,航空城大道西段附近,陕西省,西安市,阎良区,109.1707392,34.6666381
明星幼儿园,科教文化服务,学校,幼儿园,振兴街道办谭家村十一组,陕西省,西安市,阎良区,109.1783725,34.66703988
谭家小学,科教文化服务,学校,小学,航空城大道西段,陕西省,西安市,阎良区,109.1748679,34.66701046
快乐天使幼儿兴趣班,科教文化服务,科教文化场所,科教文化场所,航空城大道西段南50米,陕西省,西安市,阎良区,109.176812,34.66681623
伯乐教育,科教文化服务,科教文化场所,科教文化场所,航空城大道西段谭家小学附近,陕西省,西安市,阎良区,109.1750151,34.66708167
舞韵舞蹈工作室,科教文化服务,培训机构,培训机构,航空城大道西段北50米,陕西省,西安市,阎良区,109.1776353,34.66735425
西安市阎良区振兴初级中学,科教文化服务,学校,中学,振兴乡郑家村2组,陕西省,西安市,阎良区,109.1907681,34.66751218
西安市农村义务教育学生营养改善计划试点学校,科教文化服务,科教文化场所,科教文化场所,振兴街15号附近,陕西省,西安市,阎良区,109.1910725,34.66812713
舞韵舞蹈工作室,科教文化服务,培训机构,培训机构,振兴街道(西安市振兴派出所西侧),陕西省,西安市,阎良区,109.1924554,34.66840414
振兴综合文化站,科教文化服务,文化宫,文化宫,振兴路1,陕西省,西安市,阎良区,109.19143,34.66754225
星宇艺术培训中心(阎良分校),科教文化服务,培训机构,培训机构,前进西路与振兴路交叉口北150米,陕西省,西安市,阎良区,109.1930526,34.66346059
坤原驾校,科教文化服务,驾校,驾校,迎宾北路和宾广路的交叉口附近,陕西省,西安市,阎良区,109.2075357,34.67086096
坤原驾校练车场,科教文化服务,科教文化场所,科教文化场所,宾广路与迎宾北路交叉口西南50米,陕西省,西安市,阎良区,109.2075357,34.67086096
西飞技师学院(北区),科教文化服务,学校,高等院校,凤凰路街道凤凰北街86号,陕西省,西安市,阎良区,109.2156156,34.66571298
西飞工学院(龙风小区西),科教文化服务,学校,高等院校,凤凰北街86号,陕西省,西安市,阎良区,109.2152433,34.66556972
西安市阎良区幼儿园,科教文化服务,学校,幼儿园,凤凰东路31号,陕西省,西安市,阎良区,109.2175989,34.6644571
新舟文化传媒有限公司,科教文化服务,科教文化场所,科教文化场所,卫生防疫站对面,陕西省,西安市,阎良区,109.2139215,34.66476304
西安市阎良区方圆钱币文化研究所,科教文化服务,科研机构,科研机构,凤凰路街道延凤西路凤华小区6栋一层东门面,陕西省,西安市,阎良区,109.213232,34.66476429
中共西安市阎良区委党校,科教文化服务,学校,学校,延安街8号,陕西省,西安市,阎良区,109.2210046,34.66459609
西安博森文化教育(防疫站校区),科教文化服务,培训机构,培训机构,延凤路西段,陕西省,西安市,阎良区,109.214711,34.66483083
阎良区卫生局卫生监督(协管)培训中心,科教文化服务,培训机构,培训机构,凤凰北街80号,陕西省,西安市,阎良区,109.2140476,34.66510387
阎良广播电视台,科教文化服务,科教文化场所,科教文化场所,闫良区延安路6号,陕西省,西安市,阎良区,109.2211298,34.66341226
新姿舞蹈,科教文化服务,培训机构,培训机构,凤凰西路25号附近,陕西省,西安市,阎良区,109.2154027,34.6631191
育人教育辅导中心,科教文化服务,培训机构,培训机构,凤凰西路32附近,陕西省,西安市,阎良区,109.2143039,34.66273129
武魂搏击俱乐部,科教文化服务,培训机构,培训机构,凤凰西路183附近,陕西省,西安市,阎良区,109.2124086,34.66275818
阎良区西飞第二中学,科教文化服务,学校,中学,教育巷24号,陕西省,西安市,阎良区,109.2258605,34.66184532
小天才,科教文化服务,科教文化场所,科教文化场所,前进西路16号附近,陕西省,西安市,阎良区,109.2268963,34.66700935
艺海文化艺术中心,科教文化服务,培训机构,培训机构|科教文化服务,康复巷与胜利街交叉口南100米,陕西省,西安市,阎良区,109.2241611,34.66196599
领军教育(阎良胜利路南校区),科教文化服务,科教文化场所,科教文化场所,胜利路7号,陕西省,西安市,阎良区,109.2243158,34.66554088
西安财经学院阎良函授站,科教文化服务,学校,成人教育,胜利街199号附近,陕西省,西安市,阎良区,109.2241345,34.66838117
海伦幼儿园(凤凰路街道铁路社区居民监督委员会东北),科教文化服务,学校,幼儿园,胜利街213号(西安铁路局阎良工务段附近),陕西省,西安市,阎良区,109.2249006,34.66934386
西安领军教育(阎良胜利路北校区),科教文化服务,科教文化场所,科教文化场所,胜利街173号附近,陕西省,西安市,阎良区,109.2243238,34.66557286
视欣近视弱视防治研究中心(阎良店),科教文化服务,科研机构,科研机构,教育路(西飞二中对面),陕西省,西安市,阎良区,109.2251143,34.66261511
酷快文教,科教文化服务,培训机构,培训机构,阎良文化东路皇城丽都东侧新世纪南门对面,陕西省,西安市,阎良区,109.2264924,34.66473814
追忆教育(西安市阎良区中医医院东),科教文化服务,培训机构,培训机构,前进路新世纪购物广场正对面5楼,陕西省,西安市,阎良区,109.2265042,34.6675476
西安市阎良区领航教育培训中心,科教文化服务,培训机构,培训机构,前进东路与前进西路交叉口北150米,陕西省,西安市,阎良区,109.2241345,34.66838117
萤火虫教育乐园,科教文化服务,培训机构,培训机构,公园街与文化东路交叉口西50米,陕西省,西安市,阎良区,109.2285828,34.66492329
茅顿教育,科教文化服务,培训机构,培训机构,胜利路中段开尔男装二楼,陕西省,西安市,阎良区,109.2239439,34.66331961
电大阎良学习中心,科教文化服务,培训机构,培训机构,在中铁电气化局西铁工程公司职工教育中心附近,陕西省,西安市,阎良区,109.2255918,34.66938531
无线星空教育(阎良校区),科教文化服务,科教文化场所,科教文化场所,康复巷与胜利街交叉口东北50米,陕西省,西安市,阎良区,109.224179,34.66273032
《荆山》杂志社,科教文化服务,传媒机构,杂志社,胜利路中段,陕西省,西安市,阎良区,109.2241118,34.6650212
康思铁中教育阎良分校,科教文化服务,培训机构,培训机构,胜利街68号附近,陕西省,西安市,阎良区,109.2239378,34.66363232
昂立国际教育教育,科教文化服务,培训机构,培训机构,康复巷与胜利街交叉口南50米,陕西省,西安市,阎良区,109.224165,34.66212885
四叶草漫画培训班,科教文化服务,培训机构,培训机构,康复巷与胜利街交叉口东50米,陕西省,西安市,阎良区,109.2244291,34.66247374
胜行文化艺术教育体验中心,科教文化服务,培训机构,培训机构,前进西路99号附近,陕西省,西安市,阎良区,109.2219948,34.66739138
修尔文教育,科教文化服务,培训机构,培训机构,公园路与大良路红绿灯向西50米,陕西省,西安市,阎良区,109.228445,34.66265725
新思维教育培训中心(教育巷),科教文化服务,培训机构,培训机构,康复巷与胜利街交叉口东50米,陕西省,西安市,阎良区,109.2244291,34.66247374
西安西铁建筑安装工程有限公司职工教育培训基地,科教文化服务,培训机构,培训机构,胜利街78号,陕西省,西安市,阎良区,109.2235322,34.66891922
国巍培训,科教文化服务,培训机构,培训机构,大良路2号附近,陕西省,西安市,阎良区,109.2305062,34.66252852
西安市阎良区建筑设计室,科教文化服务,科研机构,科研机构,延安街21号,陕西省,西安市,阎良区,109.2215387,34.66616712
聚翔教育,科教文化服务,培训机构,培训机构,胜利路中段建绣大厦,陕西省,西安市,阎良区,109.2241671,34.66201795
知道教育,科教文化服务,培训机构,培训机构,大良路与教育巷交叉口南50米,陕西省,西安市,阎良区,109.2290411,34.66227994
西安戴氏教育名校冲刺(阎良校区),科教文化服务,培训机构,培训机构,胜利路中段建秀商厦2层(胜利路与康复路十字东南角),陕西省,西安市,阎良区,109.2243101,34.66205802
西安红绿蓝影视文化传播有限公司,科教文化服务,传媒机构,传媒机构,前进西路77号附近,陕西省,西安市,阎良区,109.2227021,34.6671202
金智慧教育培训学校,科教文化服务,培训机构,培训机构,前进西路101号建秀商厦5楼(近新华书店),陕西省,西安市,阎良区,109.2241621,34.66199797
西安戴氏高考中考学校阎良总校,科教文化服务,培训机构,培训机构,凤凰路街道胜利路新华书店北侧,陕西省,西安市,阎良区,109.2241621,34.66199797
丁老师托管中心,科教文化服务,学校,幼儿园,康复巷与胜利街交叉口东50米,陕西省,西安市,阎良区,109.2244291,34.66247374
西安市雅艺艺术学校,科教文化服务,培训机构,培训机构,康复巷与胜利街交叉口东50米,陕西省,西安市,阎良区,109.2244291,34.66247374
中航工业一飞院蓝天幼儿园,科教文化服务,学校,幼儿园,润天大道中段附近,陕西省,西安市,阎良区,109.2368934,34.66465019
阁楼音乐文化,科教文化服务,科教文化场所,科教文化场所,润天大道(近壳牌加油站),陕西省,西安市,阎良区,109.2355405,34.66654206
西安市第六保育院,科教文化服务,学校,幼儿园,润天路71号,陕西省,西安市,阎良区,109.2359695,34.66595473
一鸣早教幼托中心,科教文化服务,学校,幼儿园,大良路美家・大良商业街,陕西省,西安市,阎良区,109.2352478,34.66324694
西安市阎良区机动车驾驶员培训学校,科教文化服务,驾校,驾校,前进东路筑金商贸街,陕西省,西安市,阎良区,109.2347284,34.66850399
秦信教育,科教文化服务,培训机构,培训机构,润天路北段(宜皇酒店附近),陕西省,西安市,阎良区,109.2357514,34.66710862
西安市公安局阎良分局交通警察大队车辆管理所考场,科教文化服务,驾校,驾校,前进东路2号,陕西省,西安市,阎良区,109.2347294,34.66850199
西安市第一保育院(阎良分院),科教文化服务,学校,幼儿园,润天路71号,陕西省,西安市,阎良区,109.2359695,34.66595473
坤原驾校,科教文化服务,驾校,驾校,润天大道32号,陕西省,西安市,阎良区,109.2380268,34.66836213
神墨教育,科教文化服务,培训机构,培训机构,润天大道农行家属楼南(航苑小区东),陕西省,西安市,阎良区,109.2360025,34.66535828
麻张辅导班,科教文化服务,培训机构,培训机构,前进东路与筑金商业步行街交叉口南100米,陕西省,西安市,阎良区,109.2377139,34.66788848
西安新智围棋培训,科教文化服务,培训机构,培训机构,润天大道15号附近,陕西省,西安市,阎良区,109.2354795,34.66701761
爱贝乐阅悦宝贝绘本馆,科教文化服务,科教文化场所,科教文化场所,公园街5号附近,陕西省,西安市,阎良区,109.23248,34.66484639
教育部十一五规划课题教研点,科教文化服务,科研机构,科研机构,润天大道16号,陕西省,西安市,阎良区,109.2362207,34.6627577
力为机器人,科教文化服务,科教文化场所,科教文化场所,前进东路与润天大道交叉口南50米,陕西省,西安市,阎良区,109.2361157,34.66319827
TEN ONE智能钢琴,科教文化服务,培训机构,培训机构,润天路华夏医院对面,陕西省,西安市,阎良区,109.2363276,34.66382877
舞音艺术培训中心,科教文化服务,科教文化场所,科教文化场所,丰收路南50米,陕西省,西安市,阎良区,109.2336921,34.6622003
鸿雁毛线编织部,科教文化服务,培训机构,培训机构,公园街5号附近,陕西省,西安市,阎良区,109.232583,34.66481646
海月琴行,科教文化服务,培训机构,培训机构,美家・大良商业街5楼,陕西省,西安市,阎良区,109.2335451,34.66297854
秦筝音乐教室,科教文化服务,培训机构,培训机构,大良路美家・大良商业街2层C-05,陕西省,西安市,阎良区,109.2335451,34.66297854
八天英语(大良路店),科教文化服务,培训机构,培训机构,大良路美家・大良商业街,陕西省,西安市,阎良区,109.2335451,34.66297854
小螺号舞蹈,科教文化服务,培训机构,培训机构,大良路50号,陕西省,西安市,阎良区,109.233792,34.6630176
龙门教育(大良路校区),科教文化服务,培训机构,培训机构,大良路芝麻街二楼东C-08室,陕西省,西安市,阎良区,109.234015,34.66281088
博森文化教育,科教文化服务,培训机构,培训机构,大良路55号,陕西省,西安市,阎良区,109.233769,34.66301559
中国金笔作文阎良培训中心,科教文化服务,培训机构,培训机构,润天大道16号,陕西省,西安市,阎良区,109.2362167,34.6627607
卓艺教育学校,科教文化服务,培训机构,培训机构,大良路美家・大良商业街2层,陕西省,西安市,阎良区,109.2335451,34.66297854
新舞堂街舞工作室,科教文化服务,培训机构,培训机构,大良路芝麻街,陕西省,西安市,阎良区,109.2332221,34.66274062
卓艺教育(大良路),科教文化服务,培训机构,培训机构,大良路芝麻街2楼,陕西省,西安市,阎良区,109.233749,34.66301359
缤纷鸟美术馆,科教文化服务,培训机构,培训机构,大良路美家大良商业街(芝麻街)2楼C-12,陕西省,西安市,阎良区,109.2335451,34.66297854
龙飞体育舞蹈,科教文化服务,培训机构,培训机构,大良路芝麻街2楼d-20,陕西省,西安市,阎良区,109.2330321,34.66271056
小桔子作文培训,科教文化服务,培训机构,培训机构,大良路48号附近,陕西省,西安市,阎良区,109.233967,34.66288779
阿敏拉丁舞,科教文化服务,培训机构,培训机构,大良路48号附近,陕西省,西安市,阎良区,109.233995,34.66291278
艺知龙美术教育,科教文化服务,培训机构,培训机构,大良路芝麻街二楼C-25室,陕西省,西安市,阎良区,109.234003,34.66287282
魔耳国际英语,科教文化服务,培训机构,培训机构,大良路芝麻街2层,陕西省,西安市,阎良区,109.2336721,34.66290965
雅航教育,科教文化服务,培训机构,培训机构,大良路50号,陕西省,西安市,阎良区,109.2321002,34.66269416
知点教育,科教文化服务,培训机构,培训机构,润天大道金笔作文南侧小巷向里50米,陕西省,西安市,阎良区,109.2357908,34.66244285
小桔灯培训学校(大良路),科教文化服务,培训机构,培训机构,大良路美家・大良商业街2层,陕西省,西安市,阎良区,109.2335451,34.66297854
一鸣幼托中心,科教文化服务,培训机构,培训机构,大良路14号附近,陕西省,西安市,阎良区,109.2332521,34.66293745
金师顶尖教育,科教文化服务,培训机构,培训机构,新华路街道大良路13号,陕西省,西安市,阎良区,109.2323432,34.66275422
上书教育,科教文化服务,培训机构,培训机构,大良路80号附近,陕西省,西安市,阎良区,109.2322792,34.66276018
成林艺术学校,科教文化服务,培训机构,培训机构,大良路美家・大良商业街6层,陕西省,西安市,阎良区,109.2335451,34.66297854
西安博创演艺传媒有限公司,科教文化服务,传媒机构,传媒机构,前进东路5号附近,陕西省,西安市,阎良区,109.2390124,34.66900976
真主播艺术中心,科教文化服务,培训机构,培训机构,新华路街道大良路芝麻街二楼D-17,陕西省,西安市,阎良区,109.2332821,34.66275363
中华风采人物杂志社,科教文化服务,传媒机构,杂志社,大良路50号附近,陕西省,西安市,阎良区,109.2338041,34.66271988
黄岗中学网校(阎良教学区),科教文化服务,培训机构,培训机构,大良路美家・大良商业街2层东C-08室,陕西省,西安市,阎良区,109.233797,34.66284976
西安市社区科普大学阎良区福美社区分校,科教文化服务,学校,高等院校,倚天路55号附近,陕西省,西安市,阎良区,109.2471367,34.66322143
新华路街道办事处中心小学,科教文化服务,学校,小学,人民东路北50米,陕西省,西安市,阎良区,109.2492593,34.66182639
英泰思特高考顶级课堂阎良学习中心,科教文化服务,培训机构,培训机构,倚中路与倚天路交叉口西南50米,陕西省,西安市,阎良区,109.2464062,34.66392786
中航工业第一飞机设计研究院(人民东路),科教文化服务,科研机构,科研机构,人民东路1号,陕西省,西安市,阎良区,109.243661,34.66176487
陕西省农业广播电视学校阎良区分校,科教文化服务,科教文化场所,科教文化场所,人民东路25号附近,陕西省,西安市,阎良区,109.2486587,34.66174956
西安市农村义务教育学生营养改善计划试点学校,科教文化服务,科教文化场所,科教文化场所,人民东路25号附近,陕西省,西安市,阎良区,109.2491763,34.66186337
新华路街道办成人文化技术学校,科教文化服务,学校,成人教育,新华路街道人民东路25号,陕西省,西安市,阎良区,109.2486907,34.66174556
西安市阎良区西飞第一中学,科教文化服务,学校,中学,新华路街道办倚天路,陕西省,西安市,阎良区,109.2539006,34.66734314
阎良区民兴职业技能培训学校,科教文化服务,学校,学校,新兴路,陕西省,西安市,阎良区,109.2699963,34.66236616
西安市阎良区新兴中心幼儿园,科教文化服务,学校,幼儿园,人民东路与新兴路交叉口南200米,陕西省,西安市,阎良区,109.2699963,34.66236616
新兴中心小学,科教文化服务,学校,小学,屈家大队,陕西省,西安市,阎良区,109.2797585,34.66836307
大秦国术馆,科教文化服务,科教文化场所,科教文化场所,新兴街道办万南村王家组051号,陕西省,西安市,阎良区,109.2714654,34.66752308
任张小学,科教文化服务,科教文化场所,科教文化场所,交武路,陕西省,西安市,阎良区,109.3219425,34.66663458
阎良区关山镇北冯小学,科教文化服务,科教文化场所,科教文化场所,周相路,陕西省,西安市,阎良区,109.3339387,34.66732106
新马幼儿园,科教文化服务,学校,幼儿园,新马村,陕西省,西安市,阎良区,109.3562813,34.67086058
新马小学,科教文化服务,科教文化场所,科教文化场所,,陕西省,西安市,阎良区,109.3565408,34.67076129
南樊小学,科教文化服务,科教文化场所,科教文化场所,关山镇南樊村,陕西省,西安市,阎良区,109.3792,34.66233219
水寨小学,科教文化服务,学校,小学,关山镇水寨村,陕西省,西安市,阎良区,109.4073485,34.66200403
慕郑小学,科教文化服务,学校,小学,阎南路86号,陕西省,西安市,阎良区,109.1713704,34.65278873
聚宝幼儿园,科教文化服务,学校,幼儿园,振兴乡街道办,陕西省,西安市,阎良区,109.1884096,34.65802877
阎良区振兴街道办事处聚宝小学,科教文化服务,学校,小学,阎良开发区,陕西省,西安市,阎良区,109.194405,34.65654398
唐苑托管中心,科教文化服务,学校,幼儿园,人民西路221-1号,陕西省,西安市,阎良区,109.1971584,34.65798399
西安唐苑幼儿园,科教文化服务,学校,幼儿园,人民西路74-1号,陕西省,西安市,阎良区,109.1973016,34.65734578
胜蓝教育培训中心,科教文化服务,培训机构,培训机构,宝合东队,陕西省,西安市,阎良区,109.1965796,34.65880436
智慧树辅导班,科教文化服务,培训机构,培训机构,宝东组,陕西省,西安市,阎良区,109.1966457,34.65882445
西安航空职业技术学院,科教文化服务,学校,高等院校,凤凰街道迎宾大道500号,陕西省,西安市,阎良区,109.207765,34.65758126
西安航控职业技术学院多轴数控设备实训室,科教文化服务,学校,高等院校,航苑路与蓝天路交叉口西南150米,陕西省,西安市,阎良区,109.2072256,34.65737675
阎良驾校,科教文化服务,驾校,驾校,迎宾路汽车美容城西门,陕西省,西安市,阎良区,109.209724,34.65548756
阎良区青少年活动中心,科教文化服务,文化宫,文化宫,迎宾路,陕西省,西安市,阎良区,109.2102266,34.65345298
西安航空职业技术学院-西航职院,科教文化服务,学校,职业技术学校,人民西路19号附近,陕西省,西安市,阎良区,109.2082484,34.65887071
阎良区图书馆西航院分馆,科教文化服务,图书馆,图书馆,人民西路48号,陕西省,西安市,阎良区,109.2076639,34.65793381
阎良区社区教育学校,科教文化服务,学校,学校,迎宾路9号,陕西省,西安市,阎良区,109.2109203,34.65232181
阎良区职教中心,科教文化服务,学校,职业技术学校,迎宾路9号,陕西省,西安市,阎良区,109.2109173,34.65231382
国家航空产业基地培训学校,科教文化服务,学校,职业技术学校,迎宾大道500号,陕西省,西安市,阎良区,109.2100126,34.65180219
迎宾小学,科教文化服务,科教文化场所,科教文化场所,迎宾路,陕西省,西安市,阎良区,109.2102276,34.65345598
哈尼熊幼儿正向养育中心,科教文化服务,科教文化场所,科教文化场所,人民西路附近,陕西省,西安市,阎良区,109.2037538,34.66045438
西安航空职业技术学院,科教文化服务,学校,职业技术学校,凤凰路,陕西省,西安市,阎良区,109.2097543,34.65170297
卓高职业技能培训学校,科教文化服务,培训机构,培训机构,凤凰路街道迎宾大道汽车美容城,陕西省,西安市,阎良区,109.2098741,34.65594933
西安航空职业技术学院中锐汽车实训中心,科教文化服务,培训机构,培训机构,人民西路48号,陕西省,西安市,阎良区,109.2076448,34.65858221
西安微云文化传播有限公司,科教文化服务,科教文化场所,科教文化场所,西航路,陕西省,西安市,阎良区,109.204189,34.65253306
西安航空职业技术学院学术报告厅,科教文化服务,会展中心,会展中心,尚行路与西航路交叉口东南100米,陕西省,西安市,阎良区,109.2062321,34.65170952
西安市阎良区教师进修学校,科教文化服务,学校,成人教育,迎宾路9号,陕西省,西安市,阎良区,109.2109793,34.65219699
陕西荆山黄帝文化研究院,科教文化服务,科研机构,科研机构,人民路,陕西省,西安市,阎良区,109.2062906,34.65806792
学而乐辅导中心(三技校老校区),科教文化服务,培训机构,培训机构,人民西路46号,陕西省,西安市,阎良区,109.2107597,34.6578307
月芽儿歌作文(阎良校区),科教文化服务,培训机构,培训机构,迎宾大道,陕西省,西安市,阎良区,109.2103017,34.65344308
阎良国际标准舞培训中心,科教文化服务,培训机构,培训机构,崇德路与西航路交叉口北150米,陕西省,西安市,阎良区,109.2090436,34.6535035
西飞第四小学,科教文化服务,学校,小学,安全巷2号,陕西省,西安市,阎良区,109.2206712,34.65687375
阎良二小,科教文化服务,学校,小学,凤凰北街与人民西路交叉口西侧210米,陕西省,西安市,阎良区,109.2145214,34.65940352
阎良驾校,科教文化服务,驾校,驾校,人民西路17号,陕西省,西安市,阎良区,109.213715,34.65707274
西飞第一小学,科教文化服务,学校,小学,延安路,陕西省,西安市,阎良区,109.2185117,34.66071934
驰奥驾校总校,科教文化服务,科教文化场所,科教文化场所,迎宾大道500号北侧330米路西,陕西省,西安市,阎良区,109.2116166,34.65522004
西安市阎良区坤原驾校光明路分校,科教文化服务,驾校,驾校,光明路与安全巷交叉口西50米,陕西省,西安市,阎良区,109.2156105,34.65468289
乐乐成长中心,科教文化服务,培训机构,培训机构,光明路与安全巷交叉口南100米,陕西省,西安市,阎良区,109.2159608,34.65413174
凤凰街社区远程教育站点,科教文化服务,学校,学校,凤凰西路南200米,陕西省,西安市,阎良区,109.2125078,34.66090496
博雅托管中心,科教文化服务,培训机构,培训机构,人民西路南150米,陕西省,西安市,阎良区,109.2130835,34.65805816
西安市阎良区职教中心函授站,科教文化服务,学校,成人教育,迎宾大道9号阎良区职教中心综合楼2层,陕西省,西安市,阎良区,109.2115208,34.65236747
西安阎良弘武武术教育培训,科教文化服务,培训机构,培训机构,邮政大厦5层,陕西省,西安市,阎良区,109.2176564,34.65939372
盛元教育(阎良分校),科教文化服务,培训机构,培训机构,新华路街道人民西路6号,陕西省,西安市,阎良区,109.2204859,34.65909459
学易通教育(腾飞商业步行街),科教文化服务,培训机构,培训机构,腾飞商业步行街011号,陕西省,西安市,阎良区,109.2152789,34.66001077
阎良区太阳雨家庭教育服务中心,科教文化服务,培训机构,培训机构,腾飞商业步行街C单元,陕西省,西安市,阎良区,109.2152208,34.66054224
中航工业西飞党校,科教文化服务,学校,学校,铝业路109号附近,陕西省,西安市,阎良区,109.220127,34.65531766
艾尔曼舞蹈教育中心,科教文化服务,培训机构,培训机构,南孙鑫源市场东北角,陕西省,西安市,阎良区,109.2140407,34.65175884
艺博教育(航飞社区西南),科教文化服务,培训机构,培训机构,凤凰路街道鑫源建材市场东区北排,陕西省,西安市,阎良区,109.2134943,34.65177323
西安阿狸文化传媒广告公司,科教文化服务,传媒机构,传媒机构,五区十字邮政大厦4楼,陕西省,西安市,阎良区,109.2169289,34.65959682
中航工业西飞保育院五区幼儿园,科教文化服务,学校,幼儿园,凤凰南街与铝业路交叉口东北100米,陕西省,西安市,阎良区,109.2198179,34.65510857
西飞技师学院西飞大道,科教文化服务,学校,高等院校,西飞大道1号,陕西省,西安市,阎良区,109.2218616,34.65752617
中飞会展,科教文化服务,会展中心,会展中心,试飞院路(近公园路),陕西省,西安市,阎良区,109.2267473,34.65560652
西飞工学院南区,科教文化服务,学校,高等院校,凤凰北街86号,陕西省,西安市,阎良区,109.2215836,34.6569065
西安西飞高级技工学校,科教文化服务,学校,职业技术学校,新华路街道西飞大道1号,陕西省,西安市,阎良区,109.2220347,34.65726755
中航工业第一飞机设计研究院(试飞院路),科教文化服务,科研机构,科研机构,试飞院路8号,陕西省,西安市,阎良区,109.2287658,34.65385134
中国飞行试验研究院(试飞院路),科教文化服务,科研机构,科研机构,试飞院路8号中国飞行试验研究院,陕西省,西安市,阎良区,109.2299598,34.65492806
西安飞机工业公司职工工学院,科教文化服务,学校,成人教育,西飞大道12号,陕西省,西安市,阎良区,109.2221797,34.65758538
中航工业西飞保育院,科教文化服务,学校,幼儿园,白云路8号,陕西省,西安市,阎良区,109.226462,34.65861963
中飞国际会议中心,科教文化服务,会展中心,会展中心,凌云路1号,陕西省,西安市,阎良区,109.2286786,34.65582053
中国试飞员学院,科教文化服务,培训机构,培训机构,凌云路5号,陕西省,西安市,阎良区,109.2264812,34.6556593
阎良精典传媒策划中心,科教文化服务,科教文化场所,科教文化场所,千禧家园A区1栋1132室,陕西省,西安市,阎良区,109.2242004,34.65784373
梦想金话筒,科教文化服务,科教文化场所,科教文化场所,胜利路南头新时代眼镜行三楼,陕西省,西安市,阎良区,109.2241943,34.65973403
野马书法艺术,科教文化服务,科教文化场所,科教文化场所,凌云路1号,陕西省,西安市,阎良区,109.2274124,34.65619343
西安思途教育,科教文化服务,培训机构,培训机构,人民路195号栎阳大厦,陕西省,西安市,阎良区,109.2280542,34.65953982
中航工业试飞中心(中国飞行试验研究院),科教文化服务,科研机构,科研机构,试飞院路8号,陕西省,西安市,阎良区,109.2299678,34.65492806
西安市阎良区艾儿托管教育中心,科教文化服务,学校,幼儿园,胜利路南段路西100米,陕西省,西安市,阎良区,109.2240031,34.660718
阎良区第一小学,科教文化服务,学校,小学,人民东路173号,陕西省,西安市,阎良区,109.2308283,34.66087718
金手指琴行(胜利街),科教文化服务,培训机构,培训机构|购物服务,胜利路锦绣大厦,陕西省,西安市,阎良区,109.2233548,34.66135593
虾语文(阎良校区),科教文化服务,科教文化场所,科教文化场所,胜利路南段,陕西省,西安市,阎良区,109.2240031,34.66070002
伯乐艺术,科教文化服务,培训机构,培训机构,胜利路南口1号工商银行4楼,陕西省,西安市,阎良区,109.2241963,34.65969107
学大教育(公园南街),科教文化服务,培训机构,培训机构,公园南街馨园小区18号3层,陕西省,西安市,阎良区,109.2294335,34.65791909
学成教育(胜利街),科教文化服务,培训机构,培训机构,胜利路7号亚太大厦5层,陕西省,西安市,阎良区,109.2244073,34.66005889
伊顿名师培训学校(人民东路),科教文化服务,培训机构,培训机构,胜利路一号(阎良影城隔壁),陕西省,西安市,阎良区,109.2244744,34.6595464
蓝梦文化艺术培训中心(公园南街),科教文化服务,培训机构,培训机构,公园南街55号馨园小区18号楼,陕西省,西安市,阎良区,109.2294335,34.65791909
思雅艺术培训,科教文化服务,培训机构,培训机构,新华路街道胜利路南段亚太大厦7楼,陕西省,西安市,阎良区,109.2244073,34.6600519
易贝乐,科教文化服务,培训机构,培训机构,公园南街与公园街交叉口南150米,陕西省,西安市,阎良区,109.2294185,34.65826977
伯乐教育(胜利街),科教文化服务,培训机构,培训机构,人民中路与胜利街交叉口北100米,陕西省,西安市,阎良区,109.2241983,34.6598809
西安第一飞机设计研究院总体气动所,科教文化服务,科教文化场所,科教文化场所,试飞院路8号附近,陕西省,西安市,阎良区,109.2287658,34.65385234
林泉艺术教育,科教文化服务,培训机构,培训机构,胜利路华莱士,陕西省,西安市,阎良区,109.2239991,34.660719
英泰思特高考顶级课堂,科教文化服务,培训机构,培训机构,胜利路7号亚太大厦,陕西省,西安市,阎良区,109.2244073,34.6600519
亚太体育舞蹈,科教文化服务,培训机构,培训机构,胜利路7号亚太大厦7层,陕西省,西安市,阎良区,109.2244073,34.6600519
青果教育,科教文化服务,培训机构,培训机构,胜利路南亚太大厦六楼,陕西省,西安市,阎良区,109.2244073,34.6600519
胜行文化教育,科教文化服务,培训机构,培训机构,胜利路亚太大厦二楼,陕西省,西安市,阎良区,109.2242042,34.66014167
凹凸个性教育,科教文化服务,培训机构,培训机构,人民路与公园路十字东北角(洁康口腔二楼),陕西省,西安市,阎良区,109.2293603,34.65957256
西安市阎良区康思文化艺术培训中心,科教文化服务,科教文化场所,科教文化场所,胜利街15号,陕西省,西安市,阎良区,109.2239371,34.66033729
铁中教育(胜利街),科教文化服务,培训机构,培训机构,胜利路华莱士,陕西省,西安市,阎良区,109.2239991,34.660719
贝艺达教育,科教文化服务,培训机构,培训机构,胜利路锦绣大厦二楼,陕西省,西安市,阎良区,109.2239851,34.6612545
金话筒少儿口才与表演艺术中心,科教文化服务,培训机构,培训机构,胜利路南头(新时代眼镜行三楼),陕西省,西安市,阎良区,109.2245324,34.65949449
艾儿教育,科教文化服务,培训机构,培训机构,胜利路华莱士二楼,陕西省,西安市,阎良区,109.2239981,34.66058911
领军教育(阎良胜利路南校区),科教文化服务,培训机构,培训机构,胜利街9号亚太大厦2层,陕西省,西安市,阎良区,109.2243263,34.66006683
书艺教育,科教文化服务,培训机构,培训机构,胜利街南段路西,陕西省,西安市,阎良区,109.2239951,34.66075896
阿斯顿英语(胜利街),科教文化服务,培训机构,培训机构,胜利街67号3层,陕西省,西安市,阎良区,109.2241741,34.66114374
阎良陶也国学馆,科教文化服务,培训机构,培训机构,胜利路南段67号(杨健学校5楼),陕西省,西安市,阎良区,109.2241741,34.66114674
历知教育培训中心,科教文化服务,培训机构,培训机构,胜利路派出所向南70米路东,陕西省,西安市,阎良区,109.2241861,34.66106383
中航飞机西安飞机分公司空地勤培训中心,科教文化服务,培训机构,培训机构,西飞大道中段西飞宾馆,陕西省,西安市,阎良区,109.2242996,34.65641608
萌芽教育中心,科教文化服务,培训机构,培训机构,锦大厦,陕西省,西安市,阎良区,109.2234349,34.66135699
蕃茄田艺术(西安阎良校区),科教文化服务,科教文化场所,科教文化场所,人民东路与公园南街十字西南角中航城市广场逅街西1间,陕西省,西安市,阎良区,109.2285743,34.65884077
西安飞机工业公司培训中心,科教文化服务,培训机构,培训机构,西飞大道1号,陕西省,西安市,阎良区,109.2218566,34.65752317
西安杨健文化教育培训学校(胜利街),科教文化服务,培训机构,培训机构,胜利街67号4层,陕西省,西安市,阎良区,109.2241741,34.66114674
六三中学,科教文化服务,学校,中学,人民东路55号,陕西省,西安市,阎良区,109.23946,34.66054551
十五区幼儿园,科教文化服务,学校,幼儿园,科研巷58号,陕西省,西安市,阎良区,109.2327595,34.65827843
阎良区西飞第二小学,科教文化服务,学校,小学,科研巷54号,陕西省,西安市,阎良区,109.2324706,34.65778275
中国试飞院,科教文化服务,科研机构,科研机构,农飞路与研飞巷交叉口西南150米,陕西省,西安市,阎良区,109.2380638,34.65590637
西安航空职工大学,科教文化服务,学校,高等院校,人民东路48号,陕西省,西安市,阎良区,109.2402,34.65709473
十五区幼儿园-西飞保育院,科教文化服务,科教文化场所,科教文化场所,科研巷62号附近,陕西省,西安市,阎良区,109.2328725,34.65846931
蓝天驾校,科教文化服务,科教文化场所,科教文化场所,人民东路与研飞巷交叉口西南100米,陕西省,西安市,阎良区,109.2387313,34.65980502
西安航空技术局高等专科学校航空机务学院,科教文化服务,学校,高等院校,人民路48号,陕西省,西安市,阎良区,109.240341,34.65645133
启航教育(科研巷),科教文化服务,培训机构,培训机构,科研巷32号2层,陕西省,西安市,阎良区,109.2328156,34.6568857
乐桐教育,科教文化服务,培训机构,培训机构,人民东路171号附近,陕西省,西安市,阎良区,109.2325233,34.66149244
中鑫创意文化传播有限公司,科教文化服务,传媒机构,传媒机构,人民东路蓝天大楼50米,陕西省,西安市,阎良区,109.2318924,34.65964281
童馨幼儿园,科教文化服务,学校,幼儿园,农兴南街与农飞路交叉口西100米,陕西省,西安市,阎良区,109.2466335,34.65794822
陕西外国语学院文化艺术培训中心,科教文化服务,培训机构,培训机构,倚天路与柳郭路交叉口西150米,陕西省,西安市,阎良区,109.2459257,34.66089462
中航工业试飞院航空机务技工学校,科教文化服务,学校,职业技术学校,新华路街道人民东路38号华美小区西侧,陕西省,西安市,阎良区,109.241869,34.66017219
西部驾校,科教文化服务,驾校,驾校,前进东路帝豪歌城东北50米,陕西省,西安市,阎良区,109.2551809,34.6600962
坤原驾校,科教文化服务,科教文化场所,科教文化场所,新兴路与秦郭路交叉口北150米,陕西省,西安市,阎良区,109.2696929,34.66139232
西安市阎良区总工会职工培训学校,科教文化服务,学校,学校,107省道西200米,陕西省,西安市,阎良区,109.2742759,34.66142671
西安慧通计算机专修学校,科教文化服务,学校,职业技术学校,新兴街办屈家村,陕西省,西安市,阎良区,109.2742759,34.66142671
慧通职业技能培训学校,科教文化服务,培训机构,培训机构,107省道西200米,陕西省,西安市,阎良区,109.2742759,34.66142771
粟邑小学,科教文化服务,学校,小学,关山镇粟邑村,陕西省,西安市,阎良区,109.34949,34.65397747
晨曦幼儿园,科教文化服务,学校,幼儿园,阎南路附近,陕西省,西安市,阎良区,109.1681533,34.65088739
陕西省高性能碳纤维制造及应用工程研究中心,科教文化服务,科研机构,科研机构,,陕西省,西安市,阎良区,109.1793953,34.64196013
阎良科目三考场,科教文化服务,科教文化场所,科教文化场所,经发一路,陕西省,西安市,阎良区,109.1883965,34.64728731
阎良航空科技馆,科教文化服务,科技馆,科技馆,蓝天路88号阎良国家航空高技术产业基地管理委员会北侧,陕西省,西安市,阎良区,109.196893,34.64756786
国家航空产业基地飞行体验馆,科教文化服务,科技馆,科技馆,蓝天路北100米,陕西省,西安市,阎良区,109.1967919,34.64644869
地华碧水蓝庭幼儿园,科教文化服务,学校,幼儿园,蓝天路19号,陕西省,西安市,阎良区,109.1994461,34.64717606
锦业6号府邸幼儿园,科教文化服务,学校,幼儿园,航空三路锦业六号,陕西省,西安市,阎良区,109.1913545,34.64943437
重庆大学储能技术联合实验室,科教文化服务,科研机构,科研机构,航空三路附近,陕西省,西安市,阎良区,109.1954719,34.65059996
布米童艺,科教文化服务,培训机构,培训机构,润雨路与航空三路交叉口西150米,陕西省,西安市,阎良区,109.1934754,34.64968061
陕西标识行业实训基地,科教文化服务,培训机构,培训机构,航天四路东100米,陕西省,西安市,阎良区,109.192265,34.64671927
奕乐园少儿围棋,科教文化服务,培训机构,培训机构,航空三路附近,陕西省,西安市,阎良区,109.1934954,34.64963768
YOYO舞蹈工作室,科教文化服务,培训机构,培训机构,锦业六号青少年培训基地,陕西省,西安市,阎良区,109.1929547,34.64970375
尚语树,科教文化服务,培训机构,培训机构,航空四路附近,陕西省,西安市,阎良区,109.1925241,34.6495332
锐博机器人,科教文化服务,培训机构,培训机构,航空四路附近,陕西省,西安市,阎良区,109.192452,34.6495121
林夕书画艺术中心,科教文化服务,培训机构,培训机构,锦业六号,陕西省,西安市,阎良区,109.1923959,34.64949902
笔心艺术教育,科教文化服务,培训机构,培训机构,锦业六号,陕西省,西安市,阎良区,109.1920064,34.64943544
府邸青少年培训基地,科教文化服务,培训机构,培训机构,锦业6号,陕西省,西安市,阎良区,109.1926832,34.65033475
金牌传媒,科教文化服务,传媒机构,传媒机构,,陕西省,西安市,阎良区,109.1927824,34.64954361
阎良中心脑洞大开・艺空间,科教文化服务,培训机构,培训机构,航空二路附近,陕西省,西安市,阎良区,109.2009407,34.64913951
西安航空职业技术学院新校区,科教文化服务,学校,高等院校,迎宾大道500号,陕西省,西安市,阎良区,109.2060059,34.65112075
西航职院公寓管理科,科教文化服务,学校,高等院校,西航路附近,陕西省,西安市,阎良区,109.2036925,34.65164117
西安市阎良区图书馆,科教文化服务,图书馆,图书馆,蓝天路中段(近西雅图社区),陕西省,西安市,阎良区,109.2045068,34.6470044
西安市阎良区文化馆,科教文化服务,文化宫,文化宫,蓝天六路西雅图小区50米,陕西省,西安市,阎良区,109.2045068,34.6470044
西航职院,科教文化服务,学校,职业技术学校,迎宾大道500号西安航空职业技术学院新校区附近,陕西省,西安市,阎良区,109.2060129,34.65105981
佳韵吉他教室,科教文化服务,培训机构,培训机构,蓝天路文化体育中心20米,陕西省,西安市,阎良区,109.2040233,34.64683289
国防科技工业先进技术研究应用中心,科教文化服务,科研机构,科研机构,航空二路49号附近,陕西省,西安市,阎良区,109.2024669,34.64360358
中德职业教育培训中心,科教文化服务,培训机构,培训机构,迎宾大道500号,陕西省,西安市,阎良区,109.2074803,34.65113265
西北工研院运城分院高性能镁铝合金产业化应用研究中心西安研发中心,科教文化服务,科研机构,科研机构,航空二路49号附近,陕西省,西安市,阎良区,109.2022596,34.64375016
博雅文化艺术,科教文化服务,培训机构,培训机构,碧水蓝庭3期商业街,陕西省,西安市,阎良区,109.2012681,34.64919294
西航职院新媒体工作室,科教文化服务,传媒机构,传媒机构,蓝天六路21号附近,陕西省,西安市,阎良区,109.203093,34.64992187
碧水兰亭思源第六幼儿园,科教文化服务,科教文化场所,科教文化场所,西航路附近,陕西省,西安市,阎良区,109.2020939,34.64974562
恒顺驾校涝店统一报名大厅,科教文化服务,科教文化场所,科教文化场所,邑区涝店现代农贸市场西北150米,陕西省,西安市,邑区,109.211607,34.65055119
西安闫良试飞院飞机所,科教文化服务,科教文化场所,科教文化场所,,陕西省,西安市,阎良区,109.2362831,34.64678598
中国飞行试验研究院飞机所,科教文化服务,科教文化场所,科教文化场所,,陕西省,西安市,阎良区,109.2357272,34.64664393
武屯镇御宝小学,科教文化服务,科教文化场所,科教文化场所,武屯镇御宝村,陕西省,西安市,阎良区,109.327657,34.64866272
武屯镇中心小学,科教文化服务,学校,小学,武屯镇振关路,陕西省,西安市,阎良区,109.3277337,34.64861362
刘家小学,科教文化服务,科教文化场所,科教文化场所,康相路,陕西省,西安市,阎良区,109.3687279,34.64810471
庙王小学,科教文化服务,科教文化场所,科教文化场所,庙南路,陕西省,西安市,临潼区,109.4054938,34.64652108
新华小学(新马路),科教文化服务,学校,小学,徐杨街道办,陕西省,西安市,临潼区,109.1539884,34.63850395
天马教育新华辅导中心,科教文化服务,培训机构,培训机构,新马路与桥刘路交叉口西南50米,陕西省,西安市,临潼区,109.1534675,34.64027946
陕西省镁锂合金工程研究中心,科教文化服务,科研机构,科研机构,航空三路38号四方航空科技园,陕西省,西安市,阎良区,109.1958083,34.64014771
西安市特种镁锂合金材料工程实验室,科教文化服务,科研机构,科研机构,航空三路38号四方航空科技园,陕西省,西安市,阎良区,109.1958083,34.64014771
西安航空学院,科教文化服务,学校,高等院校,西二环259号,陕西省,西安市,阎良区,109.206536,34.63313124
西安航空学院-教学楼,科教文化服务,学校,学校,飞豹路附近,陕西省,西安市,阎良区,109.2042248,34.63180132
西安航空学院科教楼,科教文化服务,学校,高等院校,航空一路,陕西省,西安市,阎良区,109.2053199,34.63180079
中航工业飞机强度研究所(蓝天二路),科教文化服务,科研机构,科研机构,凤凰路街道西安航空学院蓝天路二路,陕西省,西安市,阎良区,109.2105405,34.63414135
学府考研,科教文化服务,培训机构,培训机构,斜口街道迎宾大道中段群星莱利二期建设银行二楼,陕西省,西安市,阎良区,109.2129946,34.63315703
旭东教育,科教文化服务,科教文化场所,科教文化场所,108省道与277乡道交叉口西北100米,陕西省,西安市,阎良区,109.2902641,34.63565961
小博士幼儿园,科教文化服务,学校,幼儿园,康交路与振关路交叉口西150米,陕西省,西安市,阎良区,109.3004055,34.63828479
阎良区武屯中学,科教文化服务,学校,中学,武屯街道74号,陕西省,西安市,阎良区,109.2988217,34.6369127
心悦艺术班,科教文化服务,培训机构,培训机构,振关路南50米,陕西省,西安市,阎良区,109.2944039,34.63765738
坤原驾校,科教文化服务,驾校,驾校,振关路(近康交路),陕西省,西安市,阎良区,109.3020542,34.63828592
张八小学,科教文化服务,科教文化场所,科教文化场所,相桥镇,陕西省,西安市,临潼区,109.3977967,34.6398344
爱尚艺术中心,科教文化服务,培训机构,培训机构,闫车路与阎南路交叉口北100米,陕西省,西安市,临潼区,109.1413549,34.62759154
西安航空基地第一小学,科教文化服务,学校,小学,航空基地第一小学(蓝天二路南),陕西省,西安市,阎良区,109.1879593,34.63062014
陕西航空医科职业学校,科教文化服务,学校,高等院校|科教文化服务,蓝天二路与航空四路交汇处200米路东,陕西省,西安市,阎良区,109.1978019,34.6274558
航兴社区基地幼儿园,科教文化服务,学校,幼儿园,振兴街道航空四路51号,陕西省,西安市,阎良区,109.196539,34.63043629
航空基地第一幼儿园,科教文化服务,学校,幼儿园,振兴街道航空四路航兴社区院内,陕西省,西安市,阎良区,109.1964529,34.63051509
北屯中心小学劳动实践基地,科教文化服务,学校,小学,阎平路与203乡道交叉口南150米,陕西省,西安市,阎良区,109.1995813,34.62424323
西安航空学院(阎良校区),科教文化服务,学校,高等院校,蓝天二路9号,陕西省,西安市,阎良区,109.2070427,34.63050018
西北地区高校工程训练研究会,科教文化服务,科研机构,科研机构,,陕西省,西安市,阎良区,109.205213,34.62922787
西安航空学院(学生社团联合会),科教文化服务,科教文化场所,科教文化场所,国家航空产业基地航空一路,陕西省,西安市,阎良区,109.2057385,34.63055842
三贤小学,科教文化服务,学校,小学,振关路南150米,陕西省,西安市,阎良区,109.2202085,34.62709349
远航作业辅导班,科教文化服务,培训机构,培训机构,振关路南50米,陕西省,西安市,阎良区,109.2206947,34.62791521
武屯镇红丰小学,科教文化服务,学校,小学,108省道西50米,陕西省,西安市,阎良区,109.2917647,34.62270848
西安市阎良区武屯幼儿园,科教文化服务,科教文化场所,科教文化场所,川宏路与108省道交叉口南150米,陕西省,西安市,阎良区,109.2914434,34.62371512
申东小学,科教文化服务,学校,小学,,陕西省,西安市,临潼区,109.3666923,34.62993496
启蒙幼儿园,科教文化服务,学校,幼儿园,阎油路附近,陕西省,西安市,临潼区,109.3838572,34.6300047
华鹰驾校(庙南路),科教文化服务,驾校,驾校,庙南路附近,陕西省,西安市,临潼区,109.420685,34.62165457
临潼区田市小学,科教文化服务,学校,中学,相桥街办,陕西省,西安市,临潼区,109.4251174,34.62208931
临潼区田市中学,科教文化服务,科教文化场所,科教文化场所,田市中学(关中环线北350米),陕西省,西安市,临潼区,109.4251174,34.62208931
弘文学堂托管机构,科教文化服务,科研机构,科研机构,相桥镇田市村田市医院附近,陕西省,西安市,临潼区,109.4248531,34.62187017
徐杨中心幼儿园,科教文化服务,学校,幼儿园,徐杨街道,陕西省,西安市,临潼区,109.1390245,34.62091652
优宝乐儿童乐园,科教文化服务,学校,幼儿园,208县道东50米,陕西省,西安市,临潼区,109.1430782,34.61766586
徐杨初中,科教文化服务,学校,中学,徐杨街道,陕西省,西安市,临潼区,109.1422552,34.61549334
徐杨小学,科教文化服务,科教文化场所,科教文化场所,208县道西150米,陕西省,西安市,临潼区,109.1414379,34.61764318
西安市临潼区金太阳幼儿园(临潼区徐杨乡卫生院东北),科教文化服务,学校,幼儿园,208县道附近,陕西省,西安市,临潼区,109.1453743,34.61797246
西安市临潼区徐杨高级职业中学,科教文化服务,学校,职业技术学校,208县道西100米,陕西省,西安市,临潼区,109.1417072,34.61851588
启航教育(临潼区徐杨乡卫生院东北),科教文化服务,培训机构,培训机构,,陕西省,西安市,临潼区,109.1450909,34.61852251
启明星教育(奎杨路),科教文化服务,培训机构,培训机构,阎南路与208县道交叉口东北50米,陕西省,西安市,临潼区,109.1425701,34.62147877
尚寨小学,科教文化服务,学校,小学,永尚路北100米,陕西省,西安市,临潼区,109.1715502,34.61355809
花蕾幼儿园(川宏路),科教文化服务,学校,幼儿园,北屯街道办,陕西省,西安市,阎良区,109.2176532,34.61561791
向上教育学习辅导班,科教文化服务,培训机构,培训机构,川宏路与207县道交叉口东150米,陕西省,西安市,阎良区,109.2194971,34.61625211
北屯初级中学,科教文化服务,学校,中学,北屯街道办,陕西省,西安市,阎良区,109.2310192,34.61654702
北屯中心小学,科教文化服务,学校,小学,北屯街道办,陕西省,西安市,阎良区,109.2306461,34.61757496
星空艺术文化培训机构,科教文化服务,培训机构,培训机构,川宏路北50米,陕西省,西安市,阎良区,109.2257684,34.61695653
西安市乡村学校少年宫,科教文化服务,文化宫,文化宫,北屯街道办北屯中心小学附近,陕西省,西安市,阎良区,109.2305801,34.61762388
西安华尔教育,科教文化服务,培训机构,培训机构,北屯中心小学西100米,陕西省,西安市,阎良区,109.2303831,34.61717716
成才家教(川宏路),科教文化服务,培训机构,培训机构,川宏路北50米,陕西省,西安市,阎良区,109.2323061,34.61776461
北屯李桥幼儿园,科教文化服务,学校,幼儿园,川宏路与聚北路交叉口西北50米,陕西省,西安市,阎良区,109.2538328,34.62047642
三义小学,科教文化服务,学校,小学,108省道北50米,陕西省,西安市,阎良区,109.3448284,34.61355246
金太阳教育,科教文化服务,培训机构,培训机构,108省道北50米,陕西省,西安市,阎良区,109.3433742,34.61329921
相桥初中,科教文化服务,学校,中学,相桥镇,陕西省,西安市,临潼区,109.3693616,34.6161507
相桥小学,科教文化服务,科教文化场所,科教文化场所,康相路西100米,陕西省,西安市,临潼区,109.365387,34.61695565
西安市临潼区相桥文化站,科教文化服务,科教文化场所,科教文化场所,相桥街办相桥村相桥派出所附近,陕西省,西安市,临潼区,109.3678935,34.61421099
西安市临潼区开心幼儿园(相桥镇),科教文化服务,学校,幼儿园,108省道南50米,陕西省,西安市,临潼区,109.3742135,34.61616976
艺林画廊,科教文化服务,科教文化场所,科教文化场所,108省道附近,陕西省,西安市,临潼区,109.3799621,34.61716119
北孙幼儿园,科教文化服务,学校,幼儿园,阎油路附近,陕西省,西安市,临潼区,109.385956,34.61824569
相桥中心幼儿园,科教文化服务,学校,幼儿园,阎油路与107省道交叉口西北100米,陕西省,西安市,临潼区,109.3859161,34.61829567
北顺小学,科教文化服务,学校,小学,阎油路与107省道交叉口西北100米,陕西省,西安市,临潼区,109.385938,34.61823971
天使舞蹈班,科教文化服务,科教文化场所,科教文化场所,,陕西省,西安市,临潼区,109.4285566,34.62151835
公义小学,科教文化服务,学校,小学,徐杨街道办公义村,陕西省,西安市,临潼区,109.1439863,34.60794956
金笔作文培训班,科教文化服务,培训机构,培训机构,徐杨街道办公义村公义小学附近,陕西省,西安市,临潼区,109.1443428,34.60796715
北屯秦家小学,科教文化服务,学校,小学,203乡道东50米,陕西省,西安市,阎良区,109.2024287,34.61126635
西安热工研究院阎良基地,科教文化服务,科教文化场所,科教文化场所,207县道东200米,陕西省,西安市,阎良区,109.2214846,34.61051468
李浩村小学,科教文化服务,学校,小学,北屯街道,陕西省,西安市,阎良区,109.2442564,34.60739913
任关小学,科教文化服务,科教文化场所,科教文化场所,槐东路,陕西省,西安市,阎良区,109.2719305,34.61118292
湾刘小学,科教文化服务,学校,小学,相桥镇田市,陕西省,西安市,临潼区,109.423047,34.60183887
春苗幼儿园(栎西路),科教文化服务,学校,幼儿园,栎西路北50米,陕西省,西安市,临潼区,109.1507452,34.59573539
屯刘小学,科教文化服务,学校,小学,栎西路北50米,陕西省,西安市,临潼区,109.1505078,34.59572198
新绿种苗研究所,科教文化服务,科教文化场所,科教文化场所,栎西路32号,陕西省,西安市,临潼区,109.1686648,34.59791473
秦丰蔬菜研究所,科教文化服务,科研机构,科研机构,栎阳镇朝邑村,陕西省,西安市,临潼区,109.1707241,34.59826031
彩虹幼儿园(栎西路),科教文化服务,学校,幼儿园,栎西路北50米,陕西省,西安市,临潼区,109.1795613,34.59936174
栋阳街道办朝邑小学,科教文化服务,学校,小学,栎西路北50米,陕西省,西安市,临潼区,109.1799579,34.59940243
卷子小学,科教文化服务,学校,小学,305乡道,陕西省,西安市,临潼区,109.1908661,34.60038761
胡李幼儿园,科教文化服务,学校,幼儿园,武屯镇东孙村,陕西省,西安市,阎良区,109.2759162,34.59957236
武屯镇胡李小学,科教文化服务,学校,小学,武屯镇,陕西省,西安市,阎良区,109.276019,34.59915859
新民小学,科教文化服务,学校,小学,东方大市场500米,陕西省,西安市,临潼区,109.3302865,34.59366163
铁王小学,科教文化服务,学校,小学,相桥街道办事处,陕西省,西安市,临潼区,109.380934,34.59365911
何村社区幼儿园,科教文化服务,学校,幼儿园,通远镇,陕西省,西安市,高陵区,109.0297903,34.58356905
仁村学校,科教文化服务,科教文化场所,科教文化场所,仁马路与抗日路交叉口西北50米,陕西省,西安市,高陵区,109.0597892,34.59009791
关中农耕民俗文化博物馆,科教文化服务,博物馆,博物馆,通远镇仁村高陵场畔,陕西省,西安市,高陵区,109.0552714,34.58409193
马家小学,科教文化服务,学校,小学,马额街道办,陕西省,西安市,高陵区,109.0822491,34.58411946
邓王小学,科教文化服务,科教文化场所,科教文化场所,,陕西省,西安市,临潼区,109.1545298,34.58705029
栎阳中心小学,科教文化服务,学校,小学,新马路南50米,陕西省,西安市,临潼区,109.2103066,34.58487738
金笔培训学校,科教文化服务,科教文化场所,科教文化场所,新马路与栎南路交叉口东150米,陕西省,西安市,临潼区,109.2098092,34.58524749
古镇武术馆,科教文化服务,培训机构,培训机构,新马路绿佳电动车东50米,陕西省,西安市,临潼区,109.2104197,34.58496245
栎阳初级中学,科教文化服务,学校,中学,栎阳街办,陕西省,西安市,临潼区,109.2202991,34.58649947
蓝天幼儿园(东庙路),科教文化服务,学校,幼儿园,东庙路与207县道交叉口西北150米,陕西省,西安市,临潼区,109.2230394,34.58478115
欢乐幼儿园(东庙路),科教文化服务,学校,幼儿园,栎阳街道(栎阳镇东庙村卫生所东),陕西省,西安市,临潼区,109.2461451,34.58678205
东庙小学,科教文化服务,学校,小学,栎阳镇,陕西省,西安市,临潼区,109.2426681,34.58639336
华次小学,科教文化服务,科教文化场所,科教文化场所,相桥镇华次村庙北组,陕西省,西安市,临潼区,109.4131808,34.59071273
关市小学,科教文化服务,学校,小学,袁家村路中段附近,陕西省,西安市,高陵区,108.9967228,34.5755437
桑杨幼儿园,科教文化服务,学校,幼儿园,湾子镇关市村,陕西省,西安市,高陵区,109.0044761,34.57791224
灰堆坡小学,科教文化服务,学校,小学,白生路南100米,陕西省,西安市,高陵区,109.030094,34.57370316
通远火箭小学,科教文化服务,学校,小学,火箭村1组,陕西省,西安市,高陵区,109.0617929,34.57336148
栎阳启蒙幼儿园,科教文化服务,学校,幼儿园,栎阳街办观高村荆刘十字北500米,陕西省,西安市,临潼区,109.1496239,34.57964346
阳光双语艺术幼儿园(栎荆路),科教文化服务,学校,幼儿园,栎荆路与208县道交叉口东150米,陕西省,西安市,临潼区,109.1514358,34.57756034
胡张小学,科教文化服务,学校,小学,安胡路南100米,陕西省,西安市,临潼区,109.230729,34.57221921
红舞・艺韵少儿舞蹈培训中心,科教文化服务,培训机构,培训机构,安胡路与207县道交叉口北100米,陕西省,西安市,临潼区,109.2257563,34.57282972
临潼区交口中心幼儿园,科教文化服务,科教文化场所,科教文化场所,高邱路南50米,陕西省,西安市,临潼区,109.2845784,34.57632637
交口初级中学,科教文化服务,学校,中学,南交路与高邱路交汇处东100米,陕西省,西安市,临潼区,109.2928899,34.57735923
新李小学,科教文化服务,科教文化场所,科教文化场所,相桥镇新李村,陕西省,西安市,临潼区,109.3631248,34.57999001
余家小学,科教文化服务,科教文化场所,科教文化场所,阎油路,陕西省,西安市,临潼区,109.3873881,34.5796879
清华幼儿园,科教文化服务,学校,幼儿园,油槐镇余家村,陕西省,西安市,临潼区,109.3916455,34.58060078
南李小学,科教文化服务,科教文化场所,科教文化场所,南李路附近,陕西省,西安市,临潼区,109.4029706,34.57240244
八里小学,科教文化服务,学校,小学,八里村八二组,陕西省,西安市,临潼区,109.4252262,34.58107045
快乐天使幼儿园,科教文化服务,科教文化场所,科教文化场所,相桥街办八里村,陕西省,西安市,临潼区,109.4250211,34.58042272
湾子中学,科教文化服务,学校,中学,湾子乡政府向东20米,陕西省,西安市,高陵区,108.9908381,34.56690649
北孙小学,科教文化服务,学校,小学,湾子镇湾子乡,陕西省,西安市,高陵区,109.0098614,34.56213258
高陵通远物探驾校,科教文化服务,驾校,驾校,香水路与高三路交叉口西北50米,陕西省,西安市,高陵区,109.0364613,34.56935494
何家小学,科教文化服务,学校,小学,高何路西100米,陕西省,西安市,高陵区,109.0699933,34.5636491
小豆丁幼儿园(仁马路),科教文化服务,学校,幼儿园,仁马路与吉毛路交叉口南200米,陕西省,西安市,高陵区,109.0625184,34.57086545
北樊小学,科教文化服务,学校,小学,药惠乡,陕西省,西安市,高陵区,109.0944152,34.5700131
东N小学,科教文化服务,学校,小学,白马路西50米,陕西省,西安市,高陵区,109.1142835,34.56957773
郝邢小学,科教文化服务,学校,小学,新市街道,陕西省,西安市,临潼区,109.1680639,34.56289369
栎阳中心幼儿园,科教文化服务,学校,幼儿园,齐家村小学(新关路东),陕西省,西安市,临潼区,109.1944655,34.571292
欢天幼儿园,科教文化服务,学校,幼儿园,207县道附近,陕西省,西安市,临潼区,109.2257164,34.57135486
权中小学,科教文化服务,科教文化场所,科教文化场所,交口街办,陕西省,西安市,临潼区,109.294704,34.57153595
心连心幼儿园(石家路),科教文化服务,学校,幼儿园,石家路东50米,陕西省,西安市,临潼区,109.3274439,34.56669369
槐李小学,科教文化服务,学校,小学,油槐街办,陕西省,西安市,临潼区,109.4367922,34.56406324
大夫雷小学,科教文化服务,学校,小学,湾子镇,陕西省,西安市,高陵区,108.973383,34.55792937
小精灵幼儿园,科教文化服务,学校,幼儿园,程黄路,陕西省,西安市,高陵区,108.9780018,34.55837365
杜家小学,科教文化服务,学校,小学,通远镇,陕西省,西安市,高陵区,109.0311701,34.56136113
春蕾幼儿园(C423),科教文化服务,学校,幼儿园,,陕西省,西安市,高陵区,109.0245495,34.56009141
阳光艺术培训中心,科教文化服务,科教文化场所,科教文化场所,马船路西50米,陕西省,西安市,高陵区,109.0387953,34.55617178
通远镇中学,科教文化服务,学校,中学,通远镇,陕西省,西安市,高陵区,109.0401192,34.55210091
旭东教育(马船路),科教文化服务,培训机构,培训机构,马船路东50米,陕西省,西安市,高陵区,109.0390803,34.55682163
高陵区通远镇综合文化站,科教文化服务,学校,幼儿园,南北四号路与马船路交叉口南150米,陕西省,西安市,高陵区,109.0391435,34.55229097
高陵县职业教育中心,科教文化服务,学校,职业技术学校,通远镇马船路第一综合高中,陕西省,西安市,高陵区,109.0415433,34.55367654
高陵区职业教育中心,科教文化服务,学校,中学,通远村,陕西省,西安市,高陵区,109.0414118,34.55352095
高陵区农广校魏家庙教学点,科教文化服务,学校,成人教育,北环广场,陕西省,西安市,高陵区,109.0645363,34.55501713
张家小学,科教文化服务,学校,小学,张卜乡张家村张家组,陕西省,西安市,高陵区,109.092068,34.55558934
圆梦教育中小学辅导(抗日路),科教文化服务,培训机构,培训机构,抗日路与210国道交叉口南100米,陕西省,西安市,高陵区,109.0940315,34.55800746
药惠中学,科教文化服务,学校,中学,白马路西50米,陕西省,西安市,高陵区,109.1167542,34.55228439
药惠小学,科教文化服务,学校,小学,白马路西100米,陕西省,西安市,高陵区,109.1160886,34.55487578
草王小学,科教文化服务,学校,小学,群英路与草药路交叉口东南100米,陕西省,西安市,高陵区,109.1288074,34.55954258
郭桥小学,科教文化服务,学校,小学,郭桥路附近,陕西省,西安市,临潼区,109.1507039,34.55306221
西安市临潼区新市双语学校,科教文化服务,学校,学校,新马路东50米,陕西省,西安市,临潼区,109.1840739,34.55849951
照渠小学,科教文化服务,学校,小学,旭合路与207县道交叉口东北100米,陕西省,西安市,临潼区,109.2305848,34.55204085
西安市番茄研究所,科教文化服务,科研机构,科研机构,207县道,陕西省,西安市,临潼区,109.2299367,34.55239224
南杨小学,科教文化服务,学校,小学,油槐街道,陕西省,西安市,临潼区,109.3338842,34.55276028
陕西三维发展实验学校项目实验园,科教文化服务,科教文化场所,科教文化场所,昌寨路304县附近,陕西省,西安市,临潼区,109.3540829,34.55498854
油槐中心幼儿园,科教文化服务,学校,幼儿园,油槐镇油槐商贸城,陕西省,西安市,临潼区,109.3856018,34.55823262
西安市临潼区油槐初级中学,科教文化服务,学校,中学,油高路附近,陕西省,西安市,临潼区,109.3832563,34.55920013
童心童世界,科教文化服务,科教文化场所,科教文化场所,油高路附近,陕西省,西安市,临潼区,109.3857327,34.55850134
启航托管中心,科教文化服务,科教文化场所,科教文化场所,油高路附近,陕西省,西安市,临潼区,109.3852222,34.55850559
油街小学,科教文化服务,学校,小学,油槐街办,陕西省,西安市,临潼区,109.3903834,34.55898517
高陵农作物研究所,科教文化服务,科研机构,科研机构,303县道附近,陕西省,西安市,高陵区,108.9884205,34.54395351
西张市小学,科教文化服务,科教文化场所,科教文化场所,湾子镇湾子乡,陕西省,西安市,高陵区,108.9961379,34.54544286
东张市小学,科教文化服务,学校,小学,223县道东200米,陕西省,西安市,高陵区,109.0091812,34.55161671
官路学校,科教文化服务,学校,小学,303县道北50米,陕西省,西安市,高陵区,109.0290493,34.54680273
通远镇中心幼儿园,科教文化服务,学校,幼儿园,Y223(马船路),陕西省,西安市,高陵区,109.0394727,34.54875393
通远镇中心小学,科教文化服务,学校,小学,南北四号路东150米,陕西省,西安市,高陵区,109.0408897,34.5514347
世纪星幼儿园(南北四号路),科教文化服务,学校,幼儿园,近郊高陵县南北四号路(通远国土资源所南),陕西省,西安市,高陵区,109.0399818,34.55103204
阳光托管辅导中心(通远镇卫生院东南),科教文化服务,培训机构,培训机构,马船路通远镇中心小学东南150米,陕西省,西安市,高陵区,109.0432131,34.55124779
小状元学习班(通远镇市场监督管理所东南),科教文化服务,培训机构,培训机构,通小向东50米,陕西省,西安市,高陵区,109.0414299,34.55113974
西安航空护士职业学校高陵招生办事处,科教文化服务,学校,职业技术学校,史喻路西150米,陕西省,西安市,高陵区,109.0549332,34.55091456
西安高新机电技术学院高陵招生报名处,科教文化服务,学校,职业技术学校,史喻路西150米,陕西省,西安市,高陵区,109.0549322,34.55091856
上院小学,科教文化服务,科教文化场所,科教文化场所,仁马路西100米,陕西省,西安市,高陵区,109.0642729,34.54255996
高陵区鹿苑镇北街小学,科教文化服务,学校,小学,西环城路,陕西省,西安市,高陵区,109.0799038,34.54298884
北街小学(北广场路),科教文化服务,科教文化场所,科教文化场所,鹿苑镇,陕西省,西安市,高陵区,109.0799817,34.54310171
领军教育(高泾路),科教文化服务,培训机构,培训机构,高三路与高泾路交叉口西50米,陕西省,西安市,高陵区,109.0809232,34.54498575
育才学生家园,科教文化服务,培训机构,培训机构,北广场路与西环城路交叉口西北100米,陕西省,西安市,高陵区,109.0804041,34.54297855
鹿苑学林,科教文化服务,培训机构,培训机构,西环城路825号附近,陕西省,西安市,高陵区,109.0803992,34.54163557
弗斯特托管,科教文化服务,培训机构,培训机构,北城尚品一楼,陕西省,西安市,高陵区,109.0803962,34.54177447
鸿瀚教育(西环城路),科教文化服务,培训机构,培训机构,西二环最北路,陕西省,西安市,高陵区,109.0808706,34.54170026
金榜托管辅导中心(北广场路),科教文化服务,培训机构,培训机构,北广场路与西环城路交叉口北50米,陕西省,西安市,高陵区,109.0808475,34.54276147
北关托管中心,科教文化服务,学校,幼儿园,鹿苑镇北街村北关路,陕西省,西安市,高陵区,109.0813788,34.54356957
博爱幼儿园(北广场路),科教文化服务,学校,幼儿园,北广场路240,陕西省,西安市,高陵区,109.0831517,34.54197891
爱心幼儿园(北广场路),科教文化服务,学校,幼儿园,北广场路附近,陕西省,西安市,高陵区,109.0827921,34.54204702
光辉教育辅导中心,科教文化服务,培训机构,培训机构,北关路183号附近,陕西省,西安市,高陵区,109.0816433,34.5444078
朗文英语培训中心,科教文化服务,科教文化场所,科教文化场所,北广场路100号附近,陕西省,西安市,高陵区,109.084598,34.54177346
高陵区农民科技教育培训中心,科教文化服务,培训机构,培训机构,东环城路1078,陕西省,西安市,高陵区,109.0862142,34.5427072
西安博奥培训高陵分校,科教文化服务,科教文化场所,科教文化场所,北广场路186号附近,陕西省,西安市,高陵区,109.0838159,34.54192066
陕西省农业广播电视学校高陵区分校,科教文化服务,学校,职业技术学校,东环城路1078,陕西省,西安市,高陵区,109.0862142,34.5427072
中法艺术交流协会乐朋艺术中心,科教文化服务,培训机构,培训机构,鹿苑街道北环广场北广场路路北,陕西省,西安市,高陵区,109.0829469,34.54267148
艾斯英语,科教文化服务,培训机构,培训机构,鹿苑街道鹿苑镇北广场路186号,陕西省,西安市,高陵区,109.08371,34.54192171
欣・婕少儿舞蹈培训,科教文化服务,培训机构,培训机构,北关路与北街交叉口东150米,陕西省,西安市,高陵区,109.0826243,34.54212604
高陵县农业广播电视学校,科教文化服务,学校,职业技术学校,东环城路与北广场路交叉口北100米,陕西省,西安市,高陵区,109.0863141,34.54257627
西安晚报遗失声明登报处,科教文化服务,传媒机构,传媒机构,西韩街与高交路交叉口东50米,陕西省,西安市,高陵区,109.0921132,34.54207063
西高科二考场,科教文化服务,驾校,驾校,白马路西50米,陕西省,西安市,高陵区,109.1179567,34.54213526
西高驾校科目二考训场,科教文化服务,驾校,驾校,白云路,陕西省,西安市,高陵区,109.1179557,34.54211827
西高驾校,科教文化服务,驾校,驾校,,陕西省,西安市,高陵区,109.1180007,34.54184552
焦范村宝宝幼儿园,科教文化服务,学校,幼儿园,新市街道新关路基督教堂东南150米,陕西省,西安市,临潼区,109.2012109,34.54738975
璞树幼儿园,科教文化服务,学校,幼儿园,304县道南50米,陕西省,西安市,临潼区,109.2169161,34.54268755
金钥匙英语学校,科教文化服务,培训机构,培训机构,滩张什字南200米路西附近,陕西省,西安市,临潼区,109.2318116,34.54349795
交口小星星幼儿园,科教文化服务,学校,幼儿园,交口镇安屯村庙门组,陕西省,西安市,临潼区,109.2609949,34.5477466
交口小学,科教文化服务,学校,小学,304县道南50米,陕西省,西安市,临潼区,109.2992652,34.55140702
肖家中心学校,科教文化服务,科教文化场所,科教文化场所,肖罗路与005村道交叉口西100米,陕西省,西安市,高陵区,108.9780376,34.53502326
罗家小学,科教文化服务,科教文化场所,科教文化场所,姬家乡,陕西省,西安市,高陵区,108.9956012,34.53405203
星河幼儿园,科教文化服务,学校,幼儿园,通远镇华邑村六组,陕西省,西安市,高陵区,109.0428832,34.53858207
博达学校,科教文化服务,学校,学校,通远镇华邑村,陕西省,西安市,高陵区,109.0443763,34.53945125
心方向教育辅导中心,科教文化服务,科教文化场所,科教文化场所,鹿苑街道计划生育服务站南80米,陕西省,西安市,高陵区,109.0788978,34.53651831
精典艺术幼儿园,科教文化服务,学校,幼儿园,城皇庙巷,陕西省,西安市,高陵区,109.0804774,34.53823008
西安市高陵区爱心幼儿园,科教文化服务,学校,幼儿园,西街176号附近,陕西省,西安市,高陵区,109.0801659,34.53718804
昭慧西高驾校报名点(西环城路),科教文化服务,驾校,驾校,城皇庙巷与西环城路交叉口东北50米,陕西省,西安市,高陵区,109.0799571,34.5383403
高陵益铭教育文化培训中心,科教文化服务,科教文化场所,科教文化场所,城皇庙巷与西环城路交叉口西北50米,陕西省,西安市,高陵区,109.0795876,34.53841147
高陵腾飞教育校区,科教文化服务,培训机构,培训机构,草市街252号附近,陕西省,西安市,高陵区,109.080187,34.53608684
清大学习吧,科教文化服务,培训机构,培训机构,草市街252号附近,陕西省,西安市,高陵区,109.08018,34.5360199
博望教育(东方红西路),科教文化服务,培训机构,培训机构,东方红西路与草市巷交叉口西北50米,陕西省,西安市,高陵区,109.0792874,34.53398795
清禾书画培训中心,科教文化服务,培训机构,培训机构,西环路北口北城商品斜对面,陕西省,西安市,高陵区,109.0806859,34.54102187
高陵西舞艺术培训学校,科教文化服务,培训机构,培训机构,西环城路与郭家巷交叉口东北50米,陕西省,西安市,高陵区,109.0804373,34.54031054
巴洛克少儿艺术中心(西安市高陵区水政监察大队北),科教文化服务,培训机构,培训机构,鹿苑街道县城烟草公司环城西路49号,陕西省,西安市,高陵区,109.0789978,34.53458468
秦艺拉丁舞,科教文化服务,培训机构,培训机构,西环城路与郭家巷交叉口西南50米,陕西省,西安市,高陵区,109.079965,34.53998206
城关小学,科教文化服务,学校,小学,东街153号,陕西省,西安市,高陵区,109.0836504,34.53902191
鹿苑中学,科教文化服务,学校,中学,东街197号,陕西省,西安市,高陵区,109.0829552,34.53946888
高陵区文化馆,科教文化服务,文化宫,文化宫,南街39,陕西省,西安市,高陵区,109.0830355,34.533893
高陵区图书馆,科教文化服务,图书馆,图书馆,南街82号,陕西省,西安市,高陵区,109.0823484,34.53424606
高陵县幼儿园(文卫路),科教文化服务,学校,幼儿园,文卫路101号,陕西省,西安市,高陵区,109.0865464,34.53658369
七色光美术乐园,科教文化服务,学校,幼儿园|科教文化服务,文卫路125号附近,陕西省,西安市,高陵区,109.0862867,34.53638092
安吉英语,科教文化服务,培训机构,培训机构,文卫路331,陕西省,西安市,高陵区,109.0860969,34.53635899
魔音琴行(鹿鸣西路),科教文化服务,培训机构,培训机构,东环城路与鹿鸣西路交叉口东南50米,陕西省,西安市,高陵区,109.0856162,34.53899318
高陵区幼儿园,科教文化服务,学校,幼儿园,鹿苑街道文卫路101号,陕西省,西安市,高陵区,109.0867202,34.53673852
高陵档案馆,科教文化服务,档案馆,档案馆,县门街29号,陕西省,西安市,高陵区,109.0829954,34.53598946
源创音乐,科教文化服务,培训机构,培训机构,东环城路436号,陕西省,西安市,高陵区,109.0843947,34.53714501
高陵区小太阳幼儿园,科教文化服务,学校,幼儿园,东关巷151,陕西省,西安市,高陵区,109.0854944,34.53812387
本原童画儿童美术学堂,科教文化服务,科教文化场所,科教文化场所,东关巷57号附近,陕西省,西安市,高陵区,109.0865504,34.53731214
喜来健,科教文化服务,培训机构,培训机构,文卫路125号附近,陕西省,西安市,高陵区,109.0854106,34.53639719
美琪琪,科教文化服务,培训机构,培训机构,鹿苑街道寿衣花馍花圈对面,陕西省,西安市,高陵区,109.0851899,34.53643524
高陵区剧团,科教文化服务,文艺团体,文艺团体,东方红西路49号,陕西省,西安市,高陵区,109.0812408,34.53370303
金色未来教育中心,科教文化服务,培训机构,培训机构,东环城路579,陕西省,西安市,高陵区,109.0852906,34.5383178
同心传媒(鹿鸣西路),公司企业,公司,广告装饰|科教文化服务,启鸣路与鹿鸣西路交叉口东150米,陕西省,西安市,高陵区,109.088909,34.53835479
高陵区文化馆指定合作单位,科教文化服务,科教文化场所,科教文化场所,东环城路270号附近,陕西省,西安市,高陵区,109.0845175,34.53710399
贝思特艺术中心,科教文化服务,培训机构,培训机构,文卫路与东环城路交叉口东150米,陕西省,西安市,高陵区,109.0861319,34.5361961
小贵族托管中心,科教文化服务,培训机构,培训机构,东街22,陕西省,西安市,高陵区,109.0844965,34.53816021
华乐教育(东街),科教文化服务,培训机构,培训机构,东关巷与东环城路交叉口西100米,陕西省,西安市,高陵区,109.0843327,34.53815827
面对面辅导班,科教文化服务,培训机构,培训机构,鹿苑东街鹿苑城关小学向东50米,陕西省,西安市,高陵区,109.0844475,34.53813225
华博家辅中心,科教文化服务,培训机构,培训机构,东关巷与东环城路交叉口西100米,陕西省,西安市,高陵区,109.0844475,34.53813225
文博教育,科教文化服务,培训机构,培训机构,鹿苑街道小学路口向南一百米,陕西省,西安市,高陵区,109.0845715,34.53730482
西安优课教育中心,科教文化服务,科教文化场所,科教文化场所,东街城关小学西,陕西省,西安市,高陵区,109.0843117,34.53837812
厚德教育辅导中心,科教文化服务,培训机构,培训机构,东街73,陕西省,西安市,高陵区,109.0840589,34.53848814
迪士尼同步辅导,科教文化服务,培训机构,培训机构,启鸣路与鹿鸣西路交叉口西100米,陕西省,西安市,高陵区,109.0868889,34.53873698
小时光美术托管教育,科教文化服务,培训机构,培训机构,鹿苑街道城关小学(东街东口),陕西省,西安市,高陵区,109.0843217,34.53819026
鑫华音乐工作室,科教文化服务,培训机构,培训机构,东关巷与东环城路交叉口西100米,陕西省,西安市,高陵区,109.0842627,34.53820227
向日葵学生托管中心,科教文化服务,培训机构,培训机构,东街14,陕西省,西安市,高陵区,109.0842058,34.53820829
国文小学堂,科教文化服务,培训机构,培训机构,东环城路500号附近,陕西省,西安市,高陵区,109.0846873,34.53770847
奥琳德健康文化活动中心,科教文化服务,文化宫,文化宫,南新街十字南30米迈德思客二楼,陕西省,西安市,高陵区,109.0829647,34.53268992
源达托管中心,科教文化服务,科教文化场所,科教文化场所,鹿苑街道东街城关小学向东20米,陕西省,西安市,高陵区,109.0841039,34.53839919
高陵县图书馆(南街),科教文化服务,图书馆,图书馆,南街82号附近,陕西省,西安市,高陵区,109.0823484,34.53424606
高陵艺之舞蹈工作室,科教文化服务,培训机构,培训机构,鹿鸣西路35号,陕西省,西安市,高陵区,109.0884284,34.53873261
行知特色教育,科教文化服务,培训机构,培训机构,东环城路与东街交叉口西100米,陕西省,西安市,高陵区,109.0841039,34.53848412
陕西艺海艺术培训学校,科教文化服务,科教文化场所,科教文化场所,东环城路140号附近,陕西省,西安市,高陵区,109.0838455,34.53453018
新起点教育(东街),科教文化服务,培训机构,培训机构,东街26号附近,陕西省,西安市,高陵区,109.0835975,34.53828648
蓓蕾之家(东街),科教文化服务,培训机构,培训机构,东街28号附近,陕西省,西安市,高陵区,109.0835525,34.5382875
知心托管,科教文化服务,科教文化场所,科教文化场所,东街160号附近,陕西省,西安市,高陵区,109.083178,34.53832164
颐园少儿书画培训中心,科教文化服务,培训机构,培训机构,东关巷与东环城路交叉口西100米,陕西省,西安市,高陵区,109.0845015,34.53818919
启博辅导托管中心,科教文化服务,培训机构,培训机构,东环城路与东街交叉口西50米,陕西省,西安市,高陵区,109.0846063,34.53840299
青扬教育中心青扬美术,科教文化服务,科教文化场所,科教文化场所,鹿苑街道小学东路口,陕西省,西安市,高陵区,109.0847532,34.53816211
柏林教育,科教文化服务,科教文化场所,科教文化场所,东环城路与宋家巷交叉口西北50米,陕西省,西安市,高陵区,109.0854602,34.54054607
启博课外辅导班,科教文化服务,培训机构,培训机构,东环城路与东街交叉口西100米,陕西省,西安市,高陵区,109.0845174,34.53841901
启智教育(东街),科教文化服务,培训机构,培训机构,城关小学50米41号,陕西省,西安市,高陵区,109.0844825,34.53842502
城关小学-华博教育,科教文化服务,科教文化场所,科教文化场所,鹿苑镇东街城关小学东口,陕西省,西安市,高陵区,109.0832209,34.53864338
小滴嗒少儿托管中心,科教文化服务,培训机构,培训机构,城关小学东口,陕西省,西安市,高陵区,109.0844885,34.53835906
鑫鑫托管培训中心,科教文化服务,培训机构,培训机构,东街53号附近,陕西省,西安市,高陵区,109.0835925,34.53862323
骐迹教育,科教文化服务,培训机构,培训机构,东街城关小学对面,陕西省,西安市,高陵区,109.0844046,34.53836809
小牛津学生家园,科教文化服务,培训机构,培训机构,东街160附近,陕西省,西安市,高陵区,109.083157,34.53832964
乐天教育(东街),科教文化服务,培训机构,培训机构,东环城路与东街交叉口西100米,陕西省,西安市,高陵区,109.0841738,34.5384801
圣达托管中心,科教文化服务,培训机构,培训机构,东街城关小学附近(鹿苑中学附近),陕西省,西安市,高陵区,109.083197,34.53833262
达芬奇画室,科教文化服务,科教文化场所,科教文化场所,东方红东路与文体路交叉口东北150米,陕西省,西安市,高陵区,109.0854158,34.53381411
智爱乐园,科教文化服务,学校,幼儿园,东街(鹿苑中学对门)220号,陕西省,西安市,高陵区,109.0823789,34.53841694
陕西启迪书院高陵分校,科教文化服务,培训机构,培训机构,启鸣路与鹿鸣西路交叉口西北50米,陕西省,西安市,高陵区,109.0871806,34.53890777
北京书香源城关启智分校,科教文化服务,培训机构,培训机构,东街41号,陕西省,西安市,高陵区,109.0844046,34.53836809
宏道书院,科教文化服务,培训机构,培训机构,启鸣路与鹿鸣西路交叉口西北50米,陕西省,西安市,高陵区,109.0872515,34.53894073
汇文教育,科教文化服务,培训机构,培训机构,鹿苑街道城关小学对面,陕西省,西安市,高陵区,109.0835935,34.53829048
中国音乐学院社会艺术水平培训考级点高陵区音乐教育中心,科教文化服务,科教文化场所,科教文化场所,东环城路270号附近,陕西省,西安市,高陵区,109.0845175,34.53710399
西安斯瑞高陵文化培训中心,科教文化服务,培训机构,培训机构,鹿苑街道高陵县东街16号城关小学斜对面,陕西省,西安市,高陵区,109.0841009,34.53821433
黛菲尔舞蹈工作室,科教文化服务,培训机构,培训机构,中街69号2层,陕西省,西安市,高陵区,109.0825239,34.53645234
金笔作文(东街),科教文化服务,培训机构,培训机构,鹿苑街道高陵区体育场门口东2楼,陕西省,西安市,高陵区,109.082325,34.53842096
成长快乐小饭桌(东街),科教文化服务,培训机构,培训机构,东街与中街交叉口东50米,陕西省,西安市,高陵区,109.0824688,34.5386787
昭慧西高驾校报名点,科教文化服务,驾校,驾校,地税局斜对面,陕西省,西安市,高陵区,109.0853324,34.54022236
先锋教育,科教文化服务,驾校,驾校,东街口牛角巷,陕西省,西安市,高陵区,109.0851347,34.53940004
物探驾校(二运司报名联络点),科教文化服务,驾校,驾校|生活服务,鹿歌路与西韩街交叉口旁,陕西省,西安市,高陵区,109.0899235,34.53493617
西安嘉泽音乐艺术学校报名咨询处,科教文化服务,培训机构,培训机构,东环城路与鹿鸣西路交叉口东南50米,陕西省,西安市,高陵区,109.0856461,34.53898518
签约国际教育,科教文化服务,培训机构,培训机构,鹿苑街道城关小学西口,陕西省,西安市,高陵区,109.0822102,34.53833508
博诚教育(东街),科教文化服务,培训机构,培训机构,中街281,陕西省,西安市,高陵区,109.0822661,34.53833805
星星河托教中心,科教文化服务,培训机构,培训机构,东街与中街交叉口东南50米,陕西省,西安市,高陵区,109.082349,34.53842095
希望星学生家园,科教文化服务,培训机构,培训机构,东街172,陕西省,西安市,高陵区,109.0829443,34.5383757
城关小学-咸阳A教育,科教文化服务,培训机构,培训机构,东街165号附近,陕西省,西安市,高陵区,109.083154,34.53861143
中国音乐学院考级吉他教室,科教文化服务,培训机构,培训机构,东环城路与鹿鸣西路交叉口东50米,陕西省,西安市,高陵区,109.085766,34.53897814
追忆教育(高陵分校),科教文化服务,培训机构,培训机构,东方红东路222号附近,陕西省,西安市,高陵区,109.0859364,34.53245494
皮肤病研究所,科教文化服务,科研机构,科研机构,东方红路230号,陕西省,西安市,高陵区,109.0868785,34.53237472
农村数字电影服务站,科教文化服务,科教文化场所,科教文化场所,东方红东路432号附近,陕西省,西安市,高陵区,109.0845409,34.53247742
七色光艺术培训,科教文化服务,培训机构,培训机构,文卫路与西韩街交叉口北150米,陕西省,西安市,高陵区,109.090317,34.53646598
温馨学生家园,科教文化服务,培训机构,培训机构,东街与中街交叉口东50米,陕西省,西安市,高陵区,109.0825118,34.53867768
学而优中小学文化辅导学校,科教文化服务,培训机构,培训机构,西街与中街交汇向北25米,陕西省,西安市,高陵区,109.082494,34.53669617
鹏文教育(东方红东路),科教文化服务,培训机构,培训机构,东方红东路与南新街十字向东30米老凤祥银楼5楼,陕西省,西安市,高陵区,109.0830965,34.5330426
康春皮肤病疑难病综合研究所,科教文化服务,科研机构,科研机构,东方红东街80号,陕西省,西安市,高陵区,109.0868515,34.5322678
高陵书协书法培训中心,科教文化服务,培训机构,培训机构,东街与北街交叉口东50米,陕西省,西安市,高陵区,109.0824119,34.5385788
指南针培优教育,科教文化服务,培训机构,培训机构,东方红路华尔商城内,陕西省,西安市,高陵区,109.0849474,34.53307083
小天才学习吧,科教文化服务,培训机构,培训机构,鹿苑街道城关小学向西100米,陕西省,西安市,高陵区,109.082347,34.53858583
和声音乐培训中心,科教文化服务,培训机构,培训机构,西韩街1133,陕西省,西安市,高陵区,109.0907117,34.53654188
聿辰教育,科教文化服务,培训机构,培训机构,鹿苑街道北街137号,陕西省,西安市,高陵区,109.0820842,34.53971811
西安唯爱艺术文化传播有限公司,科教文化服务,科教文化场所,科教文化场所,鹿歌路与西韩街交叉口旁,陕西省,西安市,高陵区,109.0900014,34.53507006
方大英语培训中心,科教文化服务,培训机构,培训机构,正街高陵图书馆,陕西省,西安市,高陵区,109.0823633,34.534321
法治文化宣传广场,科教文化服务,科教文化场所,科教文化场所,县门街37号附近,陕西省,西安市,高陵区,109.0832761,34.53582845
金笔作文(文体路),科教文化服务,培训机构,培训机构,东方红东路与文体路交叉口南150米,陕西省,西安市,高陵区,109.0842523,34.53191495
西安市高陵区鹿苑健康教育中心,科教文化服务,科教文化场所,科教文化场所,盐店巷与草市街交叉口东50米,陕西省,西安市,高陵区,109.0814633,34.53591926
五实教育,科教文化服务,培训机构,培训机构,体育场门口西侧2层,陕西省,西安市,高陵区,109.0840505,34.53192502
领军教育(高陵北环校区),科教文化服务,培训机构,培训机构,北环广场向南100米(地税局对面),陕西省,西安市,高陵区,109.0856599,34.54136938
嘉晨舞蹈,科教文化服务,培训机构,培训机构,南新街653号附近,陕西省,西安市,高陵区,109.0833074,34.53236801
博艺舞蹈,科教文化服务,培训机构,培训机构,东方红东路与文体路交叉口南150米,陕西省,西安市,高陵区,109.0842353,34.53190296
博识培优,科教文化服务,培训机构,培训机构,南新街141号三楼,陕西省,西安市,高陵区,109.0828968,34.53241716
爱心培幼儿园(牛角巷),科教文化服务,学校,幼儿园,牛角巷63,陕西省,西安市,高陵区,109.0844893,34.53979099
高陵县剧团,科教文化服务,文艺团体,文艺团体,东方红西路与高茹路交叉口东50米,陕西省,西安市,高陵区,109.0811359,34.53369409
高陵区博艺舞蹈培训中心,科教文化服务,培训机构,培训机构,东街160,陕西省,西安市,高陵区,109.0830881,34.53834066
鹿歌幼儿园,科教文化服务,学校,幼儿园,近郊东二环路199号,陕西省,西安市,高陵区,109.0958015,34.53490511
鹿苑文化站,科教文化服务,文化宫,文化宫,南街文化馆院内,陕西省,西安市,高陵区,109.0953826,34.53641195
西安市高陵区高家小学,科教文化服务,学校,小学,{陵县鹿苑镇,陕西省,西安市,高陵区,109.0999737,34.53652576
阳光乐园托管中心,科教文化服务,学校,幼儿园,{陵县鹿苑镇西安市高陵区高家小学附近,陕西省,西安市,高陵区,109.0996558,34.53648669
金贝贝托管中心,科教文化服务,科教文化场所,科教文化场所,鹿景路与鹿鸣东路交叉口西北50米,陕西省,西安市,高陵区,109.0993029,34.53637268
富民驾校,科教文化服务,科教文化场所,科教文化场所,鹿景路与鹿歌路交叉口西南150米,陕西省,西安市,高陵区,109.0979908,34.53244029
乐之教育培训中心,科教文化服务,培训机构,培训机构,鹿鸣东路南50米,陕西省,西安市,高陵区,109.0976685,34.53634533
高陵区小博士托管教育,科教文化服务,科教文化场所,科教文化场所,鹿景路与鹿鸣东路交叉口西100米,陕西省,西安市,高陵区,109.0988501,34.53617272
天才辅导中心(鹿鸣东路),科教文化服务,培训机构,培训机构,鹿景路与鹿鸣东路交叉口西150米,陕西省,西安市,高陵区,109.0981574,34.53619054
童心教育,科教文化服务,培训机构,培训机构,鹿景路与鹿鸣东路交叉口西100米,陕西省,西安市,高陵区,109.0984602,34.53650338
泾渭驾校,科教文化服务,驾校,驾校,鹿景路与鹿歌路交叉口西南150米,陕西省,西安市,高陵区,109.0980298,34.53233338
天天向上托管中心,科教文化服务,培训机构,培训机构,鹿景路与鹿鸣东路交叉口西150米,陕西省,西安市,高陵区,109.0982853,34.53654231
领步教育,科教文化服务,培训机构,培训机构,鹿景路与鹿鸣东路交叉口西100米附近,陕西省,西安市,高陵区,109.0982663,34.53631348
小蚂蚁辅导班,科教文化服务,培训机构,培训机构,县城内高家小学斜对面,陕西省,西安市,高陵区,109.0997587,34.53676252
未来星托管辅导中心,科教文化服务,科教文化场所,科教文化场所,后高路与鹿鸣东路交叉口南50米,陕西省,西安市,高陵区,109.0996398,34.536076
小博士托管辅导中心(鹿鸣东路),科教文化服务,培训机构,培训机构,鹿景路与鹿鸣东路交叉口西100米,陕西省,西安市,高陵区,109.0985312,34.53612168
睿成教育托管中心,科教文化服务,培训机构,培训机构,鹿景路与鹿鸣东路交叉口西50米,陕西省,西安市,高陵区,109.099103,34.53612781
高陵博文托管高陵分部,科教文化服务,培训机构,培训机构,鹿景路与鹿鸣东路交叉口西50米,陕西省,西安市,高陵区,109.099227,34.53616582
小精灵托管辅导中心(鹿鸣东路),科教文化服务,培训机构,培训机构,高家村国府酒店向里400米,陕西省,西安市,高陵区,109.0987941,34.53618469
爱心托管辅导中心(后高路),科教文化服务,培训机构,培训机构,鹿景路与鹿鸣东路交叉口北150米,陕西省,西安市,高陵区,109.0995228,34.53711319
喜洋洋托管中心,科教文化服务,培训机构,培训机构,鹿景路与鹿鸣东路交叉口北50米,陕西省,西安市,高陵区,109.0994219,34.53634673
聚优学堂,科教文化服务,科教文化场所,科教文化场所,鹿苑街道高家小学北侧200米,陕西省,西安市,高陵区,109.1002555,34.53749312
精锐教育(鹿鸣东路),科教文化服务,培训机构,培训机构,后高路与鹿鸣东路交叉口南50米,陕西省,西安市,高陵区,109.0996408,34.536075
七彩阳光托管中心,科教文化服务,培训机构,培训机构,高家小学正对面,陕西省,西安市,高陵区,109.0996088,34.53624886
求真小学堂,科教文化服务,培训机构,培训机构,{陵县鹿苑镇西安市高陵区高家小学附近,陕西省,西安市,高陵区,109.0996298,34.53638077
小蜗牛儿童音乐培训专家,科教文化服务,培训机构,培训机构,东二环路与鹿歌路交叉口西南100米,陕西省,西安市,高陵区,109.0944814,34.53354501
小红帽托教中心,科教文化服务,培训机构,培训机构,高家小学对面,陕西省,西安市,高陵区,109.0997148,34.5366296
秦锐托管,科教文化服务,培训机构,培训机构,后高路与鹿鸣东路交叉口南50米,陕西省,西安市,高陵区,109.0996668,34.53606801
金太阳托管辅导中心(后高路),科教文化服务,培训机构,培训机构,东二环路高家小学,陕西省,西安市,高陵区,109.0997368,34.53670156
阿芙罗拉教育中心,科教文化服务,培训机构,培训机构,东二环路151号附近,陕西省,西安市,高陵区,109.0946503,34.53346208
快乐上小学,科教文化服务,培训机构,培训机构,东二环路,陕西省,西安市,高陵区,109.0950381,34.53274264
莫贝儿当代儿童艺术,科教文化服务,培训机构,培训机构,鹿苑街道杨林二期东门,陕西省,西安市,高陵区,109.0947752,34.53383981
教学楼,科教文化服务,科教文化场所,科教文化场所,,陕西省,西安市,高陵区,109.1024235,34.5323447
西高驾校,科教文化服务,驾校,驾校,高交路东路100米永家车队有限公司紧西隔壁,陕西省,西安市,高陵区,109.1111411,34.54031373
山东寿光驻高陵蔬菜技术平台,科教文化服务,科研机构,科研机构,白马路西50米,陕西省,西安市,高陵区,109.1188418,34.53520034
银王中心小学,科教文化服务,学校,小学,304县道南50米,陕西省,西安市,高陵区,109.1276231,34.5388498
东樊小学,科教文化服务,学校,小学,药惠乡东樊村,陕西省,西安市,高陵区,109.1405367,34.53859187
药惠中心幼儿园,科教文化服务,学校,幼儿园,东一街31,陕西省,西安市,高陵区,109.1404736,34.53912037
南程小学,科教文化服务,学校,小学,新市街道办,陕西省,西安市,临潼区,109.1666227,34.5383847
新市初级中学,科教文化服务,学校,中学,新市乡新市街道,陕西省,西安市,临潼区,109.1808578,34.53756569
新市中心幼儿园,科教文化服务,学校,幼儿园,新马路南50米,陕西省,西安市,临潼区,109.1782536,34.53808058
小天使幼儿园,科教文化服务,学校,幼儿园,新马路北50米,陕西省,西安市,临潼区,109.1854276,34.53872594
华鹰驾校,科教文化服务,驾校,驾校,207县道西50米,陕西省,西安市,临潼区,109.232533,34.53769764
马寨村文化广场,科教文化服务,科教文化场所,科教文化场所,何寨街道,陕西省,西安市,临潼区,109.3141595,34.53240929
姬家二中,科教文化服务,学校,中学,湾子镇姬家一中,陕西省,西安市,高陵区,108.9969481,34.5259379
邓家塬学校,科教文化服务,学校,小学,江毗路北50米,陕西省,西安市,高陵区,109.0087476,34.522119
车张小学,科教文化服务,学校,小学,通远镇车张村,陕西省,西安市,高陵区,109.0411785,34.531569
圆梦教育中小学辅导(马船路),科教文化服务,培训机构,培训机构,马船路西50米,陕西省,西安市,高陵区,109.0418059,34.52548309
古城学校,科教文化服务,学校,学校,鹿苑街道古城村,陕西省,西安市,高陵区,109.0638131,34.5302967
草根书画楼,科教文化服务,培训机构,培训机构,商家村涝池,陕西省,西安市,高陵区,109.0754968,34.52687288
陕西秦风书画院(高陵分院),科教文化服务,培训机构,培训机构,商家村涝池,陕西省,西安市,高陵区,109.0754968,34.52687288
草市小学,科教文化服务,学校,小学,乔家巷与高茹路交汇处东南100米,陕西省,西安市,高陵区,109.0798529,34.53064208
西高驾校,科教文化服务,科教文化场所,科教文化场所,军休巷西50米,陕西省,西安市,高陵区,109.0807159,34.52964132
开心学堂(高陵区就业服务局西),科教文化服务,培训机构,培训机构,草市小学门前向南30米,陕西省,西安市,高陵区,109.0788844,34.52980729
未来之星小饭桌,科教文化服务,科教文化场所,科教文化场所,内草市小学向南,陕西省,西安市,高陵区,109.0793057,34.53022272
金榜托管辅导中心,科教文化服务,科教文化场所,科教文化场所,乔家巷与高茹路交叉口南150米,陕西省,西安市,高陵区,109.0793287,34.5305055
小天使托管辅导班,科教文化服务,培训机构,培训机构,乔家巷与高茹路交叉口南100米,陕西省,西安市,高陵区,109.0793257,34.53079129
新起点辅导中心,科教文化服务,科教文化场所,科教文化场所,鹿苑镇草市小学北,陕西省,西安市,高陵区,109.0794854,34.53114193
小港湾托教中心,科教文化服务,培训机构,培训机构,乔家巷与高茹路交叉口东50米,陕西省,西安市,高陵区,109.0796961,34.53156549
高陵区第四中学,科教文化服务,学校,中学,鹿苑街道南新街300号,陕西省,西安市,高陵区,109.0821101,34.52908699
紫蔷薇理发店四中,科教文化服务,学校,中学,南新街34号-54号,陕西省,西安市,高陵区,109.0829631,34.52905261
鹿苑街道四中,科教文化服务,学校,中学,鹿苑街道,陕西省,西安市,高陵区,109.083036,34.52840205
祥顺博物馆,科教文化服务,博物馆,博物馆,南新街226,陕西省,西安市,高陵区,109.0818137,34.52649604
领航教育,科教文化服务,科教文化场所,科教文化场所,南环西路26号附近,陕西省,西安市,高陵区,109.0872597,34.52597232
豆豆家教,科教文化服务,培训机构,培训机构,南环西路与迎宾路交口旁,陕西省,西安市,高陵区,109.0868861,34.52548378
西工大鸿志教育(高陵一中校区),科教文化服务,培训机构,培训机构,鹿苑街道高陵区财政局对面,陕西省,西安市,高陵区,109.0861887,34.52622645
华乐教育中心,科教文化服务,科教文化场所,科教文化场所,南环东路与西韩街交叉口西南150米,陕西省,西安市,高陵区,109.0875954,34.52565547
红黄蓝亲子园(上林一路),科教文化服务,学校,幼儿园,上林一路五号公馆,陕西省,西安市,高陵区,109.085157,34.52375459
小手掌儿童智力开发乐园(上林一路),科教文化服务,学校,幼儿园,上林一路5号附近,陕西省,西安市,高陵区,109.0862239,34.52376523
教师进修学校,科教文化服务,学校,成人教育,南新街349,陕西省,西安市,高陵区,109.0843333,34.53060189
西安市高陵区行政学校,科教文化服务,学校,学校,南新街130号,陕西省,西安市,高陵区,109.0825703,34.53136309
高陵区教育局教研室,科教文化服务,科研机构,科研机构,上林一路南50米,陕西省,西安市,高陵区,109.0860661,34.52350147
高陵区第二幼儿园,科教文化服务,学校,幼儿园,榆楚镇皇册上林一路第二幼儿园,陕西省,西安市,高陵区,109.0855118,34.52236748
英才学前教育,科教文化服务,科教文化场所,科教文化场所,鹿苑街道上林一路,陕西省,西安市,高陵区,109.0869582,34.52356116
老师进修学校,科教文化服务,科教文化场所,科教文化场所,南新街71号,陕西省,西安市,高陵区,109.0832287,34.52962207
朝阳国学堂,科教文化服务,培训机构,培训机构,南新村271,陕西省,西安市,高陵区,109.0834145,34.52883856
多乐星儿童乐园,体育休闲服务,休闲场所,游乐场|科教文化服务,军休巷与鹿岭路交叉口西北100米,陕西省,西安市,高陵区,109.0828751,34.52987704
童学汇青少儿教育中心,科教文化服务,科教文化场所,科教文化场所,乔家巷与南新街交叉口东南50米,陕西省,西安市,高陵区,109.0831387,34.53066634
高陵区教育局廉政教育展厅,科教文化服务,科教文化场所,科教文化场所,上林一路5号附近,陕西省,西安市,高陵区,109.0856705,34.52351659
高陵一中店(菜鸟驿站),科教文化服务,科教文化场所,科教文化场所,昭慧小区,陕西省,西安市,高陵区,109.0883619,34.5231771
筝语音乐工作室,科教文化服务,科教文化场所,科教文化场所,军休巷与鹿岭路交叉口西北50米,陕西省,西安市,高陵区,109.083017,34.52945729
西安市高陵区广播电视站,科教文化服务,传媒机构,电视台,上林一路上林1路5号附近,陕西省,西安市,高陵区,109.0847814,34.52374874
向上学堂(军休巷),科教文化服务,培训机构,培训机构,南新街与鹿岭路交叉口西北50米,陕西省,西安市,高陵区,109.0827133,34.52952138
环球网校(高陵学习中心),科教文化服务,培训机构,培训机构,昭慧路571,陕西省,西安市,高陵区,109.0888114,34.52369363
梦露艺术教育中心,科教文化服务,科教文化场所,科教文化场所,鹿苑街道鹿苑镇陈家市场博豪酒店向东100米,陕西省,西安市,高陵区,109.0904237,34.5279113
高陵区残疾人艺术团,科教文化服务,文艺团体,文艺团体,军休巷与南新街交叉口东南50米,陕西省,西安市,高陵区,109.0835364,34.52905235
西安市高陵区幼儿教师培训基地,科教文化服务,科教文化场所,科教文化场所,上林一路南50米,陕西省,西安市,高陵区,109.0860631,34.52337057
旭东教育(高陵分校),科教文化服务,培训机构,培训机构,军休巷与鹿岭路交叉口西北100米,陕西省,西安市,高陵区,109.0828661,34.52988004
宇华小吃部,科教文化服务,学校,幼儿园,乔家61,陕西省,西安市,高陵区,109.0811891,34.53131382
优图文化教育中心(高陵分校),科教文化服务,培训机构,培训机构,南新街84号,陕西省,西安市,高陵区,109.0828661,34.52988004
西安广播电视大学高陵分校,科教文化服务,学校,成人教育,南新街349,陕西省,西安市,高陵区,109.0833426,34.52961003
一树教育,科教文化服务,培训机构,培训机构,西韩路陈家市场,陕西省,西安市,高陵区,109.0895822,34.52936934
南鹿书院,科教文化服务,培训机构,培训机构,高陵一中路北泾渭上城(南门),陕西省,西安市,高陵区,109.0899365,34.52346461
夏加儿美术教育,科教文化服务,培训机构,培训机构,南新街91号3层(区就业局对面),陕西省,西安市,高陵区,109.0831248,34.53035957
童学汇青少年教育中心,科教文化服务,培训机构,培训机构,南新街467号2层,陕西省,西安市,高陵区,109.0831707,34.53069131
高陵区教学研究室党支部,科教文化服务,科教文化场所,科教文化场所,上林一路南50米,陕西省,西安市,高陵区,109.0860651,34.52350147
高陵区委员会党校,科教文化服务,学校,学校,南新街130号,陕西省,西安市,高陵区,109.0825703,34.53136309
教师进修学校-高陵画院,科教文化服务,科教文化场所,科教文化场所,区体育场内,陕西省,西安市,高陵区,109.0840616,34.53145836
宇华托管,科教文化服务,培训机构,培训机构,乔家巷118号附近,陕西省,西安市,高陵区,109.081288,34.53130877
华商报高陵发行站,科教文化服务,传媒机构,报社,鹿岭路137号附近,陕西省,西安市,高陵区,109.0872944,34.52849047
大美高陵杂志社,科教文化服务,传媒机构,杂志社,南新街102号,陕西省,西安市,高陵区,109.0831989,34.52733077
雅韵广告传媒有限公司,科教文化服务,传媒机构,传媒机构,西韩街东150米,陕西省,西安市,高陵区,109.0905665,34.52867572
西安市高陵区第一中学,科教文化服务,学校,中学,昭慧路泾渭上城84号楼唯学教育,陕西省,西安市,高陵区,109.0947922,34.52231327
田家小学,科教文化服务,学校,小学,昭慧东路东100米,陕西省,西安市,高陵区,109.0983124,34.523402
顺达西高驾校,科教文化服务,科教文化场所,科教文化场所,龙发昭慧天街8幢210,陕西省,西安市,高陵区,109.0958793,34.52615058
西安市高陵区广播电视台,科教文化服务,传媒机构,电视台,东二环路35号,陕西省,西安市,高陵区,109.0944427,34.53011854
凌顶教育(南环东路),科教文化服务,培训机构,培训机构,南环东路8号,陕西省,西安市,高陵区,109.0958942,34.52731473
高陵区未来舞蹈工作室,科教文化服务,科教文化场所,科教文化场所,南环东路与鹿景路交叉口西南200米,陕西省,西安市,高陵区,109.0952876,34.52555495
新徽乐贝儿幼儿园,科教文化服务,学校,幼儿园,泾渭上城小区95栋,陕西省,西安市,高陵区,109.0916709,34.52618344
西安烽籽传媒,科教文化服务,科教文化场所,科教文化场所,维也纳森林昭慧东路5-103,陕西省,西安市,高陵区,109.0985181,34.52667265
鸿禧幼儿园,科教文化服务,学校,幼儿园,鹿祥路72号鸿禧花园,陕西省,西安市,高陵区,109.0924601,34.5291962
成才教育(南环东路),科教文化服务,培训机构,培训机构,南环西路1049号附近,陕西省,西安市,高陵区,109.0929019,34.52711671
TOP舞蹈工作室,科教文化服务,培训机构,培训机构,龙发・昭慧天街6号楼306,陕西省,西安市,高陵区,109.0952257,34.52468758
羽泽培训,科教文化服务,培训机构,培训机构,东二环路25号,陕西省,西安市,高陵区,109.0944598,34.52912227
高陵博物馆,科教文化服务,博物馆,博物馆,昭慧东路西150米,陕西省,西安市,高陵区,109.0962383,34.52400919
领军教育(鸿禧校区),科教文化服务,培训机构,培训机构,东二环路(鸿禧花园东门正对面),陕西省,西安市,高陵区,109.0943098,34.52941605
华智教育,科教文化服务,培训机构,培训机构,昭慧路东口(近高陵一中正门口),陕西省,西安市,高陵区,109.0944794,34.52255907
鹏文教育,科教文化服务,科教文化场所,科教文化场所,昭慧路195号附近,陕西省,西安市,高陵区,109.0928364,34.52285982
西安工业大学北方信息工程学院学术报告厅,科教文化服务,会展中心,会展中心,鹿祥路235号,陕西省,西安市,高陵区,109.1010109,34.53105814
英泰思特高陵校区,科教文化服务,培训机构,培训机构,鹿苑街道高陵一中操场正对面,陕西省,西安市,高陵区,109.0935329,34.5227559
天使宝贝舞蹈培训中心(城市运动公园店),科教文化服务,科教文化场所,科教文化场所,泾渭运动公园体育馆内舞蹈教室,陕西省,西安市,高陵区,109.093406,34.52214134
西安工业大学北方信息工程学院,科教文化服务,学校,高等院校,鹿祥路235号,陕西省,西安市,高陵区,109.1024717,34.52961174
经渭驾校培训中心,科教文化服务,科教文化场所,科教文化场所,鹿苑街道322乡道高陵收费站东北300米,陕西省,西安市,高陵区,109.1098519,34.52814284
北信图书馆,科教文化服务,图书馆,图书馆,鹿祥路235号,陕西省,西安市,高陵区,109.1024747,34.52964272
西安工业大学北方信息工程学院(办公),科教文化服务,学校,高等院校,鹿祥路235号,陕西省,西安市,高陵区,109.1024917,34.52963473
麦张小学,科教文化服务,学校,小学,江毗路与白马路交叉口南50米,陕西省,西安市,高陵区,109.1200191,34.5286464
药惠中心小学卖张接送点,科教文化服务,科教文化场所,科教文化场所,江毗路与白马路交叉口南50米麦张小学附近,陕西省,西安市,高陵区,109.1200541,34.52876135
江流小学,科教文化服务,学校,小学,江毗路南50米,陕西省,西安市,高陵区,109.1512286,34.53072595
临潼区新市乡孙陈小学,科教文化服务,科教文化场所,科教文化场所,新市乡,陕西省,西安市,临潼区,109.2006754,34.52269333
胡门小学,科教文化服务,学校,小学,雨金镇胡门村,陕西省,西安市,临潼区,109.237733,34.52913182
何寨启明星幼儿园,科教文化服务,学校,幼儿园,马北路西50米,陕西省,西安市,临潼区,109.3179024,34.52728694
孙家小学,科教文化服务,学校,小学,孙皂路南50米,陕西省,西安市,临潼区,109.3415009,34.52679378
皂张小学,科教文化服务,科教文化场所,科教文化场所,皂张村,陕西省,西安市,临潼区,109.3607557,34.52574377
寇家小学,科教文化服务,学校,小学,北大路南50米,陕西省,西安市,临潼区,109.3745292,34.52526826
渭南红旗驾校训练场,科教文化服务,科教文化场所,科教文化场所,,陕西省,西安市,临潼区,109.3858706,34.52485359
渭南考务中心圆梦红旗科目二考场,科教文化服务,科教文化场所,科教文化场所,,陕西省,西安市,临潼区,109.3864391,34.52389503
西安兵器博物馆,科教文化服务,博物馆,博物馆,姬家乡x223,陕西省,西安市,高陵区,108.9925483,34.51276585
西安市高陵区孙娟幼儿园,科教文化服务,学校,幼儿园,姬家管委会邓家塬村三组,陕西省,西安市,高陵区,109.0093771,34.5198088
绳刘小学,科教文化服务,学校,小学,高茹路南50米,陕西省,西安市,高陵区,109.0374423,34.51890873
西安市高陵区晏北幼儿园,科教文化服务,学校,幼儿园,高茹路南50米,陕西省,西安市,高陵区,109.0498054,34.51989083
皇册小学,科教文化服务,科教文化场所,科教文化场所,皇册村,陕西省,西安市,高陵区,109.0756843,34.51803515
晨光艺术培训学校,科教文化服务,培训机构,培训机构,雨新路与207县道交叉口北200米,陕西省,西安市,临潼区,109.2369184,34.5156324
展翼辅导中心,科教文化服务,培训机构,培训机构,207县道东50米,陕西省,西安市,临潼区,109.2370311,34.51817261
领军教育(临潼三校区),科教文化服务,培训机构,培训机构,雨新路雨金中心医院西90米路南,陕西省,西安市,临潼区,109.2406553,34.51412929
雨金中学,科教文化服务,学校,中学,东关村,陕西省,西安市,临潼区,109.2478693,34.51365068
雨金初级中学,科教文化服务,科教文化场所,科教文化场所,雨金街道办,陕西省,西安市,临潼区,109.2462784,34.51346997
临潼车检所驾校渭北培训基地,科教文化服务,驾校,驾校,雨金街道雨金中心医院附近,陕西省,西安市,临潼区,109.2416778,34.51468002
粉刘小学,科教文化服务,学校,小学,雨金街道,陕西省,西安市,临潼区,109.26366,34.51614218
何寨初级中学,科教文化服务,学校,中学,何寨镇,陕西省,西安市,临潼区,109.3209448,34.51611721
何寨小学,科教文化服务,科教文化场所,科教文化场所,何寨街道,陕西省,西安市,临潼区,109.3183361,34.51654491
临潼区新品种研究所,科教文化服务,科研机构,科研机构,何圣路与马北路交叉口南200米,陕西省,西安市,临潼区,109.3181008,34.51657634
迪尼斯幼儿园(马北路),科教文化服务,学校,幼儿园,何圣路与马北路交叉口西北50米,陕西省,西安市,临潼区,109.3175931,34.51815717
金色童年幼儿园,科教文化服务,科教文化场所,科教文化场所,何寨初级中学对面巷内,陕西省,西安市,临潼区,109.3204351,34.51700655
华清驾校,科教文化服务,科教文化场所,科教文化场所,马北路与G30N西咸北环线交叉口北150米,陕西省,西安市,临潼区,109.3176882,34.51316857
宋家小学,科教文化服务,科教文化场所,科教文化场所,寇何路,陕西省,西安市,临潼区,109.359758,34.51214597
西安经开第四小学,科教文化服务,学校,小学,X305,陕西省,西安市,高陵区,109.0006726,34.50642656
嘉园・雅荷幼儿园,科教文化服务,学校,幼儿园,渭阳路与305县道交叉口南150米,陕西省,西安市,高陵区,109.0075005,34.50283847
智慧树教育中心,科教文化服务,科教文化场所,科教文化场所,305县道附近,陕西省,西安市,高陵区,109.009505,34.50361796
陕西艺铛铛艺术学苑,科教文化服务,培训机构,培训机构,蓝湖九郡商业步行街内,陕西省,西安市,高陵区,109.0078451,34.50260961
高陵区第三中学,科教文化服务,学校,中学,泾环北路1135,陕西省,西安市,高陵区,109.0153483,34.50588127
崇皇中学,科教文化服务,学校,中学,泾环北路999,陕西省,西安市,高陵区,109.0178042,34.5052317
崇皇街道办中心幼儿园,科教文化服务,学校,幼儿园,泾环北路与305县道交叉口北150米,陕西省,西安市,高陵区,109.0121616,34.50517903
金贝乐艺术培训中心,科教文化服务,科教文化场所,科教文化场所,泾环北路北50米,陕西省,西安市,高陵区,109.0171768,34.50476181
蓝宇教育,科教文化服务,培训机构,培训机构,泾环北路1190号附近,陕西省,西安市,高陵区,109.0158822,34.50434481
弘扬教育,科教文化服务,培训机构,培训机构,崇皇乡高陵三中对面,陕西省,西安市,高陵区,109.0162069,34.5040281
子期学堂,科教文化服务,培训机构,培训机构,泾环北路(高陵三中东50米),陕西省,西安市,高陵区,109.0170016,34.50473433
爱尚教育,科教文化服务,培训机构,培训机构,泾环北路771号附近,陕西省,西安市,高陵区,109.020334,34.50499175
朵拉艺术培训,科教文化服务,培训机构,培训机构,高茹路南50米,陕西省,西安市,高陵区,109.0170953,34.50281241
新祥通教育,科教文化服务,培训机构,培训机构,泾环北路与高茹路交叉口东150米,陕西省,西安市,高陵区,109.0204336,34.50497348
高陵区星艺文化培训中心,科教文化服务,培训机构,培训机构,泾环北路812号附近,陕西省,西安市,高陵区,109.0194476,34.50413783
未来星辅导班(金鹿尚居东),科教文化服务,培训机构,培训机构,泾环北路1400号附近,陕西省,西安市,高陵区,109.0134364,34.50419799
蓝天教育(崇皇店),科教文化服务,培训机构,培训机构,泾环北路714号附近,陕西省,西安市,高陵区,109.0210332,34.50470001
陕西省西安市高陵县崇皇乡中心幼儿园,科教文化服务,学校,幼儿园,高茹路南50米,陕西省,西安市,高陵区,109.0178074,34.50286935
王文业艺术馆,科教文化服务,展览馆,展览馆,桑军路附近,陕西省,西安市,高陵区,109.028507,34.50452004
希望幼儿园(高陵区国土资源局崇皇国土资源所南),科教文化服务,学校,幼儿园,近郊高陵县305县道(高陵县崇皇中心卫生院东),陕西省,西安市,高陵区,109.0230544,34.50200633
西安市高陵区榆楚中学,科教文化服务,学校,中学,305县道,陕西省,西安市,高陵区,109.0674512,34.50752365
顺达西高驾校报名处,科教文化服务,驾校,驾校,仁马路与305县道交叉口西150米,陕西省,西安市,高陵区,109.0670071,34.50835757
榆楚镇文化站,科教文化服务,文化宫,文化宫,渭桥派出所附近,陕西省,西安市,高陵区,109.0661103,34.50425854
榆楚镇中心幼儿园,科教文化服务,学校,幼儿园,榆楚镇,陕西省,西安市,高陵区,109.0619256,34.50465172
北京骨安堂风湿骨病研究院(榆楚总店),科教文化服务,科教文化场所,科教文化场所,X305与西乡路交叉口西50米,陕西省,西安市,高陵区,109.0649355,34.50819422
西安高陵钱币博物馆,科教文化服务,博物馆,博物馆,仁马路(陕西重卡发运中心5层),陕西省,西安市,高陵区,109.0696762,34.50303535
杏王小学,科教文化服务,学校,小学,张卜乡杏王村,陕西省,西安市,高陵区,109.1006008,34.5107757
巧嘴巴幼儿园,科教文化服务,学校,幼儿园,新西路与G5京昆高速交叉口东150米,陕西省,西安市,高陵区,109.1107966,34.51150654
西安市高陵区张卜庙西小学,科教文化服务,学校,小学,新西路与白马路交叉口南150米,陕西省,西安市,高陵区,109.1192262,34.51078649
庙西中学,科教文化服务,学校,中学,新西路南100米,陕西省,西安市,高陵区,109.1226844,34.51151073
西安市高陵区张卜张桥小学,科教文化服务,学校,小学,张桥村二组,陕西省,西安市,高陵区,109.1334666,34.51094819
张卜乡张桥幼儿园,科教文化服务,学校,幼儿园,张桥村,陕西省,西安市,高陵区,109.1334636,34.51094919
张卜新建小学,科教文化服务,学校,小学,张卜镇新夹路新建小学,陕西省,西安市,高陵区,109.1432539,34.50970737
走马小学,科教文化服务,学校,小学,新市办走马村,陕西省,西安市,临潼区,109.1857365,34.51069892
西安市临潼区雨金街办童乐幼儿园,科教文化服务,学校,幼儿园,垣新路与雨新路交叉口东北150米,陕西省,西安市,临潼区,109.2050695,34.50724754
童之梦幼儿园,科教文化服务,学校,幼儿园,雨金西关村,陕西省,西安市,临潼区,109.2362757,34.50199687
雨金中心幼儿园,科教文化服务,学校,幼儿园,207县道东50米,陕西省,西安市,临潼区,109.2384864,34.5104545
樊曹小学,科教文化服务,科教文化场所,科教文化场所,麦韦路北50米,陕西省,西安市,临潼区,109.3425977,34.50827917
粉张小学,科教文化服务,学校,小学,何寨街道粉韦路粉张小学,陕西省,西安市,临潼区,109.3698353,34.51083038
北潘小学,科教文化服务,科教文化场所,科教文化场所,北潘,陕西省,西安市,临潼区,109.383129,34.50946314
高陵区姬家一中,科教文化服务,学校,中学,经勤路姬家四季阳光小区旁,陕西省,西安市,高陵区,108.9888577,34.49569908
姬家中心小学,科教文化服务,学校,小学,经勤路姬家四季阳光小区旁,陕西省,西安市,高陵区,108.9888906,34.49577992
姬家管委会第一中学,科教文化服务,科教文化场所,科教文化场所,泾渭镇四季阳光泾勤路姬家管委会,陕西省,西安市,高陵区,108.9888537,34.49583
高陵区青年技能培训中心姬家村培训点,科教文化服务,培训机构,培训机构,泾渭路与305县道交叉口南200米,陕西省,西安市,高陵区,108.9970892,34.49368036
西安市交警支队富民考训场,科教文化服务,驾校,驾校,马家湾桑军路与泾朴路十字向西300米路北,陕西省,西安市,高陵区,109.0193968,34.49326353
富民驾校考试点,科教文化服务,驾校,驾校,泾朴路北50米,陕西省,西安市,高陵区,109.0196537,34.49326481
西安市高陵区富民驾校科目二考场,科教文化服务,驾校,驾校,,陕西省,西安市,高陵区,109.0191099,34.49397784
高凌富民科二考场,科教文化服务,科教文化场所,科教文化场所,泾朴路和桑军路十字向西300米富民驾校,陕西省,西安市,高陵区,109.0191089,34.49398684
西高科目三考场,科教文化服务,驾校,驾校,泾朴路北50米,陕西省,西安市,高陵区,109.0203151,34.49335589
崇皇街道办桑家中心小学,科教文化服务,学校,小学,崇皇乡,陕西省,西安市,高陵区,109.0242726,34.50131251
西高驾校,科教文化服务,科教文化场所,科教文化场所,泾朴路南50米,陕西省,西安市,高陵区,109.0217553,34.49317602
培优教育(桑军路),科教文化服务,培训机构,培训机构,崇皇乡崇皇街道办桑家中心小学附近,陕西省,西安市,高陵区,109.0243185,34.50090567
高墙小学,科教文化服务,学校,小学,马船路西100米,陕西省,西安市,高陵区,109.0471174,34.49736101
温馨幼儿园(马船路),科教文化服务,学校,幼儿园,马船路东50米,陕西省,西安市,高陵区,109.0490221,34.49286838
盛源驾校科目二科目三考试场地,科教文化服务,科教文化场所,科教文化场所,旅游大道与泾园八路交叉口东南50米,陕西省,西安市,高陵区,109.0451937,34.49467377
弘扬教育,科教文化服务,培训机构,培训机构,马船路东200米,陕西省,西安市,高陵区,109.04999,34.49494711
安顺希望小学,科教文化服务,学校,小学,安家路东100米,陕西省,西安市,高陵区,109.0829077,34.5002063
乐学教育辅导中心,科教文化服务,培训机构,培训机构,安家路东200米,陕西省,西安市,高陵区,109.083498,34.49940259
智慧星辅导中心,科教文化服务,培训机构,培训机构,安家路东200米,陕西省,西安市,高陵区,109.0841232,34.50047059
新蕾幼儿园(曹家六组路),科教文化服务,学校,幼儿园,曹家六组路南50米,陕西省,西安市,高陵区,109.0955628,34.49906287
曹家小学,科教文化服务,学校,小学,曹家六组路北50米,陕西省,西安市,高陵区,109.1010466,34.5001853
泾渭五星职业培训中心家政技能班,科教文化服务,培训机构,培训机构,曹家六组路北50米,陕西省,西安市,高陵区,109.0944824,34.49924865
西安市高陵区张卜原邓小学,科教文化服务,学校,小学,常张路北50米,陕西省,西安市,高陵区,109.1510253,34.49736545
童之梦白龙幼儿园,科教文化服务,学校,幼儿园,新马路西50米,陕西省,西安市,临潼区,109.1873635,34.49299411
菜园双语幼儿园,科教文化服务,学校,幼儿园,周垣路南50米,陕西省,西安市,临潼区,109.2193057,34.49356923
启航武术舞蹈培训学校,科教文化服务,培训机构,培训机构,韦家路与207县道交叉口北100米,陕西省,西安市,临潼区,109.2381109,34.49410086
韦家小学,科教文化服务,科教文化场所,科教文化场所,任留乡韦家村,陕西省,西安市,临潼区,109.244303,34.49734638
何寨中心幼儿园,科教文化服务,科教文化场所,科教文化场所,马北路东50米,陕西省,西安市,临潼区,109.3187558,34.49535704
冯李小学,科教文化服务,学校,小学,零口镇冯李村,陕西省,西安市,临潼区,109.3504909,34.49423057
零口中心幼儿园,科教文化服务,学校,幼儿园,临渭二路北50米,陕西省,西安市,临潼区,109.3754568,34.4922928
鸿洲小学,科教文化服务,学校,小学,临渭二路附近,陕西省,西安市,临潼区,109.3754099,34.4922089
陕西长安书画研究院渭北分院,科教文化服务,科研机构,科研机构,三河路附近,陕西省,西安市,高陵区,108.970978,34.48330821
泾河西西高驾校,科教文化服务,科教文化场所,科教文化场所,泾河工业园姜李村喜客来购物超市对面泾河供销市场,陕西省,西安市,高陵区,108.974638,34.48351465
姜李小学,科教文化服务,学校,小学,泾河街道姜李村,陕西省,西安市,高陵区,108.9731449,34.48694161
天骄幼儿园(陕西省公路局泾河库东北),科教文化服务,学校,幼儿园,姬家乡姜李村4组,陕西省,西安市,高陵区,108.9733561,34.4859267
蒲公英幼儿园,科教文化服务,学校,幼儿园,泾河工业园姜李村,陕西省,西安市,高陵区,108.9733135,34.48337155
西安蒲公英英语培训学校,科教文化服务,培训机构,培训机构,G65包茂高速,陕西省,西安市,高陵区,108.9733125,34.48337055
西筑公司与重庆交通大学研究生教育创新基地,科教文化服务,科教文化场所,科教文化场所,泾渭新城泾高南路西段8号,陕西省,西安市,高陵区,108.9892825,34.48922323
陕汽集团职工培训大学,科教文化服务,培训机构,培训机构,泾渭工业园陕汽大道渭阳路39号,陕西省,西安市,高陵区,109.0102208,34.48214959
新起点幼儿园,科教文化服务,学校,幼儿园,泾高南路南150米,陕西省,西安市,高陵区,109.01364,34.48696231
雷家学校,科教文化服务,学校,学校,泾高南路南150米,陕西省,西安市,高陵区,109.0120915,34.48687689
开心岛幼儿园,科教文化服务,学校,幼儿园,西金路南200米,陕西省,西安市,高陵区,109.0282858,34.48255873
西安职业技能教育研究院(消防员培训中心),科教文化服务,科教文化场所,科教文化场所,泾高南路294号附近,陕西省,西安市,高陵区,109.0260578,34.48858751
天平驾校科目三考场,科教文化服务,科教文化场所,科教文化场所,泾园六路北50米,陕西省,西安市,高陵区,109.0367447,34.48494312
窑子头幼儿园,科教文化服务,学校,幼儿园,泾园六路南200米,陕西省,西安市,高陵区,109.0342238,34.48298448
窑子头小学,科教文化服务,学校,小学,桑军大道中段,陕西省,西安市,高陵区,109.0327541,34.48326091
西安驾驶人社会化大众科目三考场,科教文化服务,科教文化场所,科教文化场所,,陕西省,西安市,高陵区,109.0390227,34.48547049
西安国定双语学校,科教文化服务,学校,小学,陕汽工业园区桑军路中段,陕西省,西安市,高陵区,109.0337495,34.48218818
西安高陵奇石博物馆,科教文化服务,博物馆,博物馆,泾惠十四路与泾高南路交叉口东150米,陕西省,西安市,高陵区,109.0314145,34.48906231
西安驾驶人社会化大众科目三考场,科教文化服务,科教文化场所,科教文化场所,旅游大道西300米,陕西省,西安市,高陵区,109.0424665,34.48189824
小博士幼儿园(仁马路),科教文化服务,学校,幼儿园,仁马路西100米,陕西省,西安市,高陵区,109.0704763,34.48497696
小小辅导班,科教文化服务,培训机构,培训机构,仁马路西100米钓北学校附近,陕西省,西安市,高陵区,109.0706619,34.48543246
钓北学校,科教文化服务,学校,小学,仁马路西100米,陕西省,西安市,高陵区,109.0704712,34.48539568
物探驾校(渭桥报名联络点),科教文化服务,驾校,驾校|生活服务,徐船路与210国道交叉口南100米,陕西省,西安市,高陵区,109.1003903,34.48314877
顺达西高驾校,科教文化服务,科教文化场所,科教文化场所,徐船路与210国道交叉口南100米附近,陕西省,西安市,高陵区,109.1003653,34.48314377
新梦想课外辅导中心,科教文化服务,培训机构,培训机构,党西路与G5京昆高速交叉口东150米,陕西省,西安市,高陵区,109.11041,34.48277118
馨育幼儿园(党西路),科教文化服务,学校,幼儿园,党西路南50米,陕西省,西安市,高陵区,109.1066887,34.48192736
张卜中心小学,科教文化服务,学校,小学,张卜乡,陕西省,西安市,高陵区,109.1206395,34.48283233
岩王小学,科教文化服务,学校,小学,张卜乡,陕西省,西安市,高陵区,109.1123649,34.48999574
张卜岩王幼儿园,科教文化服务,学校,幼儿园,张卜镇崖王南十路岩王幼儿园岩王小学,陕西省,西安市,高陵区,109.1123859,34.49001274
天骄辅导班,科教文化服务,培训机构,培训机构,党西路北50米,陕西省,西安市,高陵区,109.1194127,34.48353256
阳光国文辅导中心(党西路),科教文化服务,培训机构,培训机构,党西路北50米,陕西省,西安市,高陵区,109.119848,34.48349804
张卜中学,科教文化服务,学校,中学,党西路与白马路交叉口西北150米,陕西省,西安市,高陵区,109.1216701,34.48401066
高陵张卜亲亲宝贝幼儿园,科教文化服务,学校,幼儿园,党西路北150米张卜镇新社会组织第一联合党支部附近,陕西省,西安市,高陵区,109.1260486,34.48370804
西安市高陵区张卜原后小学,科教文化服务,学校,小学,塬郑路东100米,陕西省,西安市,高陵区,109.148917,34.48717671
高陵区塬后杏林希望小学,科教文化服务,学校,小学,塬郑路东100米,陕西省,西安市,高陵区,109.148914,34.48722667
潘杨小学,科教文化服务,学校,小学,潘杨小学(邹潘路西420米),陕西省,西安市,临潼区,109.2240646,34.4832892
任留初级中学,科教文化服务,学校,中学,任留街办,陕西省,西安市,临潼区,109.2366495,34.49146028
高刘小学,科教文化服务,学校,小学,西安泾河工业园陕汽路与渭华路交汇处1000米,陕西省,西安市,高陵区,108.9870582,34.47561714
技工培训大学,科教文化服务,学校,高等院校,渭阳路陕汽集团,陕西省,西安市,高陵区,109.0098474,34.48142718
五福临门酒店-会议室,科教文化服务,科教文化场所,科教文化场所,渭阳路东50米五福临门酒店,陕西省,西安市,高陵区,109.0099342,34.48001787
陕西汽车技工学校,科教文化服务,学校,职业技术学校,泾渭工业园陕汽大道渭阳路39号,陕西省,西安市,高陵区,109.010651,34.48172561
金色摇篮幼儿园,科教文化服务,学校,幼儿园,泾华路848号附近,陕西省,西安市,高陵区,109.0212006,34.48066406
长庆油田西安油气综合实训基地,科教文化服务,科教文化场所,科教文化场所,泾诚路南100米,陕西省,西安市,高陵区,109.0229889,34.47627407
陕汽驾校,科教文化服务,科教文化场所,科教文化场所,崇杨路1740号泾渭国际城,陕西省,西安市,高陵区,109.0215532,34.48067407
小燕子幼儿园,科教文化服务,学校,幼儿园,近郊高陵县桑军路(井王村卫生所西),陕西省,西安市,高陵区,109.0389657,34.47708025
船张村幼儿园,科教文化服务,学校,幼儿园,马船路北50米,陕西省,西安市,高陵区,109.0556207,34.47823846
马北丹尼尔小学,科教文化服务,科教文化场所,科教文化场所,马北村7组,陕西省,西安市,高陵区,109.0859445,34.47517714
马北完全小学,科教文化服务,科教文化场所,科教文化场所,西马路北100米,陕西省,西安市,高陵区,109.0986055,34.47587815
物探驾校渭桥训练场,科教文化服务,驾校,驾校,西马路与210国道交叉口东南100米,陕西省,西安市,高陵区,109.1020476,34.47523563
张卜中心幼儿园,科教文化服务,科教文化场所,科教文化场所,新夹路西150米,陕西省,西安市,高陵区,109.1398786,34.47366857
泾未驾校,科教文化服务,驾校,驾校,环城南路22号,陕西省,西安市,临潼区,109.1701004,34.48138468
赵刘小学,科教文化服务,学校,小学,,陕西省,西安市,临潼区,109.223776,34.47720106
金阳光幼儿园,科教文化服务,科教文化场所,科教文化场所,樊赵村附近,陕西省,西安市,临潼区,109.2869415,34.48080422
临潼区新丰办樊赵小学,科教文化服务,科教文化场所,科教文化场所,樊新路北50米,陕西省,西安市,临潼区,109.2862131,34.48170466
中牛小学,科教文化服务,科教文化场所,科教文化场所,零口镇,陕西省,西安市,临潼区,109.318679,34.47286439
童家小学,科教文化服务,学校,小学,零口镇范家村童一组,陕西省,西安市,临潼区,109.334511,34.479112
零口初级中学,科教文化服务,学校,中学,韦零路附近,陕西省,西安市,临潼区,109.3535608,34.48127051
零口中学,科教文化服务,科教文化场所,科教文化场所,南罗村,陕西省,西安市,临潼区,109.3540835,34.48146557
华联驾校,科教文化服务,科教文化场所,科教文化场所,韦零路与108国道交叉口南200米,陕西省,西安市,临潼区,109.3566761,34.47592236
零口镇中心小学,科教文化服务,学校,小学,韦零路与108国道交叉口东南150米,陕西省,西安市,临潼区,109.3591644,34.47740978
三辰外国语学校(零口分校),科教文化服务,培训机构,培训机构,韦零路与108国道交叉口西南150米,陕西省,西安市,临潼区,109.3559856,34.47647702
辰光文化培训学校,科教文化服务,培训机构,培训机构,韦零路与108国道交叉口西南200米,陕西省,西安市,临潼区,109.3559647,34.47586346
临潼区华鹰驾驶学院零口培训中心,科教文化服务,培训机构,培训机构,108国道与203县道交叉口东100米,陕西省,西安市,临潼区,109.3546118,34.47540181
辅仁学堂,科教文化服务,培训机构,培训机构,韦零路与108国道交叉口南150米,陕西省,西安市,临潼区,109.357132,34.47634341
爱诺外语学校(零口分校),科教文化服务,培训机构,培训机构,韦零路与108国道交叉口东150米,陕西省,西安市,临潼区,109.3595964,34.47817966
零口小明星幼儿园,科教文化服务,学校,幼儿园,零口街道,陕西省,西安市,临潼区,109.3631261,34.47791907
秦驰驾校,科教文化服务,驾校,驾校,新庄路与108国道交叉口东南100米,陕西省,西安市,临潼区,109.3618018,34.47806372
红舞鞋舞蹈形体培训中心,科教文化服务,培训机构,培训机构,新庄路与108国道交叉口南150米,陕西省,西安市,临潼区,109.3609945,34.47741224
金色摇篮幼儿园(经发一路),科教文化服务,学校,幼儿园,经济技术开发区泾渭工业园,陕西省,西安市,高陵区,108.9911445,34.46415225
西安经济技术开发区泾渭学校,科教文化服务,学校,小学,西安经济技术开发区泾渭工业园泾环南路5号,陕西省,西安市,高陵区,108.9935939,34.46449356
西安经发中学,科教文化服务,学校,中学,泾环南路西段8号,陕西省,西安市,高陵区,108.9954978,34.46247305
雅乐艺术学校,科教文化服务,培训机构,培训机构,嘉园国际购物中心3-4层,陕西省,西安市,高陵区,108.9983898,34.46722414
BBunion国际早教,科教文化服务,培训机构,培训机构,泾渭街道泾河工业园泾渭路嘉园国际广场三楼,陕西省,西安市,高陵区,108.9985073,34.46725376
哆来咪艺术中心,科教文化服务,科教文化场所,科教文化场所,姬家乡泾河工业园泾渭路车城温泉花园附近,陕西省,西安市,高陵区,108.9977666,34.46595787
晓雯音乐教育连锁(车城分校),科教文化服务,科教文化场所,科教文化场所,泾渭路嘉园国际四楼(北端电梯直达),陕西省,西安市,高陵区,108.9988199,34.46793536
舞林大会(高陵校区),科教文化服务,科教文化场所,科教文化场所,泾渭街道泾渭路嘉园国际购物中心,陕西省,西安市,高陵区,108.9994293,34.4673369
文杰教育,科教文化服务,培训机构,培训机构,泾渭街道国美电器人人乐对面框架楼11楼(泾渭新城店),陕西省,西安市,高陵区,108.9993855,34.46771179
北京优你可教育,科教文化服务,培训机构,培训机构,泾渭路车城花园对面综合楼7号楼五楼,陕西省,西安市,高陵区,108.999515,34.46624335
艺洋舞蹈培训中心,科教文化服务,培训机构,培训机构,车城花园对面四楼,陕西省,西安市,高陵区,108.999515,34.46624235
荣鑫舞蹈工作室,科教文化服务,培训机构,培训机构,车城温泉花园73楼,陕西省,西安市,高陵区,108.99305,34.46732437
yuan课堂,科教文化服务,科教文化场所,科教文化场所,泾河工业园韩村1路西口2号综合楼2层,陕西省,西安市,高陵区,108.9998667,34.46394078
陕汽研究院,科教文化服务,科研机构,科研机构,经济技术开发区泾渭工业园陕汽大道1号,陕西省,西安市,高陵区,109.0009733,34.47087188
学大教育(高陵中心),科教文化服务,培训机构,培训机构,泾河工业园韩村一路西口向北100米2号楼5层,陕西省,西安市,高陵区,108.9997622,34.46403104
舞扬艺术培训中心,科教文化服务,培训机构,培训机构,泾环南路2846号附近,陕西省,西安市,高陵区,108.9997811,34.46393704
陕重汽汽车工程研究院,科教文化服务,科教文化场所,科教文化场所,泾渭路18号,陕西省,西安市,高陵区,109.0009723,34.47087888
Berkeley中小学生自主学习管理中心,科教文化服务,培训机构,培训机构,泾环南路2846号附近,陕西省,西安市,高陵区,108.9997622,34.46402804
春苑传媒,科教文化服务,传媒机构,传媒机构,泾渭路附近,陕西省,西安市,高陵区,109.0004112,34.46518031
姬家杨官寨小学,科教文化服务,学校,小学,陕汽路1162号,陕西省,西安市,高陵区,109.0062857,34.46803269
杨官寨幼儿园,科教文化服务,学校,幼儿园,泾渭街道杨官寨村,陕西省,西安市,高陵区,109.0051907,34.46483207
西安秦驰驾校,科教文化服务,驾校,驾校,陕汽路924号附近,陕西省,西安市,高陵区,109.0036649,34.46824045
放心托管班,科教文化服务,学校,幼儿园,平安东路与平安北路交叉口西北200米,陕西省,西安市,高陵区,109.0039181,34.46508674
爱儿堡(高陵)幼儿园,科教文化服务,学校,幼儿园,泾河工业园韩村一路圣方商务酒店旁,陕西省,西安市,高陵区,109.0071403,34.46480123
春蕾教育之家,科教文化服务,培训机构,培训机构,杨官寨小学对面,陕西省,西安市,高陵区,109.0060916,34.46713286
泾渭苑一区幼儿园,科教文化服务,学校,幼儿园,泾环南路2534号,陕西省,西安市,高陵区,109.0057882,34.46344017
泾渭驾校报名点(盛隆购物广场北),科教文化服务,驾校,驾校|生活服务,陕汽南门向西100米、韵达快递对门,陕西省,西安市,高陵区,109.0029821,34.46533341
金色童年托管总部,科教文化服务,培训机构,培训机构,陕汽路900号附近,陕西省,西安市,高陵区,109.0056365,34.46738306
领先教育(圣方商务酒店北),科教文化服务,培训机构,培训机构,陕汽路南150米,陕西省,西安市,高陵区,109.0064331,34.46745363
花儿朵朵幼儿园(泾环南路),科教文化服务,学校,幼儿园,泾环南路南100米,陕西省,西安市,高陵区,109.0015904,34.46262039
起航教育(圣方商务酒店北),科教文化服务,培训机构,培训机构,陕汽路南150米,陕西省,西安市,高陵区,109.0070087,34.46753185
智慧村幼儿园(盛隆购物广场北),科教文化服务,学校,幼儿园,泾渭街道泾环南路北200米(盛隆购物广场北),陕西省,西安市,高陵区,109.0035726,34.46539059
陕西电大新城分校(泾河辅导站),科教文化服务,培训机构,培训机构,陕汽路1162,陕西省,西安市,高陵区,109.00621,34.4683567
成龙教育(高陵校区),科教文化服务,培训机构,培训机构,韩村一路泾渭园二区圣方酒店院内,陕西省,西安市,高陵区,109.0076442,34.46411118
泾未驾校报名点(盛隆购物广场东北),科教文化服务,驾校,驾校|生活服务,泾河工业园陕汽路(韩村2路)车程酒店陕汽南门对面向东20米,陕西省,西安市,高陵区,109.0045801,34.46658876
未来童星,科教文化服务,科教文化场所,科教文化场所,天伦宾馆(泾环南路北),陕西省,西安市,高陵区,109.0035696,34.464762
博奥教育,科教文化服务,培训机构,培训机构,,陕西省,西安市,高陵区,109.0040694,34.46577683
西安隆源金榜教育培训中心,科教文化服务,培训机构,培训机构,泾环南路2621号附近,陕西省,西安市,高陵区,109.0045545,34.46383463
高陵Do re mi艺术中心,科教文化服务,培训机构,培训机构,泾环南路2501号附近,陕西省,西安市,高陵区,109.0058499,34.46393067
集英堂教育,科教文化服务,培训机构,培训机构,泾环南路2570号附近,陕西省,西安市,高陵区,109.0052943,34.46385939
领军教育(马家湾校区),科教文化服务,培训机构,培训机构,岳家剪刀面3层,陕西省,西安市,高陵区,109.0072719,34.46354266
西安志高教育,科教文化服务,培训机构,培训机构,泾渭街道高陵泾河工业园泾环南路(韩村一路)泾渭苑一区向东300米路南,陕西省,西安市,高陵区,109.0073037,34.46374043
育才培训,科教文化服务,培训机构,培训机构,陕汽路938号附近,陕西省,西安市,高陵区,109.0088149,34.46861475
集贤教育,科教文化服务,培训机构,培训机构,泾环南路北(盛隆购物广场东250米),陕西省,西安市,高陵区,109.0059087,34.46387053
集贸教育,科教文化服务,培训机构,培训机构,泾环南路92号附近,陕西省,西安市,高陵区,109.0059575,34.46390936
缤纷鸟少儿美术基地,科教文化服务,培训机构,培训机构,泾环南路106号附近,陕西省,西安市,高陵区,109.0068467,34.46393468
富民驾校,科教文化服务,科教文化场所,科教文化场所,交警支队,陕西省,西安市,高陵区,109.0046242,34.46338671
吉的堡未来星教育培训中心,科教文化服务,培训机构,培训机构,泾渭园杨官寨综合市场对面,陕西省,西安市,高陵区,109.0059236,34.4643072
聚能教育(泾环南路),科教文化服务,培训机构,培训机构,泾渭工业园区泾环南路泾渭苑一区斜对面,陕西省,西安市,高陵区,109.0049309,34.46385349
北京神墨学堂(泾环南路),科教文化服务,培训机构,培训机构,泾渭街道韩村一路老凤祥银楼,陕西省,西安市,高陵区,109.0064952,34.46396571
雅安托教,科教文化服务,培训机构,培训机构,泾环南路2621号附近,陕西省,西安市,高陵区,109.0043991,34.46421385
长庆红舞鞋艺术,科教文化服务,培训机构,培训机构,泾环南路80号附近,陕西省,西安市,高陵区,109.0065051,34.46368686
道勤教育,科教文化服务,培训机构,培训机构,泾渭街道泾环南路中段圣方酒店斜对面4楼,陕西省,西安市,高陵区,109.0071354,34.46372894
领航文化辅导中心,科教文化服务,培训机构,培训机构,泾渭路中段泾渭苑一区向东100米,陕西省,西安市,高陵区,109.0063717,34.46367727
洪恩教育马家湾校区,科教文化服务,科教文化场所,科教文化场所,泾渭工业园泾渭苑二区九号楼三单元101室,陕西省,西安市,高陵区,109.0099694,34.46372951
名乐集古筝艺术中心,科教文化服务,培训机构,培训机构,泾环南路2534号附近,陕西省,西安市,高陵区,109.0056199,34.4635636
吉的堡少儿英语(泾环南路),科教文化服务,培训机构,培训机构,泾环南路2415附近,陕西省,西安市,高陵区,109.0067321,34.46398699
梦幻舞蹈艺术,科教文化服务,培训机构,培训机构,泾环南路2621号附近,陕西省,西安市,高陵区,109.0043404,34.46377232
尚美化妆美甲纹绣培训班,科教文化服务,科教文化场所,科教文化场所,泾渭街道马家湾韩村一路盛隆超市西门对面,陕西省,西安市,高陵区,109.0026736,34.46405318
少儿美术培训,科教文化服务,培训机构,培训机构,泾渭路与经发一路交叉口东北200米,陕西省,西安市,高陵区,109.0014577,34.46500125
伊顿名师(西安马家湾校区),科教文化服务,培训机构,培训机构,泾河工业园泾环南路圣方酒店正对面4层,陕西省,西安市,高陵区,109.0073475,34.4637433
艺洋舞蹈培训中心(泾环南路),科教文化服务,培训机构,培训机构,韩村一路泾渭苑一区斜对面,陕西省,西安市,高陵区,109.005133,34.46387586
乾德轩艺术港,科教文化服务,博物馆,博物馆,泾环南路北150米乾德轩艺术港,陕西省,西安市,高陵区,109.0021617,34.46483422
未来星少儿艺术培训中心(泾环南路),科教文化服务,培训机构,培训机构,泾环南路巨王家居建材电器城西200米,陕西省,西安市,高陵区,109.0067321,34.46398699
西安乐学教育,科教文化服务,科教文化场所,科教文化场所,泾环南路2056号附近,陕西省,西安市,高陵区,109.0111883,34.46337314
陕西汉德车桥技术中心研究一所,科教文化服务,科教文化场所,科教文化场所,,陕西省,西安市,高陵区,109.0043886,34.47122131
领军教育(高陵三校区),科教文化服务,培训机构,培训机构,泾环南路长庆二中向西200米,陕西省,西安市,高陵区,109.0112819,34.46379759
舞街区(泾渭店),科教文化服务,培训机构,培训机构,泾渭镇泾渭路18号西北,陕西省,西安市,高陵区,109.0069154,34.46371361
多彩幼儿园,科教文化服务,学校,幼儿园,泾河工业园泾渭苑三区,陕西省,西安市,高陵区,109.0155249,34.46680627
长庆二中,科教文化服务,学校,学校,泾渭街道泾环南路1824号,陕西省,西安市,高陵区,109.0134776,34.46405699
小画家少儿美术培训基地,科教文化服务,培训机构,培训机构|科教文化服务,泾环南路长庆泾渭苑二期(长庆二中附近),陕西省,西安市,高陵区,109.0143998,34.46452501
长庆泾渭小学,科教文化服务,学校,小学,泾环南路南,陕西省,西安市,高陵区,109.0143671,34.46207669
陕西省图书馆(长庆分馆),科教文化服务,图书馆,图书馆,泾环南路附近,陕西省,西安市,高陵区,109.0177809,34.46401364
新道恒个性化学习管理中心,科教文化服务,培训机构,培训机构,泾环南路南150米,陕西省,西安市,高陵区,109.015089,34.46329681
山姆大叔少儿英语,科教文化服务,培训机构,培训机构,崇杨路与泾环南路交叉口西南150米,陕西省,西安市,高陵区,109.0193147,34.46354661
长庆泾渭苑老年大学书画教学点,科教文化服务,学校,成人教育,祥庆东路与祥庆南路交叉口南100米,陕西省,西安市,高陵区,109.014331,34.46452721
徐吾学校,科教文化服务,学校,小学,崇皇街道,陕西省,西安市,高陵区,109.0278744,34.47065373
一诺幼儿园,科教文化服务,学校,幼儿园,泾河工业园泾环南路泾欣园一区中门,陕西省,西安市,高陵区,109.0265999,34.46347576
金色阳光美术书法,科教文化服务,培训机构,培训机构,泾渭街道泾欣园中门,陕西省,西安市,高陵区,109.0239271,34.46512485
井王训练场,科教文化服务,驾校,驾校,桑军路西50米,陕西省,西安市,高陵区,109.0311171,34.471253
井王学校,科教文化服务,科教文化场所,科教文化场所,崇皇街道井王村,陕西省,西安市,高陵区,109.0376357,34.47160295
智博星幼儿园,科教文化服务,学校,幼儿园,崇皇街道井王村五组,陕西省,西安市,高陵区,109.042912,34.47152319
任留南屯小学,科教文化服务,科教文化场所,科教文化场所,207县道与208县道交叉口东北100米,陕西省,西安市,临潼区,109.2457947,34.4669468
任留中心幼儿园,科教文化服务,学校,幼儿园,208县道,陕西省,西安市,临潼区,109.2445026,34.46626029
希望双语幼儿园(任留东口卫生所西),科教文化服务,学校,幼儿园,208县道北50米,陕西省,西安市,临潼区,109.243697,34.4662133
任留睿智幼儿园,科教文化服务,科教文化场所,科教文化场所,207县道东50米,陕西省,西安市,临潼区,109.2444673,34.47009378
泽睿舞蹈艺术中心,科教文化服务,科教文化场所,科教文化场所,207县道西50米,陕西省,西安市,临潼区,109.2441755,34.46911442
临潼区新丰镇五店小学,科教文化服务,科教文化场所,科教文化场所,樊新路西50米,陕西省,西安市,临潼区,109.2858451,34.46835304
皂安小学,科教文化服务,学校,小学,新丰镇皂安村,陕西省,西安市,临潼区,109.3009671,34.46771348
宏达驾校,科教文化服务,驾校,驾校,八一路西段,陕西省,西安市,临潼区,109.3338981,34.4643239
高陵区泾渭街道办思博幼儿园,科教文化服务,学校,幼儿园,泾渭北路166号,陕西省,西安市,高陵区,108.9746804,34.45313641
新星幼儿园,科教文化服务,学校,幼儿园,马家湾店子王村,陕西省,西安市,高陵区,108.9801666,34.45197012
泾渭驾校,科教文化服务,驾校,驾校,泾渭中路,陕西省,西安市,高陵区,108.9854288,34.45645254
泾渭科目二考场,科教文化服务,科教文化场所,科教文化场所,泾渭中路附近,陕西省,西安市,高陵区,108.9855941,34.45656997
集英堂教育,科教文化服务,培训机构,培训机构,泾渭中路165号附近,陕西省,西安市,高陵区,108.983142,34.45196626
隆源英语文化培训中心,科教文化服务,培训机构,培训机构,马家湾泾渭中路165号,陕西省,西安市,高陵区,108.9828711,34.45209399
高陵区水榭宝贝幼儿园,科教文化服务,学校,幼儿园,泾渭工业园区水榭花都,陕西省,西安市,高陵区,109.002467,34.45804967
长庆泾渭苑幼儿园,科教文化服务,科教文化场所,科教文化场所,平安东路与福安路交叉口东南200米,陕西省,西安市,高陵区,109.0066967,34.45896733
荷塘教育,科教文化服务,科教文化场所,科教文化场所,泾环南路泾渭苑二区,陕西省,西安市,高陵区,109.0085418,34.45996418
五星空间教育,科教文化服务,科教文化场所,科教文化场所,幸福中路与福安路交叉口东南100米,陕西省,西安市,高陵区,109.0103382,34.46015273
陕西省特种阀门工程技术研究中心,科教文化服务,科研机构,科研机构,泾河工业园泾渭十路18号,陕西省,西安市,高陵区,109.0178055,34.45591278
西安泾渭小学,科教文化服务,学校,小学,泾渭十一路8号,陕西省,西安市,高陵区,109.0324146,34.4563724
陕西创新包装印刷学校,科教文化服务,学校,学校,泾渭十一路8号,陕西省,西安市,高陵区,109.0324983,34.45634321
指路者托辅中心,科教文化服务,培训机构,培训机构,,陕西省,西安市,高陵区,109.1043251,34.4543152
南郭小学,科教文化服务,科教文化场所,科教文化场所,新夹路南50米,陕西省,西安市,高陵区,109.1514863,34.45952854
北田小学,科教文化服务,学校,小学,208县道西150米,陕西省,西安市,临潼区,109.1776486,34.45844975
尖角小学,科教文化服务,学校,小学,北田镇尖角村,陕西省,西安市,临潼区,109.1871954,34.45690675
临潼区北田初级中学,科教文化服务,学校,中学,北田街道尖角秦王一路北田初级中学,陕西省,西安市,临潼区,109.1826493,34.45934223
北田镇尖角村文化室,科教文化服务,文化宫,文化宫,尖角村尖角小学附近,陕西省,西安市,临潼区,109.1873596,34.45694201
尖角金太阳幼儿园,科教文化服务,科教文化场所,科教文化场所,尖角村,陕西省,西安市,临潼区,109.1834067,34.45674024
蓓蕾幼儿园,科教文化服务,学校,幼儿园,208县道北田初级中学西南,陕西省,西安市,临潼区,109.1821977,34.45909158
滩王小天使幼儿园,科教文化服务,科教文化场所,科教文化场所,208县道南100米,陕西省,西安市,临潼区,109.2098252,34.45816366
北田街办滩王小学,科教文化服务,科教文化场所,科教文化场所,北田镇滩王村十组,陕西省,西安市,临潼区,109.2127225,34.45964109
湾李小学,科教文化服务,学校,小学,湾李村,陕西省,西安市,临潼区,109.2902257,34.45993108
西洼小学,科教文化服务,学校,小学,零口镇西洼村,陕西省,西安市,临潼区,109.376024,34.45833086
孟塬小学,科教文化服务,科教文化场所,科教文化场所,零口街办孟塬村,陕西省,西安市,临潼区,109.3955138,34.45249627
陕西省考古研究院泾渭基地,科教文化服务,科研机构,科研机构,马家湾镇长庆西路25号陕西省考古研究院,陕西省,西安市,高陵区,108.9786483,34.44809904
店子王小学,科教文化服务,学校,小学,泾渭镇,陕西省,西安市,高陵区,108.9801309,34.45066105
天利幼儿园,科教文化服务,学校,幼儿园,马家湾店子王村,陕西省,西安市,高陵区,108.97936,34.45159574
趣味艺术馆,科教文化服务,美术馆,美术馆,泾渭街道泾渭南路15号泾河工业园湾十字向西100米渭水茗居门面,陕西省,西安市,高陵区,108.9804866,34.44800367
西电避雷器产业产品研发中心,科教文化服务,科研机构,科研机构,泾渭北路18号,陕西省,西安市,高陵区,108.9732883,34.45101274
西安大气探测中心,科教文化服务,科教文化场所,科教文化场所,泾河工业园泾渭一路2号,陕西省,西安市,高陵区,108.972299,34.4434433
高陵区泾渭街道教工西片党支部,科教文化服务,科教文化场所,科教文化场所,泾渭北路附近,陕西省,西安市,高陵区,108.9802354,34.45121739
泾渭中学,科教文化服务,学校,中学,泾渭街道泾渭中路86号,陕西省,西安市,高陵区,108.9817793,34.44608203
西安泾河工业区中心学校,科教文化服务,学校,高等院校,马家湾泾渭中路,陕西省,西安市,高陵区,108.9832252,34.44564699
培优教育(泾渭二路),科教文化服务,培训机构,培训机构,泾渭二路与长庆西路交叉口南80米,陕西省,西安市,高陵区,108.9866763,34.446603
国教中心西安分公司,科教文化服务,科教文化场所,科教文化场所,泾河工业园,陕西省,西安市,高陵区,108.9856994,34.44819096
弈学园少儿围棋,科教文化服务,培训机构,培训机构,泾渭二路7号附近,陕西省,西安市,高陵区,108.9868685,34.44659343
英众学习中心,科教文化服务,培训机构,培训机构,马家湾长庆西路鼎正庆花苑1号群楼3楼,陕西省,西安市,高陵区,108.9875983,34.44736074
西安前程教育,科教文化服务,科教文化场所,科教文化场所,泾渭中路33号附近,陕西省,西安市,高陵区,108.9832571,34.44524914
逸景饩佑锥园,科教文化服务,科教文化场所,科教文化场所,泾渭街道长庆西路32号,陕西省,西安市,高陵区,108.9910255,34.44727038
至正艺术,科教文化服务,科教文化场所,科教文化场所,长庆西路32号都客润超市四楼,陕西省,西安市,高陵区,108.989748,34.44735122
格瑞斯少儿艺术中心,科教文化服务,培训机构,培训机构,泾渭二路43号附近,陕西省,西安市,高陵区,108.9866176,34.44563279
波特英语(马家湾分校),科教文化服务,培训机构,培训机构,马家湾长庆西路(都客润3层),陕西省,西安市,高陵区,108.9897082,34.44731536
波特教育(马家湾分校),科教文化服务,培训机构,培训机构,马家湾逸景饩佣伎腿笕楼,陕西省,西安市,高陵区,108.9897082,34.44731536
刘鹏艺术培训,科教文化服务,科教文化场所,科教文化场所,广场北路与泾渭中路交叉口北100米,陕西省,西安市,高陵区,108.9824829,34.45036824
卓圣堂教育,科教文化服务,培训机构,培训机构,泾河中心校对面(马家湾乡政府对面),陕西省,西安市,高陵区,108.9828836,34.44530922
康贝贝分园,科教文化服务,学校,幼儿园,经渭镇店子王村生态家园对面,陕西省,西安市,高陵区,108.9818197,34.45121769
启哲国学书院,科教文化服务,培训机构,培训机构,泾渭街道长庆西路天正花园附近(米家崖村),陕西省,西安市,高陵区,108.9898368,34.44483752
西安艺考马家湾美术培训,科教文化服务,科教文化场所,科教文化场所,广场北路与泾渭中路交叉口西北100米,陕西省,西安市,高陵区,108.9823744,34.45018868
阳光托管辅导中心(泾渭中路),科教文化服务,培训机构,培训机构,泾渭中路62号,陕西省,西安市,高陵区,108.9832152,34.44528724
博思培训中心,科教文化服务,科教文化场所,科教文化场所,泾渭街道泾渭中路店子王小吃街向东五十米,陕西省,西安市,高陵区,108.9837395,34.45169465
月亮湾幼儿园(泾渭中路),科教文化服务,学校,幼儿园,泾渭街道泾渭北路店子王生态家园西,陕西省,西安市,高陵区,108.9820377,34.45148887
智优国际少儿成长中心,科教文化服务,培训机构,培训机构,泾渭街道马家湾泾渭中路景秀天下二楼,陕西省,西安市,高陵区,108.9826338,34.44433157
成龙文化培训学校(泾渭中路),科教文化服务,培训机构,培训机构,泾渭中路113号4层,陕西省,西安市,高陵区,108.9828574,34.44970954
龙凤园-图书阅览室,科教文化服务,科教文化场所,科教文化场所,长庆西路,陕西省,西安市,高陵区,108.9897069,34.44991873
剡鹏艺术培训,科教文化服务,培训机构,培训机构,泾渭工业园泾渭中路148号,陕西省,西安市,高陵区,108.9824979,34.45030724
零起点教育,科教文化服务,培训机构,培训机构,泾渭中路161附近,陕西省,西安市,高陵区,108.9831121,34.45171251
县泾渭镇西营中心小学,科教文化服务,学校,小学,长庆西路南150米,陕西省,西安市,高陵区,108.9980232,34.44604279
泾渭西营中心小学,科教文化服务,学校,小学,泾渭路,陕西省,西安市,高陵区,108.9980232,34.44604279
杰森奇妙英语乐园,科教文化服务,科教文化场所,科教文化场所,长庆西路龙江秀水商贸城B栋,陕西省,西安市,高陵区,108.9966302,34.44656871
筝情筝意古筝教室,科教文化服务,科教文化场所,科教文化场所,马家湾龙江秀水商贸大岛家纺2楼,陕西省,西安市,高陵区,108.9964241,34.44640744
FUNK STYLE街舞工作室,科教文化服务,科教文化场所,科教文化场所,长庆西路南100米,陕西省,西安市,高陵区,108.9966472,34.44644674
启迪・斑斓兔童年美术馆,科教文化服务,美术馆,美术馆,泾河工业园泾渭三路龙江秀水商贸城,陕西省,西安市,高陵区,108.9965596,34.44599029
启蒙童教育,科教文化服务,科教文化场所,科教文化场所,长庆西路南150米,陕西省,西安市,高陵区,108.9969907,34.44598597
博英托教中心,科教文化服务,科教文化场所,科教文化场所,泾渭街道长庆路西口西营小学向西30米,陕西省,西安市,高陵区,108.997146,34.44601348
海博教育,科教文化服务,科教文化场所,科教文化场所,长庆西路西营中心小学西20米西一巷,陕西省,西安市,高陵区,108.9974139,34.44603865
卓越文化艺术培训,科教文化服务,培训机构,培训机构,长庆西路南150米,陕西省,西安市,高陵区,108.9974198,34.44599266
金色阳光,科教文化服务,培训机构,培训机构,泾渭三路与长庆西路交叉口东100米,陕西省,西安市,高陵区,108.995518,34.44760246
思博辅导中心,科教文化服务,培训机构,培训机构,长庆西路南150米,陕西省,西安市,高陵区,108.9971062,34.44599761
晓雯音乐教育连锁(泾渭分校),科教文化服务,培训机构,培训机构,马家湾长庆西路龙江秀水商贸城内(长庆职工医院东侧),陕西省,西安市,高陵区,108.9965496,34.44649201
酷宝计划,科教文化服务,培训机构,培训机构,泾渭路与长庆西路交叉口向西400米,陕西省,西安市,高陵区,108.9965585,34.44649797
未来星补习中心,科教文化服务,培训机构,培训机构,长庆西路南150米,陕西省,西安市,高陵区,108.9973312,34.44600792
长庆思瑞幼儿园,科教文化服务,科教文化场所,科教文化场所,经济技术开发区泾河工业园龙凤园小区内高新长庆幼儿园,陕西省,西安市,高陵区,108.9939716,34.44880243
长庆金瑛幼儿园,科教文化服务,学校,幼儿园,马家湾天正花园30号1单元602,陕西省,西安市,高陵区,108.9930898,34.44421699
汇鑫课外辅导中心,科教文化服务,培训机构,培训机构,长庆西路南200米,陕西省,西安市,高陵区,108.9968782,34.44588038
太阳花托教中心,科教文化服务,培训机构,培训机构,长庆西路南200米,陕西省,西安市,高陵区,108.9974089,34.44568389
高新长庆幼儿园,科教文化服务,学校,幼儿园,长庆龙凤园二号门,陕西省,西安市,高陵区,108.9934398,34.44907588
解释中心研究室,科教文化服务,科教文化场所,科教文化场所,泾河工业园方元大厦,陕西省,西安市,高陵区,108.9995664,34.44750017
启航托管辅导中心,科教文化服务,科教文化场所,科教文化场所,,陕西省,西安市,高陵区,108.997168,34.44481816
天宫格快乐练字学堂,科教文化服务,培训机构,培训机构,泾渭路泾渭西营中心小学附近,陕西省,西安市,高陵区,108.9974985,34.44593746
长庆测井研究室,科教文化服务,科研机构,科研机构,泾河工业园长庆路西口方元大厦3楼,陕西省,西安市,高陵区,108.9990655,34.44805135
优派学府,科教文化服务,科教文化场所,科教文化场所,长庆西路26号,陕西省,西安市,高陵区,108.992983,34.44723043
小树丫母婴(龙凤园店),科教文化服务,培训机构,培训机构,长庆西路5号附近,陕西省,西安市,高陵区,108.9956673,34.44767996
桑妮亚舞蹈・瑜伽培训中心,科教文化服务,培训机构,培训机构,长庆西路5号附近,陕西省,西安市,高陵区,108.9954094,34.44761878
西安市高陵区东方双华幼儿园,科教文化服务,学校,幼儿园,泾河镇马家湾长庆西路龙凤园对面新庄饮食街内,陕西省,西安市,高陵区,108.9916619,34.4450968
高陵区秀水珍爱幼儿园,科教文化服务,学校,幼儿园,泾渭三路,陕西省,西安市,高陵区,108.994443,34.44306058
未来星少儿艺术培训中心,科教文化服务,培训机构,培训机构,天正花园40楼1单元302室,陕西省,西安市,高陵区,108.9919375,34.44718865
荷塘教育西营分校,科教文化服务,科教文化场所,科教文化场所,长庆西路8号附近,陕西省,西安市,高陵区,109.0000862,34.44653919
为学教育(长庆西路),科教文化服务,培训机构,培训机构,天正花园北门西50米,陕西省,西安市,高陵区,108.9919216,34.44720868
海贝艺术中心长庆分校,科教文化服务,培训机构,培训机构,马家湾天正街,陕西省,西安市,高陵区,108.9943243,34.44564033
陶画空间陶艺手工艺术工作室,科教文化服务,科教文化场所,科教文化场所,长庆西路天正花园11栋5单元102室,陕西省,西安市,高陵区,108.9940447,34.44368341
启号线教育,科教文化服务,培训机构,培训机构,泾渭路4号天正银河湾2区,陕西省,西安市,高陵区,109.0010444,34.44348918
西安高新泾河小学,科教文化服务,学校,小学,经济技术开发区泾河工业园泾渭五路6号,陕西省,西安市,高陵区,109.008754,34.44667798
兴国小学,科教文化服务,学校,小学,泾渭四路10号,陕西省,西安市,高陵区,109.0050777,34.44704276
行知幼儿园,科教文化服务,科教文化场所,科教文化场所,马加湾泾渭四路北岸生活小区,陕西省,西安市,高陵区,109.0042415,34.44432897
易学教育,科教文化服务,培训机构,培训机构,泾渭四路西50米,陕西省,西安市,高陵区,109.0054652,34.44486895
优品课后学苑,科教文化服务,培训机构,培训机构,泾渭四路西50米,陕西省,西安市,高陵区,109.005515,34.44427217
山川教育,科教文化服务,培训机构,培训机构,泾渭五路,陕西省,西安市,高陵区,109.0095885,34.44646963
西安长庆科技工程有限责任公司高新产品研制中心,科教文化服务,科研机构,科研机构,西安泾河工业园区泾渭五路8号西安长庆科技工程有限责任公司,陕西省,西安市,高陵区,109.0093107,34.44555702
华商报泾渭工业园发行站,科教文化服务,传媒机构,报社,泾渭路东100米,陕西省,西安市,高陵区,109.0023506,34.44482438
汉唐书画艺术中心,科教文化服务,培训机构,培训机构,泾渭街道泾渭九路群贤北府2栋2单元504,陕西省,西安市,高陵区,109.021016,34.44964174
陈家滩小学,科教文化服务,学校,小学,泾渭镇泾渭9路,陕西省,西安市,高陵区,109.0230986,34.45145387
泾渭文化站,科教文化服务,文化宫,文化宫,长庆东路51号附近,陕西省,西安市,高陵区,109.0243687,34.4500683
北京红缨康贝贝幼儿园,科教文化服务,学校,幼儿园,泾渭开发区马家湾陈家滩村,陕西省,西安市,高陵区,109.0227729,34.45065027
小红花幼儿园(群贤北府东),科教文化服务,学校,幼儿园,泾渭开发区马家湾长庆东路泾渭九路陈家滩,陕西省,西安市,高陵区,109.0237052,34.45155215
泾渭书画摄影艺术社,科教文化服务,科教文化场所,科教文化场所,长庆东路41号附近,陕西省,西安市,高陵区,109.0237352,34.45018694
凤凰教育(长庆东路),科教文化服务,培训机构,培训机构,长庆东路南50米,陕西省,西安市,高陵区,109.0229912,34.44929752
思远萌学堂,科教文化服务,培训机构,培训机构,马家湾泾渭九路陈家滩小学,陕西省,西安市,高陵区,109.0223069,34.44979608
集美教育(长庆东路),科教文化服务,培训机构,培训机构,长庆东路41号附近,陕西省,西安市,高陵区,109.0237352,34.45018694
聚智堂教育培训机构,科教文化服务,培训机构,培训机构,陈家滩商贸中心西排,陕西省,西安市,高陵区,109.0234214,34.45028673
陈家滩小学-启航托管,科教文化服务,培训机构,培训机构,长庆东路群贤北府东侧(红缨康贝贝幼儿园北侧50米),陕西省,西安市,高陵区,109.0226852,34.45127611
梦之舞舞蹈工作室,科教文化服务,培训机构,培训机构,泾渭街道泾渭路陈家滩村康贝贝幼儿园前,陕西省,西安市,高陵区,109.0227729,34.45064927
雏鹰教育(群贤北府东),科教文化服务,培训机构,培训机构,长庆东路群贤北府旁,陕西省,西安市,高陵区,109.0226065,34.45154616
秦立教育中小学课程辅导,科教文化服务,培训机构,培训机构,长庆东路北200米,陕西省,西安市,高陵区,109.0226085,34.4511474
倍多分教育(群贤北府东),科教文化服务,培训机构,培训机构,陈家滩村,陕西省,西安市,高陵区,109.0223406,34.45108118
高陵区耿镇王家滩小学(王虎路),科教文化服务,学校,小学,耿镇乡耿镇,陕西省,西安市,高陵区,109.0898392,34.44855142
耿镇中心幼儿园,科教文化服务,学校,幼儿园,耿镇王家滩村,陕西省,西安市,高陵区,109.0899111,34.44837452
金科幼儿园,科教文化服务,学校,幼儿园,耿北村五组,陕西省,西安市,高陵区,109.1036527,34.44879738
耿北小学,科教文化服务,学校,小学,耿北村,陕西省,西安市,高陵区,109.1018958,34.45099128
西安金翼驾校,科教文化服务,科教文化场所,科教文化场所,,陕西省,西安市,临潼区,109.1764106,34.44710566
西安汽车科技职业学院(临潼校区),科教文化服务,学校,高等院校,秦王一路1号,陕西省,西安市,临潼区,109.1761834,34.4452584
至尚发研社,科教文化服务,科教文化场所,科教文化场所,东街,陕西省,西安市,临潼区,109.298865,34.45134461
新丰戏河小学,科教文化服务,学校,小学,108国道附近,陕西省,西安市,临潼区,109.3027332,34.44854267
泾渭中心幼儿园,科教文化服务,科教文化场所,科教文化场所,泾渭街道泾渭镇梁村五组,陕西省,西安市,高陵区,108.9625719,34.43671403
梁村塬小学,科教文化服务,科教文化场所,科教文化场所,泾渭镇梁村,陕西省,西安市,高陵区,108.9625968,34.43677293
泾渭驾校,科教文化服务,驾校,驾校,马家湾西营村318站牌东,陕西省,西安市,高陵区,108.9761194,34.44161247
新元交通开发有限公司东城驾校训练基地,科教文化服务,驾校,驾校,,陕西省,西安市,灞桥区,109.0576839,34.43793696
西安东城驾校科目二考场,科教文化服务,科教文化场所,科教文化场所,河堤路,陕西省,西安市,灞桥区,109.0593845,34.4388138
刘郑小学,科教文化服务,学校,小学,灞耿路北50米,陕西省,西安市,灞桥区,109.0757905,34.43336033
西安国际港务区刘郑小学,科教文化服务,学校,小学,灞耿路北50米刘郑小学附近,陕西省,西安市,灞桥区,109.0757905,34.43336033
开心宝贝幼儿园(渭纺路),科教文化服务,学校,幼儿园,灞耿路与纺渭路交叉口东50米,陕西省,西安市,灞桥区,109.0736192,34.4324167
苏家村小学,科教文化服务,科教文化场所,科教文化场所,苏虎路北50米,陕西省,西安市,高陵区,109.0864372,34.4379018
耿镇苏家小学,科教文化服务,学校,小学,苏家村二组苏虎路,陕西省,西安市,高陵区,109.0865561,34.43772987
高陵区耿镇中学,科教文化服务,学校,中学,苏虎路南50米高陵县耿镇中学附近,陕西省,西安市,高陵区,109.0994416,34.43773174
高陵县耿镇中学,科教文化服务,学校,中学,苏虎路南50米,陕西省,西安市,高陵区,109.0991717,34.43770269
开智幼儿园(苏虎路),科教文化服务,学校,幼儿园,耿镇街道苏虎路,陕西省,西安市,高陵区,109.0944939,34.43685747
小雨点艺术培训中心,科教文化服务,培训机构,培训机构,210国道附近,陕西省,西安市,高陵区,109.0956953,34.43645381
耿镇中心小学,科教文化服务,学校,小学,耿镇镇耿镇老街道,陕西省,西安市,高陵区,109.1004754,34.43635589
羽泽培训(耿镇分校),科教文化服务,培训机构,培训机构,210国道与苏虎路交叉口北100米,陕西省,西安市,高陵区,109.0964727,34.43824881
国学幼儿园(苏虎路),科教文化服务,学校,幼儿园,苏虎路北50米,陕西省,西安市,高陵区,109.0990147,34.43789653
朝光幼儿园,科教文化服务,学校,幼儿园,210国道东50米,陕西省,西安市,高陵区,109.0971392,34.44032664
耿镇中心小学-耿镇乡村少年宫,科教文化服务,文化宫,文化宫,苏虎路南200米,陕西省,西安市,高陵区,109.1004724,34.43635888
再享琴行,科教文化服务,培训机构,培训机构|购物服务,耿镇卫生院西邻,陕西省,西安市,高陵区,109.098241,34.43779141
耿镇文化站,科教文化服务,文化宫,文化宫,苏虎路北50米,陕西省,西安市,高陵区,109.0999934,34.43811766
西安市高陵区耿镇健康教育中心,科教文化服务,科教文化场所,科教文化场所,苏虎路附近,陕西省,西安市,高陵区,109.0984259,34.43789139
耿镇托管辅导中心,科教文化服务,培训机构,培训机构,苏虎路南50米,陕西省,西安市,高陵区,109.0999854,34.43773989
鞑艺术培训中心,科教文化服务,科教文化场所,科教文化场所,210国道西测,陕西省,西安市,高陵区,109.0967674,34.43999978
长安柳青文学研究会(苏虎路),科教文化服务,科研机构,科研机构,灞耿路与210国道交叉口南200米,陕西省,西安市,灞桥区,109.0963243,34.43312592
旭东教育(耿镇分校),科教文化服务,培训机构,培训机构,苏虎路北50米耿镇派出所附近,陕西省,西安市,高陵区,109.1003583,34.4379139
启航教育托管中心,科教文化服务,培训机构,培训机构,耿镇街道,陕西省,西安市,高陵区,109.1006273,34.43677068
陕西世纪浩锦文化传媒策划有限公司,科教文化服务,传媒机构,传媒机构,灞耿路与210国道交叉口南200米,陕西省,西安市,灞桥区,109.0963233,34.43312592
长安杂志社编辑部,科教文化服务,传媒机构,杂志社,灞耿路与210国道交叉口南200米,陕西省,西安市,灞桥区,109.0963243,34.43312492
小叮当幼儿园(苏虎路),科教文化服务,学校,幼儿园,苏虎路北50米,陕西省,西安市,高陵区,109.1046005,34.43823138
周家小学,科教文化服务,学校,小学,苏虎路,陕西省,西安市,高陵区,109.1182238,34.440753
虎家小学,科教文化服务,学校,小学,耿镇乡虎家村,陕西省,西安市,高陵区,109.1298006,34.4323928
汽车科技职业学院,科教文化服务,科教文化场所,科教文化场所,秦王一路1号,陕西省,西安市,临潼区,109.1795414,34.43761328
机筑小学,科教文化服务,学校,小学,新丰镇,陕西省,西安市,临潼区,109.2601031,34.43264882
西安通信段新丰培训基地,科教文化服务,培训机构,培训机构,G108与老街交叉口北100米,陕西省,西安市,临潼区,109.2811423,34.43386116
高寨世之杰小学,科教文化服务,学校,小学,权家路北50米,陕西省,西安市,临潼区,109.3574816,34.43914873
西安哄惫家湿地公园-科普馆,科教文化服务,科教文化场所,科教文化场所,哄惫家湿地公园内,陕西省,西安市,未央区,108.9992619,34.42216755
西安市户县明流幼儿园,科教文化服务,学校,幼儿园,近郊水流东街18号,陕西省,西安市,灞桥区,109.0504399,34.42432068
草店小学,科教文化服务,学校,小学,灞耿路南50米,陕西省,西安市,灞桥区,109.0501737,34.42370954
灞桥区新合街办明流幼儿园,科教文化服务,学校,幼儿园,新合街办水流东街3号,陕西省,西安市,灞桥区,109.0505466,34.42436645
班家村幼儿园,科教文化服务,学校,幼儿园,新合街道,陕西省,西安市,灞桥区,109.060003,34.42753673
新合街道中心幼儿园,科教文化服务,学校,幼儿园,新合街道班家村,陕西省,西安市,灞桥区,109.0603382,34.4274333
新希望辅导班,科教文化服务,培训机构,培训机构,西寇村,陕西省,西安市,灞桥区,109.0681269,34.42751316
李家小学,科教文化服务,学校,小学,新合镇李家村,陕西省,西安市,灞桥区,109.087873,34.4245435
国际港务区书画研究院,科教文化服务,科研机构,科研机构,210国道东100米,陕西省,西安市,灞桥区,109.0992051,34.42191822
小苹果创意画室,科教文化服务,科教文化场所,科教文化场所,210国道附近,陕西省,西安市,灞桥区,109.0986732,34.42227987
舞之韵舞蹈培训中心,科教文化服务,培训机构,培训机构,新丰街道庆山路十字向西1000米,陕西省,西安市,临潼区,109.2611076,34.42262423
临潼区新丰街办中心幼儿园,科教文化服务,学校,幼儿园,老街西50米,陕西省,西安市,临潼区,109.2652674,34.42764933
阳光宝贝艺术幼儿园(庆山路),科教文化服务,学校,幼儿园,新丰街道办庆山路西段,陕西省,西安市,临潼区,109.2613534,34.42215736
三辰外国语学校(新丰教学区),科教文化服务,培训机构,培训机构,老街东150米,陕西省,西安市,临潼区,109.2654473,34.42547749
莱美艺术培训学校,科教文化服务,科教文化场所,科教文化场所,庆山路35号附近,陕西省,西安市,临潼区,109.2684578,34.42313739
博文教育,科教文化服务,培训机构,培训机构,庆山路96号附近,陕西省,西安市,临潼区,109.2666567,34.42306597
新丰街道文化活动中心,科教文化服务,文化宫,文化宫,庆山路90号附近,陕西省,西安市,临潼区,109.2672827,34.42303047
纸李小学,科教文化服务,学校,小学,代王街办纸李村,陕西省,西安市,临潼区,109.34607,34.4264566
纪王小学,科教文化服务,科教文化场所,科教文化场所,纪王村,陕西省,西安市,临潼区,109.3664124,34.42432384
童之梦幼儿园(东阳村卫生室南),科教文化服务,学校,幼儿园,新合乡东阳村,陕西省,西安市,灞桥区,109.028515,34.41240711
西安国际港务区太白庙小学,科教文化服务,学校,小学,新合街道杏渭路,陕西省,西安市,灞桥区,109.0306111,34.41225282
西安市第七十七中学,科教文化服务,学校,中学,新合街办水流村,陕西省,西安市,灞桥区,109.0444201,34.41413561
贝乐堡幼儿园,科教文化服务,学校,幼儿园,鹤翔路东50米,陕西省,西安市,灞桥区,109.0452644,34.41455961
西安市普慧性幼儿园,科教文化服务,科教文化场所,科教文化场所,南草店村附近,陕西省,西安市,灞桥区,109.0449269,34.42136331
西安国际港务区水流中心小学,科教文化服务,学校,小学,鹤翔路与210县道交叉口东100米,陕西省,西安市,灞桥区,109.0460461,34.4130239
智慧岛幼儿园(灞桥区动物卫生监督所新筑分所东北),科教文化服务,学校,幼儿园,水流新合街道办邮政对面,陕西省,西安市,灞桥区,109.0454174,34.42081662
卓翊托管中心,科教文化服务,培训机构,培训机构,鹤翔路和210县道的交叉口附近,陕西省,西安市,灞桥区,109.0455906,34.41240619
一诺助跑教育中心,科教文化服务,培训机构,培训机构,鹤翔路和210县道的交叉口附近,陕西省,西安市,灞桥区,109.0456045,34.41232521
博乐教育,科教文化服务,培训机构,培训机构,水流村,陕西省,西安市,灞桥区,109.0456674,34.41174042
柳树余小学,科教文化服务,学校,小学,鹤翔路东50米,陕西省,西安市,灞桥区,109.0655053,34.41692155
西安国际港务区柳树余小学,科教文化服务,学校,小学,鹤翔路东50米柳树余小学附近,陕西省,西安市,灞桥区,109.0655053,34.41692155
开心果幼儿园(鹤翔路),科教文化服务,学校,幼儿园,临水路与鹤翔路交叉口东150米,陕西省,西安市,灞桥区,109.0665194,34.41347333
成长快乐幼儿园,科教文化服务,学校,幼儿园,鹤翔路与325县道交叉口东北50米,陕西省,西安市,灞桥区,109.075362,34.4132946
西安市第六十五中学,科教文化服务,学校,中学,新合街道,陕西省,西安市,灞桥区,109.0981298,34.41828311
旭东教育(灞桥分校),科教文化服务,培训机构,培训机构,鹤翔路南50米,陕西省,西安市,灞桥区,109.0960538,34.41655677
科迪幼儿园(鹤翔路),科教文化服务,学校,幼儿园,鹤翔路北50米,陕西省,西安市,灞桥区,109.0916096,34.41628381
阿里教育(新合校区),科教文化服务,培训机构,培训机构,新合街道办事处党家中心小学附近,陕西省,西安市,灞桥区,109.0952852,34.41650172
陕西武道馆,科教文化服务,培训机构,培训机构,新合街道办事处党家中心小学附近,陕西省,西安市,灞桥区,109.0951893,34.41644874
沐哲教育新合分校,科教文化服务,培训机构,培训机构,鹤翔路南50米,陕西省,西安市,灞桥区,109.0945627,34.41641772
诚博教育中心,科教文化服务,培训机构,培训机构,鹤翔路南50米,陕西省,西安市,灞桥区,109.0942638,34.41633375
党家中心小学,科教文化服务,学校,小学,新合街道办事处,陕西省,西安市,灞桥区,109.0949874,34.41674655
金起点教育辅导中心,科教文化服务,培训机构,培训机构,鹤翔路附近,陕西省,西安市,灞桥区,109.0933694,34.41628875
汇智教育(鹤翔路),科教文化服务,培训机构,培训机构,鹤翔路与210国道交叉口南100米,陕西省,西安市,灞桥区,109.0994105,34.41633456
启明星幼儿园(灞桥区新合食品药品监督管理所东),科教文化服务,学校,幼儿园,何寨街办何马路中段,陕西省,西安市,灞桥区,109.0990372,34.42087879
尚武武术,科教文化服务,培训机构,培训机构,马寨鹤翔路新合供销合作社北300米,陕西省,西安市,灞桥区,109.0989492,34.42108964
金色阳光幼儿园(新合农业技术推广综合服务站北),科教文化服务,学校,幼儿园,210国道西50米,陕西省,西安市,灞桥区,109.0987804,34.4197424
詹家幼儿园,科教文化服务,学校,幼儿园,乳品有限公司,陕西省,西安市,灞桥区,109.101768,34.41513201
七彩幼儿园(西麦路),科教文化服务,学校,幼儿园,西麦路西50米,陕西省,西安市,临潼区,109.1280186,34.41251023
北庄小学,科教文化服务,学校,小学,行者乡北庄村,陕西省,西安市,临潼区,109.2138063,34.41259706
行者街道办西沟小学,科教文化服务,学校,小学,行者街道办西沟村,陕西省,西安市,临潼区,109.2139625,34.41191662
欣欣幼儿园,科教文化服务,学校,幼儿园,城关镇中坝村,陕西省,西安市,临潼区,109.2506174,34.41781957
刘寨小学,科教文化服务,科教文化场所,科教文化场所,新丰镇刘寨村,陕西省,西安市,临潼区,109.2532335,34.41203721
鸿门宴博物馆,科教文化服务,博物馆,博物馆,鸿门宴路2号,陕西省,西安市,临潼区,109.2695107,34.4162695
西安市临潼区职业教育中心,科教文化服务,学校,职业技术学校,陵新路与108国道交叉口西100米,陕西省,西安市,临潼区,109.2617053,34.41779271
新丰初级中学,科教文化服务,科教文化场所,科教文化场所,老街1号,陕西省,西安市,临潼区,109.2671391,34.4209808
嘉瑞学校,科教文化服务,培训机构,培训机构,鸿门宴路与108国道交叉口西北150米,陕西省,西安市,临潼区,109.2657853,34.41984557
临潼区新丰中学,科教文化服务,学校,中学,108国道,陕西省,西安市,临潼区,109.2616643,34.41749691
秦驰驾驶员培训中心,科教文化服务,科教文化场所,科教文化场所,新丰街道庆山路,陕西省,西安市,临潼区,109.2696091,34.4210426
房家小学,科教文化服务,科教文化场所,科教文化场所,马额街道,陕西省,西安市,临潼区,109.3572811,34.41600193
临潼区马额初中,科教文化服务,学校,中学,马额街办吴家村,陕西省,西安市,临潼区,109.3777946,34.41198969
吴家小学,科教文化服务,科教文化场所,科教文化场所,马额办吴家村,陕西省,西安市,临潼区,109.3784437,34.41189923
华山分厂幼儿园,科教文化服务,学校,幼儿园,草滩镇,陕西省,西安市,未央区,108.9604298,34.40212396
维兰德小镇幼儿园,科教文化服务,学校,幼儿园,环湖西路倚能维兰德小镇(未央湖大酒店对面),陕西省,西安市,未央区,108.9756315,34.40521053
太阳花艺术培训中心,科教文化服务,培训机构,培训机构,阳光大道附近,陕西省,西安市,未央区,108.9763025,34.40770815
西安市未央区王家棚小学,科教文化服务,学校,小学,王家棚村,陕西省,西安市,未央区,108.9869115,34.40782555
雅荷蓝湾国际幼儿园,科教文化服务,学校,幼儿园,环湖南路南50米,陕西省,西安市,未央区,108.9883737,34.4020724
双河湾幼儿园,科教文化服务,学校,幼儿园,启源三路东150米,陕西省,西安市,未央区,108.9914382,34.40496643
公仕教育,科教文化服务,培训机构,培训机构,启源二路北50米,陕西省,西安市,未央区,108.9919442,34.40360567
陕西警官职业学院(湖宾路),科教文化服务,学校,高等院校,启源二路1号,陕西省,西安市,未央区,109.0021605,34.40858467
陕西警官学院新校区,科教文化服务,学校,高等院校,湖宾路与滨河西路交汇处西200米,陕西省,西安市,未央区,109.0028867,34.40459376
1+1幼儿园,科教文化服务,学校,幼儿园,灞河东路东50米,陕西省,西安市,灞桥区,109.0102113,34.40665363
西安时尚宠物美容学校,科教文化服务,培训机构,培训机构,河堤路西航花园西大门外商铺,陕西省,西安市,灞桥区,109.0101385,34.40715556
陕西警官职业学院(南区),科教文化服务,科教文化场所,科教文化场所,启源二路东口,陕西省,西安市,未央区,109.0031395,34.40590325
西港花园幼儿园,科教文化服务,学校,幼儿园,草临路新筑街道西航花园小区,陕西省,西安市,灞桥区,109.0164744,34.40316338
椿幼儿园,科教文化服务,学校,幼儿园,新筑街办西航花园附近,陕西省,西安市,灞桥区,109.0138846,34.40981804
腾飞驾校,科教文化服务,科教文化场所,科教文化场所,张家堡街道红旗厂西航医院南侧武装部巷子路北附近,陕西省,西安市,灞桥区,109.0136299,34.40741417
晓鹏画室,科教文化服务,科教文化场所,科教文化场所,迎宾大道骞柳二区9号楼一单元一层西户,陕西省,西安市,灞桥区,109.0150651,34.40458662
精典二幼,科教文化服务,学校,幼儿园,新筑街道草临路西航花园骞柳小区,陕西省,西安市,灞桥区,109.0149548,34.4020234
辛福天使幼儿园,科教文化服务,学校,幼儿园,滨河东路附近,陕西省,西安市,灞桥区,109.012033,34.40183301
天平驾校,科教文化服务,科教文化场所,科教文化场所,新筑镇西航花园B区38号楼,陕西省,西安市,灞桥区,109.0119918,34.40579688
百龙斋主工作室,科教文化服务,培训机构,培训机构,灞桥街道西航花园附近,陕西省,西安市,灞桥区,109.0140572,34.40583483
智诚教育,科教文化服务,培训机构,培训机构,灞河东路西航花园C区77号楼,陕西省,西安市,灞桥区,109.0136091,34.40525446
方舟教育,科教文化服务,培训机构,培训机构,新筑街道西航花园米禾超市二楼,陕西省,西安市,灞桥区,109.0126124,34.40365428
蓝天幼儿园,科教文化服务,学校,幼儿园,国际港务区新合街办西堡村村委会对面,陕西省,西安市,灞桥区,109.0207683,34.41089783
小米舞蹈中心,科教文化服务,培训机构,培训机构,草临路西航花园,陕西省,西安市,灞桥区,109.0125726,34.4038223
七巧板美术培训中心,科教文化服务,培训机构,培训机构,新筑街道世博大道西航花园,陕西省,西安市,灞桥区,109.0123207,34.40286758
西安庆华驾校,科教文化服务,驾校,驾校,210县道西50米,陕西省,西安市,灞桥区,109.0479397,34.40862166
阿里教育,科教文化服务,科教文化场所,科教文化场所,210国道西200米,陕西省,西安市,灞桥区,109.0991235,34.40563268
麦王小学,科教文化服务,科教文化场所,科教文化场所,西八家庄,陕西省,西安市,临潼区,109.1280908,34.41073335
小博士幼儿园(西麦路),科教文化服务,学校,幼儿园,西宣路与西麦路交叉口西100米,陕西省,西安市,临潼区,109.1373332,34.40666191
阳光艺术培训学校(西泉社区居委会南),科教文化服务,培训机构,培训机构,西泉社区居委会南,陕西省,西安市,临潼区,109.1403312,34.4046258
学智教育,科教文化服务,科教文化场所,科教文化场所,行斜路北200米,陕西省,西安市,临潼区,109.142683,34.40792974
西泉中心小学,科教文化服务,科教文化场所,科教文化场所,行斜路西200米,陕西省,西安市,临潼区,109.1420722,34.40808964
新思路教育(行斜路),科教文化服务,培训机构,培训机构,坡贾路与桑园路交叉口东150米,陕西省,西安市,临潼区,109.1533358,34.40578148
马坊小学,科教文化服务,学校,小学,行者办事处马坊村,陕西省,西安市,临潼区,109.1657411,34.40191667
行者中心小学,科教文化服务,学校,小学,行者街办,陕西省,西安市,临潼区,109.1970174,34.40321719
西安市临潼区行者文化站,科教文化服务,文化宫,文化宫,行北路东50米,陕西省,西安市,临潼区,109.2003424,34.40296931
西安市临潼区行者乡初级中学,科教文化服务,学校,中学,西临高速,陕西省,西安市,临潼区,109.1973437,34.40409719
天真幼儿园(行者街道综治维稳中心东北),科教文化服务,学校,幼儿园,G30连霍高速,陕西省,西安市,临潼区,109.2036719,34.40486696
秦陵街道办事处上陈小学,科教文化服务,学校,小学,秦陵办上陈村,陕西省,西安市,临潼区,109.2312298,34.40245385
秦陵街道办事处上陈小学,科教文化服务,学校,小学,秦陵办上陈村,陕西省,西安市,临潼区,109.2312298,34.40245385
鱼池小学,科教文化服务,学校,小学,秦陵街办,陕西省,西安市,临潼区,109.2621039,34.40425628
安沟小学,科教文化服务,学校,小学,安沟村,陕西省,西安市,临潼区,109.2829718,34.40647294
西安市驾驶人社会化骊峰科目三考场,科教文化服务,培训机构,培训机构,,陕西省,西安市,临潼区,109.2829938,34.40555744
驾驶人科目三华清考场,科教文化服务,驾校,驾校,骊丰六路,陕西省,西安市,临潼区,109.2941037,34.40961271
秦驰科目二考场,科教文化服务,科教文化场所,科教文化场所,门家路与201县道交叉口南200米,陕西省,西安市,临潼区,109.3096064,34.40441266
纸李初级中学,科教文化服务,学校,中学,代王街道办,陕西省,西安市,临潼区,109.3430901,34.41051016
代王平丰小学,科教文化服务,学校,小学,代王街道,陕西省,西安市,临潼区,109.3424091,34.40811875
喜洋洋幼儿园,科教文化服务,学校,幼儿园,吴定路与201县道交叉口东150米,陕西省,西安市,临潼区,109.3741757,34.40444716
V王小学,科教文化服务,学校,小学,马额街办冢王堡路口,陕西省,西安市,临潼区,109.3725972,34.40461957
展望文化辅导中心,科教文化服务,培训机构,培训机构,201县道与203县道交叉口北150米,陕西省,西安市,临潼区,109.3785592,34.40505608
马额中心小学,科教文化服务,学校,小学,马额镇马额街道,陕西省,西安市,临潼区,109.3862213,34.40227792
马额中学,科教文化服务,学校,中学,马额街道办事处,陕西省,西安市,临潼区,109.3872263,34.40271323
马额小天真幼儿园,科教文化服务,学校,幼儿园,201县道北50米,陕西省,西安市,临潼区,109.3831283,34.40676899
马额秦汉驾驶员培训中心,科教文化服务,科教文化场所,科教文化场所,临蓝路与英李路交叉口西100米,陕西省,西安市,临潼区,109.3893751,34.40580466
柳家小学,科教文化服务,学校,小学,柳家村,陕西省,西安市,临潼区,109.4167264,34.40764191
西安市北城学校,科教文化服务,学校,中学,兴华路1号,陕西省,西安市,未央区,108.9609821,34.3981208
西北工业集团北郊分厂幼儿园,科教文化服务,科教文化场所,科教文化场所,西铜一级公路,陕西省,西安市,未央区,108.960381,34.40190821
草滩镇中心小学,科教文化服务,学校,小学,草滩镇草二村,陕西省,西安市,未央区,108.9662612,34.39419404
安防文化发展中心,科教文化服务,文化宫,文化宫,G65包茂高速附近,陕西省,西安市,未央区,108.9677713,34.394063
菩提教育辅导班,科教文化服务,培训机构,培训机构,G65包茂高速附近,陕西省,西安市,未央区,108.9651526,34.39307265
天朗蓝湖幼儿园,科教文化服务,学校,幼儿园,湖芸辉路草滩派出所50米,陕西省,西安市,未央区,108.9751403,34.39635195
陕西瑞晟消防职业技能培训学校,科教文化服务,学校,职业技术学校|科教文化服务,草滩街道阳光大道二号,陕西省,西安市,未央区,108.9765881,34.39830067
碧云天汇智幼儿园,科教文化服务,学校,幼儿园,东风路与环湖西路交叉口西北100米,陕西省,西安市,未央区,108.9765128,34.39396231
未央湖幼儿园,科教文化服务,学校,幼儿园,环湖南路新格瑞拉湖滨假日中心小区F38-55号,陕西省,西安市,未央区,108.9789302,34.39971801
北师大佳秤锥园,科教文化服务,学校,幼儿园,草滩社区卫生服务中心北侧,陕西省,西安市,未央区,108.97269,34.40070453
西安市未央区交大思源第三幼儿园,科教文化服务,科教文化场所,科教文化场所,东风路与阳光大道交叉口西南200米,陕西省,西安市,未央区,108.9761883,34.39211928
碧云天小区昂乐教育,科教文化服务,科教文化场所,科教文化场所,东风路与环湖西路交叉口西100米,陕西省,西安市,未央区,108.976232,34.39340044
西安牵手精灵宠物护理技术培训学校,科教文化服务,培训机构,培训机构,未央湖佳隆庄园B02栋,陕西省,西安市,未央区,108.9741174,34.39746827
西安幼儿师范未央湖大学城校区,科教文化服务,学校,职业技术学校,向上路附近,陕西省,西安市,未央区,108.9733433,34.40094053
乐思学堂,科教文化服务,培训机构,培训机构,东风路5号附近,陕西省,西安市,未央区,108.9748179,34.39306571
儿童绘画(润家购物广场未央湖店),科教文化服务,培训机构,培训机构,东风路与环湖西路交叉口东北100米润家购物广场(未央湖店)F3层,陕西省,西安市,未央区,108.9782495,34.39431804
西安幼儿师范职业技工学校附属高中部,科教文化服务,学校,中学,湖向上路东50米,陕西省,西安市,未央区,108.9733293,34.40093957
长庆未央湖学校,科教文化服务,学校,中学,草滩镇东风路99号,陕西省,西安市,未央区,108.9865999,34.39531757
西安腾飞社会化科目一考场,科教文化服务,科教文化场所,科教文化场所,东风路北100米,陕西省,西安市,未央区,108.9855365,34.39591845
腾飞驾校,科教文化服务,驾校,驾校,东风路锦鹏国际酒店用品城旁,陕西省,西安市,未央区,108.9865232,34.39588948
会议培训中心,科教文化服务,科教文化场所,科教文化场所,未央湖开发区芸辉路8号,陕西省,西安市,未央区,108.9889315,34.39964008
西安隆源现代教育,科教文化服务,培训机构,培训机构,锦鹏国际酒店用品成C5-1排三楼,陕西省,西安市,未央区,108.9856331,34.39514059
阳泉阳光幼儿园,科教文化服务,学校,幼儿园,环湖南路西100米,陕西省,西安市,未央区,108.9820101,34.40071333
雅格蓝湾国际幼儿园,科教文化服务,科教文化场所,科教文化场所,未央湖街道环湖南路东口雅荷蓝湾段小区,陕西省,西安市,未央区,108.988778,34.40154247
b泉阳光幼儿园,科教文化服务,学校,幼儿园,环湖南路南50米,陕西省,西安市,未央区,108.9820818,34.40088302
盛航教育(锦鹏国际店),科教文化服务,传媒机构,传媒机构|科教文化服务,锦鹏国际酒店用品城A区1排3层,陕西省,西安市,未央区,108.9843934,34.39527325
易才教育,科教文化服务,科教文化场所,科教文化场所,草滩镇八家十字西南角左岸骏景售楼部三楼,陕西省,西安市,未央区,108.991005,34.39505534
陕西盛航艺术文化传播有限公司,科教文化服务,传媒机构,传媒机构,东风路附近,陕西省,西安市,未央区,108.9843127,34.39544439
家润骏景幼儿园,科教文化服务,学校,幼儿园,东风路16号,陕西省,西安市,未央区,108.9963394,34.39970246
驾了么学车培训基地,科教文化服务,驾校,驾校,灞河西路,陕西省,西安市,未央区,109.0043324,34.39360058
西安西港花园高级中学,科教文化服务,学校,中学,新筑街道办,陕西省,西安市,灞桥区,109.0124776,34.39651471
解放幼儿园,科教文化服务,学校,幼儿园,骞柳商业街3栋附近,陕西省,西安市,灞桥区,109.0199746,34.39828323
西安西港花园学校,科教文化服务,学校,小学,水灞路与迎宾大道交叉口西南100米,陕西省,西安市,灞桥区,109.0141315,34.39829689
西安国际陆港第一幼儿园,科教文化服务,学校,幼儿园,新筑街道迎宾大道6号,陕西省,西安市,灞桥区,109.0154751,34.39717763
快乐之星幼儿园,科教文化服务,学校,幼儿园,新筑街道西航花园,陕西省,西安市,灞桥区,109.0131544,34.40127705
A+宝贝幼儿园,科教文化服务,学校,幼儿园,西港小区,陕西省,西安市,灞桥区,109.0126147,34.40030917
灞桥音乐之声艺校幼儿园,科教文化服务,学校,幼儿园,骞柳商业街,陕西省,西安市,灞桥区,109.014437,34.40145022
西安明星艺术文化中心,科教文化服务,培训机构,培训机构|科教文化服务,秦汉大道西航花园骞柳小区商住4号楼2号,陕西省,西安市,灞桥区,109.0188631,34.39884604
先行教育,科教文化服务,科教文化场所,科教文化场所,西航花园园中园三号楼,陕西省,西安市,灞桥区,109.0160942,34.40068688
安心托管,科教文化服务,科教文化场所,科教文化场所,骞柳小区园中园5号楼2单元102室,陕西省,西安市,灞桥区,109.0159011,34.39976695
智源托管,科教文化服务,培训机构,培训机构,水灞路与迎宾大道交叉口东北100米,陕西省,西安市,灞桥区,109.0150307,34.39947562
草莓琴行,科教文化服务,培训机构,培训机构,骞柳步行街,陕西省,西安市,灞桥区,109.015692,34.3993198
依尚国标舞培训中心,科教文化服务,培训机构,培训机构,水灞路与骞柳商业步行街交叉口西北100米,陕西省,西安市,灞桥区,109.0153863,34.39933967
大成托管,科教文化服务,培训机构,培训机构,水灞路与迎宾大道交叉口东北100米,陕西省,西安市,灞桥区,109.0150307,34.39947562
凹凸个性教育,科教文化服务,科教文化场所,科教文化场所,东风路与灞河东路交叉口东150米,陕西省,西安市,灞桥区,109.0117086,34.39861878
北京优你可优教育,科教文化服务,科教文化场所,科教文化场所,西航花园底商,陕西省,西安市,灞桥区,109.0143434,34.40139552
星桥教育,科教文化服务,科教文化场所,科教文化场所,西航花园底商,陕西省,西安市,灞桥区,109.0121128,34.40025967
书香源教育,科教文化服务,科教文化场所,科教文化场所,西航花园B区04号别墅,陕西省,西安市,灞桥区,109.0128537,34.40028149
金太阳托管辅导,科教文化服务,科教文化场所,科教文化场所,骞柳商业步行街附近,陕西省,西安市,灞桥区,109.016617,34.401347
朗朗教育,科教文化服务,培训机构,培训机构,西航花园C3别墅,陕西省,西安市,灞桥区,109.0133496,34.40027105
北京优你可西航分校,科教文化服务,科教文化场所,科教文化场所,骞柳商业街附近,陕西省,西安市,灞桥区,109.0144042,34.40135537
炫彩音乐乐器培训,科教文化服务,培训机构,培训机构,骞柳商业步行街丽家超市旁,陕西省,西安市,灞桥区,109.0174158,34.40108887
益智雅思教育,科教文化服务,培训机构,培训机构,东风路附近,陕西省,西安市,灞桥区,109.0119865,34.39878087
音乐之声艺术学校西航分校,科教文化服务,培训机构,培训机构,水灞路与迎宾大道交叉口西北100米,陕西省,西安市,灞桥区,109.0139761,34.39968056
神奇世界,科教文化服务,培训机构,培训机构,东风路附近,陕西省,西安市,灞桥区,109.0117236,34.39873767
骞柳学生托管中心,科教文化服务,培训机构,培训机构,骞柳小区商贸委7号楼3单元1层,陕西省,西安市,灞桥区,109.0160394,34.40147259
1+1托管,科教文化服务,培训机构,培训机构,东风路附近,陕西省,西安市,灞桥区,109.0126476,34.40031407
方舟托管辅导中心,科教文化服务,培训机构,培训机构,骞柳一区24号楼3单元1层,陕西省,西安市,灞桥区,109.017597,34.40094844
盼盼贵族托管,科教文化服务,培训机构,培训机构,水灞路与迎宾大道交叉口北200米,陕西省,西安市,灞桥区,109.0143614,34.40075483
咪迪音乐教室,科教文化服务,培训机构,培训机构,骞柳商业步行街骞柳1区27号附近,陕西省,西安市,灞桥区,109.0174446,34.40164847
西安A+体育舞蹈俱乐部北郊分部,科教文化服务,培训机构,培训机构,水灞路与迎宾大道交叉口西北150米,陕西省,西安市,灞桥区,109.0138386,34.39969595
英杰培优辅导中心,科教文化服务,培训机构,培训机构,西航花园A18,陕西省,西安市,灞桥区,109.0116527,34.40074674
陕西蓝天画苑美术艺考基地,科教文化服务,培训机构,培训机构,西航花园C区34号别墅,陕西省,西安市,灞桥区,109.0141871,34.401361
西安国际港务区启智培训中心,科教文化服务,培训机构,培训机构,东风路附近,陕西省,西安市,灞桥区,109.0116519,34.398521
西安盛唐书画院少儿教育中心,科教文化服务,培训机构,培训机构,东风路附近,陕西省,西安市,灞桥区,109.0113332,34.3987688
自由之丘教育科技(西航花园),科教文化服务,培训机构,培训机构,西航花园骞柳小区C27别墅,陕西省,西安市,灞桥区,109.014444,34.40117436
庆华驾校训练场,科教文化服务,驾校,驾校,,陕西省,西安市,灞桥区,109.0336327,34.39269537
彼肯培训中心,科教文化服务,培训机构,培训机构,灞耿路与210县道交叉口西南200米,陕西省,西安市,灞桥区,109.0558701,34.39799835
陕西中集物流有限公司司法驾校,科教文化服务,驾校,驾校,灞耿路与秦汉大道交叉口西50米,陕西省,西安市,灞桥区,109.0545645,34.39950769
新筑镇半坡小学,科教文化服务,学校,小学,新筑街道半坡村,陕西省,西安市,灞桥区,109.0614472,34.39668154
杨庄博艺幼儿园,科教文化服务,学校,幼儿园,新筑街道西安国际港务区杨庄村三组,陕西省,西安市,灞桥区,109.0748995,34.39325337
杨庄小学,科教文化服务,学校,小学,杨庄村,陕西省,西安市,灞桥区,109.0742326,34.39314398
小毛毛幼儿园,科教文化服务,学校,幼儿园,陶家村漕渠小学向西200米,陕西省,西安市,灞桥区,109.0877516,34.39623188
西安音乐舞蹈学院,科教文化服务,学校,高等院校,新合街道办事处,陕西省,西安市,灞桥区,109.0833886,34.39260338
陕西金穗国际学院,科教文化服务,学校,高等院校,保税三路东口北100米,陕西省,西安市,灞桥区,109.0829791,34.39248763
漕渠小学,科教文化服务,学校,小学,新合乡米家堡五组,陕西省,西安市,灞桥区,109.0896739,34.39621451
西安音乐舞蹈专修学院东校区,科教文化服务,科教文化场所,科教文化场所,新筑街道保税三路,陕西省,西安市,灞桥区,109.0835394,34.39286317
小白杨幼儿园(中共新合村支部委员会西),科教文化服务,学校,幼儿园,等驾坡白杨寨,陕西省,西安市,灞桥区,109.0898548,34.39541593
西安舞蹈职业学校,科教文化服务,学校,职业技术学校,新合街道办事处西安音乐舞蹈学院-中国秦腔杂志社附近,陕西省,西安市,灞桥区,109.083066,34.39256555
西安体育舞蹈职业学校,科教文化服务,学校,职业技术学校,新合街道办事处,陕西省,西安市,灞桥区,109.0825715,34.39259576
陕西金穗国际汽车技师学院,科教文化服务,学校,职业技术学校,325县道附近,陕西省,西安市,灞桥区,109.0819163,34.39293489
陕西省奥林匹克国际文化中心,科教文化服务,科教文化场所,科教文化场所,新合街道办事处,陕西省,西安市,灞桥区,109.0825735,34.39258676
陕西广播电视大学舞蹈艺术学院,科教文化服务,学校,成人教育,新合街道办事处,陕西省,西安市,灞桥区,109.0825735,34.39258576
西安宇星驾校,科教文化服务,驾校,驾校,秦汉大道西韩公路新合村(公交907到陶家站),陕西省,西安市,灞桥区,109.0946065,34.39467714
开心果幼儿园,科教文化服务,学校,幼儿园,新合村,陕西省,西安市,灞桥区,109.0911319,34.39391561
西安诚信驾校东区,科教文化服务,驾校,驾校,112县道西安诚信驾校西区附近,陕西省,西安市,灞桥区,109.0947065,34.39445527
西安诚信驾校西区,科教文化服务,驾校,驾校,新合街道新合村村委会,陕西省,西安市,灞桥区,109.0939839,34.39445923
顶尖辅导中心,科教文化服务,培训机构,培训机构,,陕西省,西安市,灞桥区,109.0915706,34.39385761
贾村小学,科教文化服务,学校,小学,贾村10,陕西省,西安市,临潼区,109.1370628,34.39670213
西泉初级中学,科教文化服务,科教文化场所,科教文化场所,贾村下贾组,陕西省,西安市,临潼区,109.1369616,34.39764645
新世纪少儿剑桥英语培训中心,科教文化服务,培训机构,培训机构,西泉街道贾村小学北350米,陕西省,西安市,临潼区,109.1374991,34.39907347
艺轩艺术培训中心,科教文化服务,培训机构,培训机构,西泉街道贾村小学北,陕西省,西安市,临潼区,109.137508,34.40020285
临潼华鹰科二考场,科教文化服务,驾校,驾校,行斜路附近,陕西省,西安市,临潼区,109.1397455,34.39305037
坡底小学,科教文化服务,学校,小学,西泉镇坡底村杜家组,陕西省,西安市,临潼区,109.1507847,34.39699888
丫丫幼儿园,科教文化服务,学校,幼儿园,行者街办白庙村,陕西省,西安市,临潼区,109.1737055,34.39757304
白庙小学,科教文化服务,学校,小学,行者街道办,陕西省,西安市,临潼区,109.180352,34.3988975
行者中心幼儿园,科教文化服务,学校,幼儿园,行者街道办,陕西省,西安市,临潼区,109.1803431,34.3981539
白庙小学-阳光书香托管中心,科教文化服务,科教文化场所,科教文化场所,白庙小学东隔壁,陕西省,西安市,临潼区,109.180352,34.3988975
