名称,大类,中类,小类,地址,省,市,区,WGS84_经度,WGS84_纬度
公共厕所,公共设施,公共厕所,公共厕所,京加路东50米,北京市,北京市,怀柔区,116.6233438,41.00238911
公共厕所,公共设施,公共厕所,公共厕所,京加路西50米,北京市,北京市,怀柔区,116.6287951,41.00735572
公共厕所,公共设施,公共厕所,公共厕所,北部喇叭沟门满族乡孙栅子五龙潭原始次生林景区附近,北京市,北京市,怀柔区,116.4939848,40.96124953
公共厕所,公共设施,公共厕所,公共厕所,003乡道南50米,北京市,北京市,怀柔区,116.5683246,40.96768637
公共厕所,公共设施,公共厕所,公共厕所,003乡道附近,北京市,北京市,怀柔区,116.5716601,40.96776851
公共厕所,公共设施,公共厕所,公共厕所,喇叭沟门满族乡孙栅子村西300号北京喇叭沟原始森林公园附近,北京市,北京市,怀柔区,116.4836575,40.9582514
公共厕所,公共设施,公共厕所,公共厕所,喇碾路与017县道交叉口北100米,北京市,北京市,怀柔区,116.4979349,40.95378366
公共厕所,公共设施,公共厕所,公共厕所,京加路东150米,北京市,北京市,怀柔区,116.6298358,40.95258088
公共厕所,公共设施,公共厕所,公共厕所,017县道南50米,北京市,北京市,怀柔区,116.5127725,40.94666008
公共厕所,公共设施,公共厕所,公共厕所,017县道北50米,北京市,北京市,怀柔区,116.5116232,40.94716338
公共厕所,公共设施,公共厕所,公共厕所,017县道北50米,北京市,北京市,怀柔区,116.5379543,40.93895734
公共厕所,公共设施,公共厕所,公共厕所,017县道南50米,北京市,北京市,怀柔区,116.5470511,40.93532128
公共厕所,公共设施,公共厕所,公共厕所,017县道东100米,北京市,北京市,怀柔区,116.5501092,40.93434877
公共厕所,公共设施,公共厕所,公共厕所,017县道北50米,北京市,北京市,怀柔区,116.5832296,40.92441758
公共厕所,公共设施,公共厕所,公共厕所,017县道北50米,北京市,北京市,怀柔区,116.5799513,40.92559913
公共厕所,公共设施,公共厕所,公共厕所,017县道南150米,北京市,北京市,怀柔区,116.5806229,40.92374004
公共厕所,公共设施,公共厕所,公共厕所,道郑路与151乡道交叉口东南50米,北京市,北京市,怀柔区,116.3558808,40.91213228
喇叭沟原始森林风景区-公共厕所,公共设施,公共厕所,公共厕所,庄喇路东50米,北京市,北京市,怀柔区,116.5010219,40.91381167
公共厕所,公共设施,公共厕所,公共厕所,017县道西50米,北京市,北京市,怀柔区,116.5987656,40.91409567
公共厕所,公共设施,公共厕所,公共厕所,瓦勺沟路与道郑路交叉口西北50米,北京市,北京市,怀柔区,116.3610799,40.90480215
喇叭沟原始森林风景区-公共厕所,公共设施,公共厕所,公共厕所,017县道南50米,北京市,北京市,怀柔区,116.6129591,40.90177649
公共厕所,公共设施,公共厕所,公共厕所,道郑路附近,北京市,北京市,怀柔区,116.3671312,40.89499588
喇叭沟原始森林风景区-公共厕所,公共设施,公共厕所,公共厕所,庄喇路北50米,北京市,北京市,怀柔区,116.5197237,40.8948791
喇叭沟原始森林风景区-公共厕所,公共设施,公共厕所,公共厕所,庄喇路南50米,北京市,北京市,怀柔区,116.5555427,40.89207355
喇叭沟原始森林风景区-公共厕所,公共设施,公共厕所,公共厕所,庄喇路南50米,北京市,北京市,怀柔区,116.5620339,40.89116369
喇叭沟原始森林风景区-公共厕所,公共设施,公共厕所,公共厕所,庄喇路附近,北京市,北京市,怀柔区,116.5888637,40.89611677
公共厕所,公共设施,公共厕所,公共厕所,庄喇路南50米,北京市,北京市,怀柔区,116.5892726,40.89621274
公共厕所,公共设施,公共厕所,公共厕所,京加路西50米,北京市,北京市,怀柔区,116.6167258,40.89856063
公共厕所,公共设施,公共厕所,公共厕所,大东路与008乡道交叉口东50米,北京市,北京市,怀柔区,116.6694085,40.88788435
公共厕所,公共设施,公共厕所,公共厕所,151乡道东50米,北京市,北京市,怀柔区,116.377022,40.87799045
公共厕所,公共设施,公共厕所,公共厕所,道德坑村,北京市,北京市,怀柔区,116.4051785,40.87136494
公共厕所,公共设施,公共厕所,公共厕所,京加路西50米,北京市,北京市,怀柔区,116.6432173,40.87759387
公共厕所,公共设施,公共厕所,公共厕所,宝碾公路北50米,北京市,北京市,怀柔区,116.4123746,40.86136424
公共厕所,公共设施,公共厕所,公共厕所,京加路北100米,北京市,北京市,怀柔区,116.6549551,40.86436757
公共厕所,公共设施,公共厕所,公共厕所,京加路北100米对角沟门村民委员会附近,北京市,北京市,怀柔区,116.6539878,40.86419352
公共厕所,公共设施,公共厕所,公共厕所,宝碾公路东50米,北京市,北京市,怀柔区,116.4201973,40.85270837
公共厕所,公共设施,公共厕所,公共厕所,对上路南50米,北京市,北京市,怀柔区,116.6290794,40.85888061
公共厕所,公共设施,公共厕所,公共厕所,京加路北100米,北京市,北京市,怀柔区,116.7020464,40.85419741
公共厕所,公共设施,公共厕所,公共厕所,宝碾公路西50米,北京市,北京市,怀柔区,116.4247367,40.84366207
公共厕所,公共设施,公共厕所,公共厕所,四王路与宝碾公路交叉口西100米,北京市,北京市,怀柔区,116.4699862,40.83175584
公共厕所,公共设施,公共厕所,公共厕所,京加路西100米,北京市,北京市,怀柔区,116.7091686,40.84083278
公共厕所,公共设施,公共厕所,公共厕所,宝碾公路南50米,北京市,北京市,怀柔区,116.4573913,40.82412506
公共厕所,公共设施,公共厕所,公共厕所,006乡道东50米,北京市,北京市,怀柔区,116.5473832,40.83068987
公共厕所,公共设施,公共厕所,公共厕所,061乡道东50米,北京市,北京市,怀柔区,116.6141926,40.8284309
公共厕所,公共设施,公共厕所,公共厕所,061乡道北50米,北京市,北京市,怀柔区,116.6306825,40.82335825
公共厕所,公共设施,公共厕所,公共厕所,三道窝铺村附近,北京市,北京市,怀柔区,116.6295839,40.82306206
公共厕所,公共设施,公共厕所,公共厕所,006乡道东50米,北京市,北京市,怀柔区,116.5556128,40.820988
公共厕所,公共设施,公共厕所,公共厕所,061乡道南50米,北京市,北京市,怀柔区,116.6383831,40.81842334
公共厕所,公共设施,公共厕所,公共厕所,061乡道西50米,北京市,北京市,怀柔区,116.6394385,40.81815083
公共厕所,公共设施,公共厕所,公共厕所,京加路东50米,北京市,北京市,怀柔区,116.7392131,40.81883133
公共厕所,公共设施,公共厕所,公共厕所,滦赤路西200米,北京市,北京市,怀柔区,116.8008849,40.81489801
公共厕所,公共设施,公共厕所,公共厕所,宝碾公路西50米,北京市,北京市,怀柔区,116.4875,40.8050167
公共厕所,公共设施,公共厕所,公共厕所,,北京市,北京市,怀柔区,116.5321952,40.8088825
公共厕所,公共设施,公共厕所,公共厕所,006乡道西50米,北京市,北京市,怀柔区,116.5658094,40.81041436
公共厕所,公共设施,公共厕所,公共厕所,滦赤路西50米,北京市,北京市,怀柔区,116.7692075,40.80180576
公共厕所,公共设施,公共厕所,公共厕所,滦赤路东50米,北京市,北京市,怀柔区,116.8013663,40.81068319
公共厕所,公共设施,公共厕所,公共厕所,006乡道南50米,北京市,北京市,怀柔区,116.5770928,40.79913242
公共厕所,公共设施,公共厕所,公共厕所,061乡道南50米,北京市,北京市,怀柔区,116.6672122,40.79975537
公共厕所,公共设施,公共厕所,公共厕所,兰七路东50米,北京市,北京市,怀柔区,116.6833104,40.79893269
公共厕所,公共设施,公共厕所,公共厕所,京加路西50米,北京市,北京市,怀柔区,116.7442486,40.79204905
公共厕所,公共设施,公共厕所,公共厕所,滦赤路南50米,北京市,北京市,怀柔区,116.7569187,40.79859585
公共厕所,公共设施,公共厕所,公共厕所,古东路东50米,北京市,北京市,怀柔区,116.7887461,40.79703489
公共厕所,公共设施,公共厕所,公共厕所,长司公路南50米,北京市,北京市,怀柔区,116.8063668,40.79828473
公共厕所,公共设施,公共厕所,公共厕所,长司公路北50米,北京市,北京市,怀柔区,116.8045925,40.7989221
公共厕所,公共设施,公共厕所,公共厕所,宝碾公路西50米,北京市,北京市,怀柔区,116.478478,40.78809455
公共厕所,公共设施,公共厕所,公共厕所,宝碾公路北50米,北京市,北京市,怀柔区,116.484734,40.78538494
公共厕所,公共设施,公共厕所,公共厕所,宝碾公路北50米,北京市,北京市,怀柔区,116.4928995,40.78404025
公共厕所,公共设施,公共厕所,公共厕所,宝碾公路南50米,北京市,北京市,怀柔区,116.494303,40.7830662
公共厕所,公共设施,公共厕所,公共厕所,宝碾公路南50米,北京市,北京市,怀柔区,116.4959775,40.78246466
公共厕所,公共设施,公共厕所,公共厕所,宝碾公路东50米,北京市,北京市,怀柔区,116.5065715,40.77611092
公共厕所,公共设施,公共厕所,公共厕所,宝碾公路南50米,北京市,北京市,怀柔区,116.5053432,40.77364523
公共厕所,公共设施,公共厕所,公共厕所,宝碾公路北50米,北京市,北京市,怀柔区,116.5129606,40.77183662
公共厕所,公共设施,公共厕所,公共厕所,西新路与105县道交叉口东南100米,北京市,北京市,怀柔区,116.5619182,40.77655613
公共厕所,公共设施,公共厕所,公共厕所,006乡道南50米,北京市,北京市,怀柔区,116.5854886,40.77794181
公共厕所,公共设施,公共厕所,公共厕所,京加路与兰七路交叉口北100米,北京市,北京市,怀柔区,116.7011834,40.7771502
公共厕所,公共设施,公共厕所,公共厕所,京加路与兰七路交叉口西南100米,北京市,北京市,怀柔区,116.7003006,40.77602037
公共厕所,公共设施,公共厕所,公共厕所,路北50米,北京市,北京市,怀柔区,116.7698987,40.77299987
公共厕所,公共设施,公共厕所,公共厕所,008县道南50米,北京市,北京市,密云区,116.8742151,40.7739841
公共厕所,公共设施,公共厕所,公共厕所,006乡道东50米,北京市,北京市,怀柔区,116.5946477,40.76527214
公共厕所,公共设施,公共厕所,公共厕所,京加路北50米,北京市,北京市,怀柔区,116.6819001,40.76203387
公共厕所,公共设施,公共厕所,公共厕所,058乡道西50米,北京市,北京市,怀柔区,116.7980257,40.76439868
公共厕所,公共设施,公共厕所,公共厕所,长司公路与008县道交叉口北100米,北京市,北京市,密云区,116.8643921,40.76854416
公共厕所,公共设施,公共厕所,公共厕所,008县道东50米,北京市,北京市,密云区,116.8666308,40.76375341
公共厕所,公共设施,公共厕所,公共厕所,008县道东50米,北京市,北京市,密云区,116.866793,40.76352777
公共厕所,公共设施,公共厕所,公共厕所,006乡道东50米,北京市,北京市,怀柔区,116.6106547,40.75689298
公共厕所,公共设施,公共厕所,公共厕所,006乡道西50米,北京市,北京市,怀柔区,116.6099659,40.75403567
公共厕所,公共设施,公共厕所,公共厕所,连石沟路南50米,北京市,北京市,怀柔区,116.6395495,40.7528485
公共厕所,公共设施,公共厕所,公共厕所,京加路与古石沟路交叉口西南50米,北京市,北京市,怀柔区,116.6614034,40.7574483
公共厕所,公共设施,公共厕所,公共厕所,卜营路东50米,北京市,北京市,怀柔区,116.708706,40.75268866
公共厕所,公共设施,公共厕所,公共厕所,卜营路东100米,北京市,北京市,怀柔区,116.7099805,40.75224042
公共厕所,公共设施,公共厕所,公共厕所,古东路和项西路的交叉口附近,北京市,北京市,怀柔区,116.7580148,40.76087161
百里山水画廊-公共厕所,公共设施,公共厕所,公共厕所,千小路与千沙公路交叉口西50米,北京市,北京市,延庆区,116.3668275,40.74507099
公共厕所,公共设施,公共厕所,公共厕所,宝碾公路南50米,北京市,北京市,怀柔区,116.5475197,40.74214005
公共厕所,公共设施,公共厕所,公共厕所,105县道附近,北京市,北京市,怀柔区,116.5808901,40.74833266
公共厕所,公共设施,公共厕所,公共厕所,大浦池沟路北100米,北京市,北京市,怀柔区,116.6523967,40.74392052
公共厕所,公共设施,公共厕所,公共厕所,008县道西50米,北京市,北京市,密云区,116.8699206,40.74825864
公共厕所,公共设施,公共厕所,公共厕所,滦赤路与酒厂东路交叉口西北100米,北京市,北京市,怀柔区,116.6366183,40.7328052
公共厕所,公共设施,公共厕所,公共厕所,第二医院附近,北京市,北京市,怀柔区,116.6381368,40.73899218
公共厕所,公共设施,公共厕所,公共厕所,南环镇路与滦赤路交叉口东北100米,北京市,北京市,怀柔区,116.6352387,40.73170818
公共厕所,公共设施,公共厕所,公共厕所,庄户沟门汤河口大街汤河口公交站,北京市,北京市,怀柔区,116.6318166,40.73195719
公共厕所,公共设施,公共厕所,公共厕所,南环镇路与滦赤路交叉口东北50米,北京市,北京市,怀柔区,116.6346092,40.73136841
公共厕所,公共设施,公共厕所,公共厕所,汤河口大街南150米,北京市,北京市,怀柔区,116.6421452,40.73551608
公共厕所,公共设施,公共厕所,公共厕所,汤河口大街与滦赤路交叉口西北100米,北京市,北京市,怀柔区,116.643668,40.73780377
公共厕所,公共设施,公共厕所,公共厕所,汤河口大街汤河口西公交站西北50米,北京市,北京市,怀柔区,116.6406532,40.73414762
公共厕所,公共设施,公共厕所,公共厕所,汤河口大街3号附近,北京市,北京市,怀柔区,116.6398169,40.73674909
公共厕所,公共设施,公共厕所,公共厕所,008县道北50米,北京市,北京市,密云区,116.8869506,40.73809711
公共厕所,公共设施,公共厕所,公共厕所,滦赤路东50米,北京市,北京市,怀柔区,116.6039434,40.72390493
公共厕所,公共设施,公共厕所,公共厕所,汤河口镇东秀街天河第一瀑东250米,北京市,北京市,怀柔区,116.6146848,40.72629726
公共厕所,公共设施,公共厕所,公共厕所,东兴街北150米,北京市,北京市,怀柔区,116.6185884,40.72696284
公共厕所,公共设施,公共厕所,公共厕所,滦赤路东200米,北京市,北京市,怀柔区,116.6230831,40.72860946
公共厕所,公共设施,公共厕所,公共厕所,滦赤路南100米,北京市,北京市,怀柔区,116.6215939,40.728955
公共厕所,公共设施,公共厕所,公共厕所,滦赤路南50米,北京市,北京市,怀柔区,116.6206396,40.72905603
公共厕所,公共设施,公共厕所,公共厕所,052乡道北50米,北京市,北京市,密云区,116.808986,40.72567065
公共厕所,公共设施,公共厕所,公共厕所,052乡道西50米,北京市,北京市,密云区,116.8601555,40.72997481
公共厕所,公共设施,公共厕所,公共厕所,052乡道北50米,北京市,北京市,密云区,116.8703803,40.72976883
公共厕所,公共设施,公共厕所,公共厕所,008县道南50米,北京市,北京市,密云区,116.895068,40.73017752
公共厕所,公共设施,公共厕所,公共厕所,008县道北50米,北京市,北京市,密云区,116.8965461,40.73024045
公共厕所,公共设施,公共厕所,公共厕所,京加路东50米,北京市,北京市,怀柔区,116.6348926,40.71560146
公共厕所,公共设施,公共厕所,公共厕所,京加路西100米,北京市,北京市,怀柔区,116.6318721,40.71888066
公共厕所,公共设施,公共厕所,公共厕所,京加路南50米,北京市,北京市,怀柔区,116.6380373,40.71315923
公共厕所,公共设施,公共厕所,公共厕所,京加路北50米,北京市,北京市,怀柔区,116.6410787,40.71332908
公共厕所,公共设施,公共厕所,公共厕所,番南路东50米,北京市,北京市,密云区,116.8001545,40.71569442
百里山水画廊-公共厕所,公共设施,公共厕所,公共厕所,木化石路东端硅化木国家地质公园内,北京市,北京市,延庆区,116.3869837,40.70085425
公共厕所,公共设施,公共厕所,公共厕所,千沙公路西50米,北京市,北京市,延庆区,116.4504875,40.70518833
公共厕所,公共设施,公共厕所,公共厕所,008县道南50米,北京市,北京市,密云区,116.9182387,40.70176145
百里山水画廊-公共厕所,公共设施,公共厕所,公共厕所,东囤路与千沙公路交叉口南50米,北京市,北京市,延庆区,116.342664,40.69318651
百里山水画廊-公共厕所,公共设施,公共厕所,公共厕所,河南路与滦赤路交叉口东北100米,北京市,北京市,延庆区,116.3468372,40.69311539
百里山水画廊-公共厕所,公共设施,公共厕所,公共厕所,千沙公路与滦赤路交叉口东100米,北京市,北京市,延庆区,116.3459164,40.69133119
百里山水画廊-公共厕所,公共设施,公共厕所,公共厕所,木化石路西50米,北京市,北京市,延庆区,116.3865511,40.69907469
百里山水画廊-公共厕所,公共设施,公共厕所,公共厕所,滦赤路西50米,北京市,北京市,延庆区,116.3897585,40.69533321
百里山水画廊-公共厕所,公共设施,公共厕所,公共厕所,千沙公路西50米,北京市,北京市,延庆区,116.4524255,40.69640196
公共厕所,公共设施,公共厕所,公共厕所,滦赤路东50米,北京市,北京市,怀柔区,116.5302853,40.69902456
公共厕所,公共设施,公共厕所,公共厕所,宝山东大街与宝山大街交叉口东150米,北京市,北京市,怀柔区,116.5654037,40.69304004
公共厕所,公共设施,公共厕所,公共厕所,宝山东大街与宝山大街交叉口东100米,北京市,北京市,怀柔区,116.5650332,40.69308258
公共厕所,公共设施,公共厕所,公共厕所,转年后沟路附近,北京市,北京市,怀柔区,116.5935845,40.69846339
公共厕所,公共设施,公共厕所,公共厕所,滦赤路西50米,北京市,北京市,怀柔区,116.6066763,40.69452735
公共厕所,公共设施,公共厕所,公共厕所,滦赤路东50米,北京市,北京市,怀柔区,116.606971,40.69456114
公共厕所,公共设施,公共厕所,公共厕所,滦赤路西50米,北京市,北京市,怀柔区,116.6048116,40.69215113
公共厕所,公共设施,公共厕所,公共厕所,,北京市,北京市,怀柔区,116.6171581,40.70094008
公共厕所,公共设施,公共厕所,公共厕所,京加路西50米,北京市,北京市,怀柔区,116.6531464,40.6982513
公共厕所,公共设施,公共厕所,公共厕所,京加路西50米,北京市,北京市,怀柔区,116.6526725,40.69228937
公共厕所,公共设施,公共厕所,公共厕所,京加路西150米,北京市,北京市,怀柔区,116.6508095,40.70086278
公共厕所,公共设施,公共厕所,公共厕所,小中路西50米,北京市,北京市,怀柔区,116.6828093,40.69413495
公共厕所,公共设施,公共厕所,公共厕所,古北口镇政府西侧100米,北京市,北京市,密云区,117.1562641,40.69290494
蟠龙山长城景区-公共厕所,公共设施,公共厕所,公共厕所,,北京市,北京市,密云区,117.1603739,40.69252281
百里山水画廊-公共厕所,公共设施,公共厕所,公共厕所,东囤路西100米,北京市,北京市,延庆区,116.327262,40.69038896
百里山水画廊-公共厕所,公共设施,公共厕所,公共厕所,四沙公路西150米,北京市,北京市,延庆区,116.4572682,40.68342254
百里山水画廊-公共厕所,公共设施,公共厕所,公共厕所,下湾村滴水壶景区内,北京市,北京市,延庆区,116.4587421,40.68236492
百里山水画廊-公共厕所,公共设施,公共厕所,公共厕所,四沙公路南100米,北京市,北京市,延庆区,116.463242,40.68314387
公共厕所,公共设施,公共厕所,公共厕所,滦赤路西50米,北京市,北京市,怀柔区,116.4931151,40.68484197
公共厕所,公共设施,公共厕所,公共厕所,滦赤路东50米,北京市,北京市,怀柔区,116.5087102,40.6842275
公共厕所,公共设施,公共厕所,公共厕所,156乡道西50米,北京市,北京市,怀柔区,116.5673133,40.68328597
公共厕所,公共设施,公共厕所,公共厕所,宝黄路与157乡道交叉口北50米,北京市,北京市,怀柔区,116.5706758,40.68546085
公共厕所,公共设施,公共厕所,公共厕所,宝山大街南50米,北京市,北京市,怀柔区,116.5733026,40.69061557
公共厕所,公共设施,公共厕所,公共厕所,宝山大街南100米,北京市,北京市,怀柔区,116.5713438,40.69068583
公共厕所,公共设施,公共厕所,公共厕所,Y157与滦赤路交叉口东南100米,北京市,北京市,怀柔区,116.5909207,40.68749215
公共厕所,公共设施,公共厕所,公共厕所,京加路西50米,北京市,北京市,怀柔区,116.6542514,40.68981815
公共厕所,公共设施,公共厕所,公共厕所,015县道北50米,北京市,北京市,密云区,116.9303954,40.6895094
公共厕所,公共设施,公共厕所,公共厕所,113乡道东50米,北京市,北京市,密云区,116.9546133,40.68444506
公共厕所,公共设施,公共厕所,公共厕所,古下线附近,北京市,北京市,密云区,117.1449616,40.68669912
公共厕所,公共设施,公共厕所,公共厕所,古北口镇古下线南50米附近,北京市,北京市,密云区,117.1454425,40.68630222
公共厕所,公共设施,公共厕所,公共厕所,古下线附近,北京市,北京市,密云区,117.1413145,40.68681291
公共厕所,公共设施,公共厕所,公共厕所,古下线附近,北京市,北京市,密云区,117.141599,40.68687834
公共厕所,公共设施,公共厕所,公共厕所,后街北50米,北京市,北京市,密云区,117.1463838,40.68844735
公共厕所,公共设施,公共厕所,公共厕所,后街119号附近,北京市,北京市,密云区,117.1413473,40.68888853
公共厕所,公共设施,公共厕所,公共厕所,望山阁特色农家院西(古下线北),北京市,北京市,密云区,117.1410258,40.6890229
公共厕所,公共设施,公共厕所,公共厕所,古下线南50米,北京市,北京市,密云区,117.1518538,40.68663727
公共厕所,公共设施,公共厕所,公共厕所,东横街与西横街交叉口西北50米,北京市,北京市,密云区,117.1578178,40.68726673
公共厕所,公共设施,公共厕所,公共厕所,古下路与101国道交叉口西南50米,北京市,北京市,密云区,117.1562485,40.68945832
公共厕所,公共设施,公共厕所,公共厕所,古下路与101国道交叉口东100米,北京市,北京市,密云区,117.1571161,40.68953586
公共厕所,公共设施,公共厕所,公共厕所,101国道东200米,北京市,北京市,密云区,117.1584216,40.68950529
公共厕所,公共设施,公共厕所,公共厕所,古下线附近,北京市,北京市,密云区,117.1561431,40.6907812
公共厕所,公共设施,公共厕所,公共厕所,南上坡街附近,北京市,北京市,密云区,117.162921,40.68385359
公共厕所,公共设施,公共厕所,公共厕所,南上坡街东200米,北京市,北京市,密云区,117.1611937,40.68370647
公共厕所,公共设施,公共厕所,公共厕所,东队南北街西50米,北京市,北京市,密云区,117.1662274,40.68350702
公共厕所,公共设施,公共厕所,公共厕所,当铺后东街西50米,北京市,北京市,密云区,117.1598584,40.68897733
公共厕所,公共设施,公共厕所,公共厕所,东队南北街南50米,北京市,北京市,密云区,117.1679488,40.68249393
公共厕所,公共设施,公共厕所,公共厕所,京密路东50米,北京市,北京市,密云区,117.1592391,40.68228881
蟠龙山长城景区-公共厕所,公共设施,公共厕所,公共厕所,东队新村3号附近,北京市,北京市,密云区,117.1736418,40.68216974
公共厕所,公共设施,公共厕所,公共厕所,东队南北街南50米,北京市,北京市,密云区,117.1692995,40.68219466
蟠龙山长城景区-公共厕所,公共设施,公共厕所,公共厕所,二寨西沟附近,北京市,北京市,密云区,117.1821838,40.68833191
蟠龙山长城景区-公共厕所,公共设施,公共厕所,公共厕所,,北京市,北京市,密云区,117.1817167,40.6828299
蟠龙山长城景区-公共厕所,公共设施,公共厕所,公共厕所,,北京市,北京市,密云区,117.1787345,40.68143553
百里山水画廊-公共厕所,公共设施,公共厕所,公共厕所,下湾村滴水壶景区内,北京市,北京市,延庆区,116.4571473,40.68036535
公共厕所,公共设施,公共厕所,公共厕所,下房路与157乡道交叉口西北150米,北京市,北京市,怀柔区,116.5788797,40.68037251
公共厕所,公共设施,公共厕所,公共厕所,下房路与157乡道交叉口西北100米,北京市,北京市,怀柔区,116.579408,40.68001105
白河湾-公共厕所,公共设施,公共厕所,公共厕所,小中路附近,北京市,北京市,怀柔区,116.658682,40.68082
白河湾-公共厕所,公共设施,公共厕所,公共厕所,小中路附近,北京市,北京市,怀柔区,116.6643909,40.67106471
白河湾-公共厕所,公共设施,公共厕所,公共厕所,双狼路西50米,北京市,北京市,怀柔区,116.6923607,40.67941053
白河湾-公共厕所,公共设施,公共厕所,公共厕所,双狼路东50米,北京市,北京市,怀柔区,116.692262,40.67118131
公共厕所,公共设施,公共厕所,公共厕所,潮关村附近,北京市,北京市,密云区,117.127334,40.67814699
公共厕所,公共设施,公共厕所,公共厕所,古北口镇潮关古下线瘟神庙,北京市,北京市,密云区,117.1230281,40.67984142
公共厕所,公共设施,公共厕所,公共厕所,,北京市,北京市,密云区,117.1292453,40.67861725
蟠龙山长城景区-公共厕所,公共设施,公共厕所,公共厕所,,北京市,北京市,密云区,117.1818005,40.67779751
蟠龙山长城景区-公共厕所,公共设施,公共厕所,公共厕所,,北京市,北京市,密云区,117.2012994,40.67262826
百里山水画廊-公共厕所,公共设施,公共厕所,公共厕所,滦赤路附近,北京市,北京市,延庆区,116.2657653,40.66101887
白河湾-公共厕所,公共设施,公共厕所,公共厕所,双狼路南200米,北京市,北京市,怀柔区,116.6828317,40.66771908
白河湾-公共厕所,公共设施,公共厕所,公共厕所,双狼路北50米,北京市,北京市,怀柔区,116.6840162,40.66938182
公共厕所,公共设施,公共厕所,公共厕所,056乡道东50米,北京市,北京市,密云区,116.8329707,40.66139605
公共厕所,公共设施,公共厕所,公共厕所,008县道东50米,北京市,北京市,密云区,116.909845,40.66151915
公共厕所,公共设施,公共厕所,公共厕所,后半路南50米,北京市,北京市,密云区,116.9664719,40.66670232
公共厕所,公共设施,公共厕所,公共厕所,后半路西50米,北京市,北京市,密云区,116.9772524,40.66317493
公共厕所,公共设施,公共厕所,公共厕所,京密路西200米,北京市,北京市,密云区,117.1502708,40.66534998
公共厕所,公共设施,公共厕所,公共厕所,京密路古北口娘娘庙南400米,北京市,北京市,密云区,117.1491557,40.66620243
公共厕所,公共设施,公共厕所,公共厕所,,北京市,北京市,密云区,117.1495802,40.66766519
公共厕所,公共设施,公共厕所,公共厕所,252乡道西100米,北京市,北京市,密云区,117.3887782,40.66579128
百里山水画廊-公共厕所,公共设施,公共厕所,公共厕所,昌赤路与滦赤路交叉口东北200米,北京市,北京市,延庆区,116.1799914,40.65412107
百里山水画廊-公共厕所,公共设施,公共厕所,公共厕所,滦赤路中国・延庆世界地质公园千家店园区内,北京市,北京市,延庆区,116.1797849,40.65370497
百里山水画廊-公共厕所,公共设施,公共厕所,公共厕所,昌赤路附近,北京市,北京市,延庆区,116.184929,40.65120868
百里山水画廊-公共厕所,公共设施,公共厕所,公共厕所,刘干路与滦赤路交叉口西北100米,北京市,北京市,延庆区,116.2438494,40.65951534
百里山水画廊-公共厕所,公共设施,公共厕所,公共厕所,刘干路与滦赤路交叉口西北150米,北京市,北京市,延庆区,116.2434923,40.65963327
公共厕所,公共设施,公共厕所,公共厕所,前青路南50米,北京市,北京市,怀柔区,116.6581419,40.65449578
白河湾-公共厕所,公共设施,公共厕所,公共厕所,前青路东50米,北京市,北京市,怀柔区,116.6718541,40.65742851
公共厕所,公共设施,公共厕所,公共厕所,前青路东50米,北京市,北京市,怀柔区,116.6774078,40.65245827
白河湾-公共厕所,公共设施,公共厕所,公共厕所,前青路北50米,北京市,北京市,怀柔区,116.6869684,40.6602507
白河湾-公共厕所,公共设施,公共厕所,公共厕所,前青路北50米,北京市,北京市,怀柔区,116.6875548,40.66031264
白河湾-公共厕所,公共设施,公共厕所,公共厕所,东峪路与前青路交叉口东100米,北京市,北京市,怀柔区,116.6976636,40.65465871
白河湾-公共厕所,公共设施,公共厕所,公共厕所,前青路北50米,北京市,北京市,怀柔区,116.6941296,40.66033054
白河湾-公共厕所,公共设施,公共厕所,公共厕所,青石岭村,北京市,北京市,怀柔区,116.6939161,40.66057073
公共厕所,公共设施,公共厕所,公共厕所,京密路北50米,北京市,北京市,密云区,117.1683268,40.65859483
紫海香堤香草艺术庄园-公共厕所,公共设施,公共厕所,公共厕所,,北京市,北京市,密云区,117.2106582,40.65924913
公共厕所,公共设施,公共厕所,公共厕所,二区干二路与沿河景观路交叉口东北100米,北京市,北京市,密云区,117.2365842,40.65742459
公共厕所,公共设施,公共厕所,公共厕所,二区干一路与二区干二路交叉口东100米,北京市,北京市,密云区,117.2401757,40.65495784
公共厕所,公共设施,公共厕所,公共厕所,G45大广高速附近,北京市,北京市,密云区,117.2418366,40.65917516
古北水镇-公共厕所,公共设施,公共厕所,公共厕所,司马台村古北水镇景区汤河古寨区内,北京市,北京市,密云区,117.2685371,40.65098836
古北水镇-公共厕所,公共设施,公共厕所,公共厕所,市密云区北京密云区古北口镇司马台村古北水镇景区内,北京市,北京市,密云区,117.2731568,40.65275352
古北水镇-公共厕所,公共设施,公共厕所,公共厕所,司水路附近,北京市,北京市,密云区,117.2741769,40.65221875
古北水镇-公共厕所,公共设施,公共厕所,公共厕所,古北口镇古北水镇景区内,北京市,北京市,密云区,117.2726598,40.65204752
古北水镇-公共厕所,公共设施,公共厕所,公共厕所,司马台村古北水镇景区汤河古寨区内,北京市,北京市,密云区,117.2722315,40.65209495
古北水镇-索道公共厕所,公共设施,公共厕所,公共厕所,古北水镇,北京市,北京市,密云区,117.2822069,40.657958
公共厕所,公共设施,公共厕所,公共厕所,松曹路与260乡道交叉口东150米,北京市,北京市,密云区,117.3468289,40.65543599
公共厕所,公共设施,公共厕所,公共厕所,松曹路南50米,北京市,北京市,密云区,117.3472558,40.65546326
公共厕所,公共设施,公共厕所,公共厕所,,北京市,北京市,密云区,117.3783929,40.65802785
公共厕所,公共设施,公共厕所,公共厕所,,北京市,北京市,密云区,117.3783929,40.65802785
公共厕所,公共设施,公共厕所,公共厕所,菜东路东50米,北京市,北京市,密云区,117.3859092,40.65169071
公共厕所,公共设施,公共厕所,公共厕所,松曹路东50米,北京市,北京市,密云区,117.4374806,40.65876834
公共厕所,公共设施,公共厕所,公共厕所,156乡道东50米,北京市,北京市,怀柔区,116.5701275,40.64283889
公共厕所,公共设施,公共厕所,公共厕所,西湾子路与206乡道交叉口南150米,北京市,北京市,怀柔区,116.6340906,40.64306044
公共厕所,公共设施,公共厕所,公共厕所,206乡道东50米,北京市,北京市,怀柔区,116.6304848,40.6424432
公共厕所,公共设施,公共厕所,公共厕所,206乡道附近,北京市,北京市,怀柔区,116.629965,40.64206718
公共厕所,公共设施,公共厕所,公共厕所,前青路与双文铺路交叉口西南100米,北京市,北京市,怀柔区,116.6658264,40.64977214
公共厕所,公共设施,公共厕所,公共厕所,对红路东50米,北京市,北京市,密云区,116.7299659,40.64895656
公共厕所,公共设施,公共厕所,公共厕所,龙云山风景区西北80米(对四路北),北京市,北京市,密云区,116.7547801,40.64814916
龙云山风景区-公共厕所,公共设施,公共厕所,公共厕所,西黄路西50米,北京市,北京市,密云区,116.8086876,40.64717648
公共厕所,公共设施,公共厕所,公共厕所,西火路与008县道交叉口西南50米,北京市,北京市,密云区,116.8913838,40.64337431
公共厕所,公共设施,公共厕所,公共厕所,,北京市,北京市,密云区,116.9745626,40.64578429
公共厕所,公共设施,公共厕所,公共厕所,高上公路与黄下路交叉口西北50米,北京市,北京市,密云区,117.1105654,40.64764471
公共厕所,公共设施,公共厕所,公共厕所,古下路南50米,北京市,北京市,密云区,117.1316342,40.65063838
公共厕所,公共设施,公共厕所,公共厕所,015县道西50米,北京市,北京市,密云区,117.163875,40.64578994
公共厕所,公共设施,公共厕所,公共厕所,涝洼北沟附近,北京市,北京市,密云区,117.2293109,40.64348202
古北水镇-公共厕所,公共设施,公共厕所,公共厕所,古北口镇古北水镇景区内,北京市,北京市,密云区,117.2583135,40.64375885
公共厕所,公共设施,公共厕所,公共厕所,古北口镇古北水镇景区内,北京市,北京市,密云区,117.2651649,40.64692599
古北水镇-公共厕所,公共设施,公共厕所,公共厕所,古北口镇古北水镇景区内,北京市,北京市,密云区,117.2623962,40.64479851
古北水镇-公共厕所,公共设施,公共厕所,公共厕所,古北口镇古北水镇景区内,北京市,北京市,密云区,117.2622254,40.6446967
古北水镇-公共厕所,公共设施,公共厕所,公共厕所,古北口镇古北水镇景区内,北京市,北京市,密云区,117.265784,40.64695745
古北水镇-公共厕所,公共设施,公共厕所,公共厕所,古北口镇古北水镇景区内,北京市,北京市,密云区,117.2678016,40.64866556
古北水镇-公共厕所,公共设施,公共厕所,公共厕所,广场环街009号,北京市,北京市,密云区,117.2670695,40.65009728
古北水镇-公共厕所,公共设施,公共厕所,公共厕所,古北口镇古北水镇景区内,北京市,北京市,密云区,117.2674999,40.65001495
古北水镇-公共厕所,公共设施,公共厕所,公共厕所,古北口镇古北水镇景区内,北京市,北京市,密云区,117.2678372,40.65057728
公共厕所,公共设施,公共厕所,公共厕所,253乡道南50米,北京市,北京市,密云区,117.3381236,40.64821798
公共厕所,公共设施,公共厕所,公共厕所,253乡道北50米,北京市,北京市,密云区,117.3401761,40.64800641
公共厕所,公共设施,公共厕所,公共厕所,催四路与松曹路交叉口西100米,北京市,北京市,密云区,117.3716293,40.65061052
公共厕所,公共设施,公共厕所,公共厕所,松曹路北100米,北京市,北京市,密云区,117.3875673,40.64941856
公共厕所,公共设施,公共厕所,公共厕所,松曹路北50米,北京市,北京市,密云区,117.4019114,40.64784994
公共厕所,公共设施,公共厕所,公共厕所,曹家路南50米,北京市,北京市,密云区,117.416536,40.64731906
公共厕所,公共设施,公共厕所,公共厕所,曹家路北50米,北京市,北京市,密云区,117.4201049,40.64858482
东极仙谷自然风景区-公共厕所,公共设施,公共厕所,公共厕所,251乡道南50米,北京市,北京市,密云区,117.4730277,40.6458603
东极仙谷自然风景区-公共厕所,公共设施,公共厕所,公共厕所,251乡道南50米,北京市,北京市,密云区,117.4724737,40.64586474
东极仙谷自然风景区-公共厕所,公共设施,公共厕所,公共厕所,251乡道南50米,北京市,北京市,密云区,117.4785577,40.6478548
东极仙谷自然风景区-公共厕所,公共设施,公共厕所,公共厕所,251乡道北50米,北京市,北京市,密云区,117.4955504,40.64772515
公共厕所,公共设施,公共厕所,公共厕所,京加路西50米,北京市,北京市,怀柔区,116.6471064,40.63932213
公共厕所,公共设施,公共厕所,公共厕所,310省道北150米,北京市,北京市,密云区,116.7455316,40.63411622
公共厕所,公共设施,公共厕所,公共厕所,对四路与对贾路交叉口西100米,北京市,北京市,密云区,116.7400543,40.6359434
清凉谷景区-公共厕所,公共设施,公共厕所,公共厕所,石城镇贾峪村,北京市,北京市,密云区,116.7460967,40.6321605
公共厕所,公共设施,公共厕所,公共厕所,对四路与对红路交叉口北200米,北京市,北京市,密云区,116.7399459,40.63979894
清凉谷景区-公共厕所,公共设施,公共厕所,公共厕所,310省道北50米,北京市,北京市,密云区,116.748158,40.6318559
清凉谷景区-公共厕所,公共设施,公共厕所,公共厕所,310省道北50米,北京市,北京市,密云区,116.7479521,40.63202976
公共厕所,公共设施,公共厕所,公共厕所,008县道西50米,北京市,北京市,密云区,116.8784058,40.63492196
公共厕所,公共设施,公共厕所,公共厕所,黄下路西50米,北京市,北京市,密云区,117.087224,40.63938319
公共厕所,公共设施,公共厕所,公共厕所,高上公路东50米,北京市,北京市,密云区,117.1073687,40.63763694
公共厕所,公共设施,公共厕所,公共厕所,松曹路与264乡道交叉口东150米,北京市,北京市,密云区,117.2942765,40.63450812
公共厕所,公共设施,公共厕所,公共厕所,新城子,北京市,北京市,密云区,117.3166348,40.63730383
公共厕所,公共设施,公共厕所,公共厕所,新城子路口东北200米,北京市,北京市,密云区,117.3242718,40.637513
公共厕所,公共设施,公共厕所,公共厕所,松曹路东100米,北京市,北京市,密云区,117.3258532,40.63844936
云岫谷游猎自然风景区-公共厕所,公共设施,公共厕所,公共厕所,253乡道西50米,北京市,北京市,密云区,117.3577873,40.63411688
云岫谷游猎自然风景区-公共厕所,公共设施,公共厕所,公共厕所,253乡道西100米,北京市,北京市,密云区,117.3575,40.63373653
云岫谷游猎自然风景区-公共厕所,公共设施,公共厕所,公共厕所,,北京市,北京市,密云区,117.3562769,40.63203238
云岫谷游猎自然风景区-公共厕所,公共设施,公共厕所,公共厕所,253乡道西50米,北京市,北京市,密云区,117.3756792,40.63097156
云岫谷游猎自然风景区-公共厕所,公共设施,公共厕所,公共厕所,遥桥峪水库北岸,北京市,北京市,密云区,117.3843972,40.63967623
公共厕所,公共设施,公共厕所,公共厕所,琉崎路附近,北京市,北京市,怀柔区,116.6048876,40.62733223
公共厕所,公共设施,公共厕所,公共厕所,琉璃庙中心小学附近,北京市,北京市,怀柔区,116.6439034,40.62746433
公共厕所,公共设施,公共厕所,公共厕所,京加路南50米,北京市,北京市,怀柔区,116.6483774,40.62829088
公共厕所,公共设施,公共厕所,公共厕所,310省道西50米,北京市,北京市,密云区,116.7389541,40.62831046
公共厕所,公共设施,公共厕所,公共厕所,对贾路附近,北京市,北京市,密云区,116.7580888,40.63019221
公共厕所,公共设施,公共厕所,公共厕所,西黄路东50米,北京市,北京市,密云区,116.8112955,40.63097164
公共厕所,公共设施,公共厕所,公共厕所,008县道与056乡道交叉口南100米,北京市,北京市,密云区,116.8733313,40.62724877
公共厕所,公共设施,公共厕所,公共厕所,015县道东200米,北京市,北京市,密云区,117.0480404,40.62645962
公共厕所,公共设施,公共厕所,公共厕所,高上公路东50米,北京市,北京市,密云区,117.1048923,40.6219594
公共厕所,公共设施,公共厕所,公共厕所,G45大广高速第24出口附近,北京市,北京市,密云区,117.2481852,40.62829871
公共厕所,公共设施,公共厕所,公共厕所,,北京市,北京市,密云区,117.2412298,40.62971228
公共厕所,公共设施,公共厕所,公共厕所,,北京市,北京市,密云区,117.2398842,40.62984308
公共厕所,公共设施,公共厕所,公共厕所,014县道西50米,北京市,北京市,密云区,117.2505499,40.62488728
公共厕所,公共设施,公共厕所,公共厕所,G45大广高速附近,北京市,北京市,密云区,117.2488256,40.62969868
公共厕所,公共设施,公共厕所,公共厕所,松曹路东50米,北京市,北京市,密云区,117.2625235,40.62604043
公共厕所,公共设施,公共厕所,公共厕所,松曹路与014县道交叉口北50米,北京市,北京市,密云区,117.2587401,40.62101908
公共厕所,公共设施,公共厕所,公共厕所,东峪路与310省道交叉口西南200米,北京市,北京市,怀柔区,116.6815055,40.61967767
公共厕所,公共设施,公共厕所,公共厕所,310省道东50米,北京市,北京市,怀柔区,116.688321,40.61935771
公共厕所,公共设施,公共厕所,公共厕所,310省道东50米,北京市,北京市,怀柔区,116.6905083,40.61910312
公共厕所,公共设施,公共厕所,公共厕所,东峪村龙潭涧自然风景区云梦仙境附近,北京市,北京市,怀柔区,116.6896625,40.61915652
公共厕所,公共设施,公共厕所,公共厕所,横捧路南50米,北京市,北京市,密云区,116.8077633,40.61287455
公共厕所,公共设施,公共厕所,公共厕所,008县道西100米,北京市,北京市,密云区,116.8732853,40.61156648
公共厕所,公共设施,公共厕所,公共厕所,057乡道东50米,北京市,北京市,密云区,116.8960183,40.61384334
公共厕所,公共设施,公共厕所,公共厕所,002县道西50米,北京市,北京市,密云区,117.170182,40.61728884
公共厕所,公共设施,公共厕所,公共厕所,松曹路与014县道交叉口西北50米,北京市,北京市,密云区,117.2586592,40.6207393
公共厕所,公共设施,公共厕所,公共厕所,长平路西50米,北京市,北京市,怀柔区,116.5929283,40.60637097
公共厕所,公共设施,公共厕所,公共厕所,琉璃庙镇皮条沟公交站西北100米,北京市,北京市,怀柔区,116.6033902,40.61060741
公共厕所,公共设施,公共厕所,公共厕所,琉辛路西50米,北京市,北京市,密云区,116.7873849,40.60701585
公共厕所,公共设施,公共厕所,公共厕所,琉辛路东50米,北京市,北京市,密云区,116.7850874,40.60273023
龙云山风景区-公共厕所,公共设施,公共厕所,公共厕所,横捧路西200米,北京市,北京市,密云区,116.7967586,40.60976055
龙云山风景区-公共厕所,公共设施,公共厕所,公共厕所,,北京市,北京市,密云区,116.7947132,40.61093953
公共厕所,公共设施,公共厕所,公共厕所,西黄路东50米,北京市,北京市,密云区,116.8338922,40.6081967
公共厕所,公共设施,公共厕所,公共厕所,中国石化冯家峪加油站内,北京市,北京市,密云区,116.8720698,40.60942268
公共厕所,公共设施,公共厕所,公共厕所,108乡道西100米,北京市,北京市,密云区,116.994856,40.601515
公共厕所,公共设施,公共厕所,公共厕所,002县道西50米,北京市,北京市,密云区,117.1651273,40.60943722
公共厕所,公共设施,公共厕所,公共厕所,延琉路南50米,北京市,北京市,怀柔区,116.6248241,40.59916087
公共厕所,公共设施,公共厕所,公共厕所,龙泉峪路东50米,北京市,北京市,怀柔区,116.6552474,40.59704339
公共厕所,公共设施,公共厕所,公共厕所,龙泉峪路东50米,北京市,北京市,怀柔区,116.6546228,40.59178568
公共厕所,公共设施,公共厕所,公共厕所,石城镇琉辛路密仙居度假村北100米,北京市,北京市,密云区,116.7800975,40.59326537
公共厕所,公共设施,公共厕所,公共厕所,横捧路东50米,北京市,北京市,密云区,116.8005186,40.59645882
公共厕所,公共设施,公共厕所,公共厕所,兵马营站附近,北京市,北京市,密云区,117.0042112,40.59246996
公共厕所,公共设施,公共厕所,公共厕所,257乡道西50米,北京市,北京市,密云区,117.2742202,40.59773595
公共厕所,公共设施,公共厕所,公共厕所,003县道东100米,北京市,北京市,怀柔区,116.5671547,40.58253585
公共厕所,公共设施,公共厕所,公共厕所,延琉路北150米,北京市,北京市,怀柔区,116.598779,40.58541933
公共厕所,公共设施,公共厕所,公共厕所,延琉路北150米,北京市,北京市,怀柔区,116.5989279,40.58517343
公共厕所,公共设施,公共厕所,公共厕所,延琉路北50米,北京市,北京市,怀柔区,116.5931821,40.59097116
公共厕所,公共设施,公共厕所,公共厕所,琉璃庙镇延琉路崎峰山度假村东350米,北京市,北京市,怀柔区,116.6020157,40.58407789
公共厕所,公共设施,公共厕所,公共厕所,崎西路西50米,北京市,北京市,怀柔区,116.6016071,40.58391416
公共厕所,公共设施,公共厕所,公共厕所,京加路东50米,北京市,北京市,怀柔区,116.672967,40.58585505
公共厕所,公共设施,公共厕所,公共厕所,京加路东50米,北京市,北京市,怀柔区,116.6727876,40.5856695
公共厕所,公共设施,公共厕所,公共厕所,,北京市,北京市,密云区,116.9434511,40.58439711
公共厕所,公共设施,公共厕所,公共厕所,,北京市,北京市,密云区,116.9518602,40.58784351
公共厕所,公共设施,公共厕所,公共厕所,,北京市,北京市,密云区,116.9513092,40.58754697
公共厕所,公共设施,公共厕所,公共厕所,燕落村云峰山景区内东禅院附近,北京市,北京市,密云区,116.9503478,40.58715043
公共厕所,公共设施,公共厕所,公共厕所,,北京市,北京市,密云区,116.9498397,40.58695971
公共厕所,公共设施,公共厕所,公共厕所,中心北街北150米,北京市,北京市,密云区,117.0082828,40.58487925
公共厕所,公共设施,公共厕所,公共厕所,琉辛路西150米,北京市,北京市,密云区,117.0710068,40.5871186
公共厕所,公共设施,公共厕所,公共厕所,京密路东100米,北京市,北京市,密云区,117.1618391,40.58694552
公共厕所,公共设施,公共厕所,公共厕所,松曹路北100米,北京市,北京市,密云区,117.1640517,40.58406833
公共厕所,公共设施,公共厕所,公共厕所,松曹路北50米,北京市,北京市,密云区,117.2118835,40.58423934
公共厕所,公共设施,公共厕所,公共厕所,257乡道东50米,北京市,北京市,密云区,117.2738021,40.58944933
后山铺村公共厕所,公共设施,公共厕所,公共厕所,琉璃庙镇京加路优惠多农家院西50米,北京市,北京市,怀柔区,116.6708129,40.57271473
公共厕所,公共设施,公共厕所,公共厕所,半北路与沙转路交叉口东北50米,北京市,北京市,密云区,116.9178095,40.57695114
公共厕所,公共设施,公共厕所,公共厕所,兵马营村中心南街301号附近,北京市,北京市,密云区,117.0029835,40.57983404
公共厕所,公共设施,公共厕所,公共厕所,琉辛路东50米,北京市,北京市,密云区,117.0688626,40.57425414
公共厕所,公共设施,公共厕所,公共厕所,太城路东150米,北京市,北京市,密云区,117.1052066,40.57635289
公共厕所,公共设施,公共厕所,公共厕所,松曹路南50米,北京市,北京市,密云区,117.1515036,40.58023242
公共厕所,公共设施,公共厕所,公共厕所,松曹路南50米,北京市,北京市,密云区,117.1912582,40.57846925
公共厕所,公共设施,公共厕所,公共厕所,松曹路南50米,北京市,北京市,密云区,117.1963431,40.57881202
公共厕所,公共设施,公共厕所,公共厕所,松曹路南50米,北京市,北京市,密云区,117.1968698,40.57880082
公共厕所,公共设施,公共厕所,公共厕所,沙峪村附近,北京市,北京市,密云区,117.2071153,40.57806533
公共厕所,公共设施,公共厕所,公共厕所,令石路南50米,北京市,北京市,密云区,117.2247864,40.57736279
公共厕所,公共设施,公共厕所,公共厕所,令石路南50米,北京市,北京市,密云区,117.2401544,40.5754559
仙居谷自然风景区-公共厕所,公共设施,公共厕所,公共厕所,令石路北50米,北京市,北京市,密云区,117.2489656,40.5766127
公共厕所,公共设施,公共厕所,公共厕所,香营乡政府院内附近,北京市,北京市,延庆区,116.1395363,40.56925007
公共厕所,公共设施,公共厕所,公共厕所,延琉路南100米,北京市,北京市,延庆区,116.2023056,40.56308438
公共厕所,公共设施,公共厕所,公共厕所,延琉路南50米,北京市,北京市,延庆区,116.2086905,40.56446286
公共厕所,公共设施,公共厕所,公共厕所,刘斌堡路与延琉路交叉口东北150米,北京市,北京市,延庆区,116.2186645,40.56603746
公共厕所,公共设施,公共厕所,公共厕所,川宝路与珍称路交叉口西50米,北京市,北京市,延庆区,116.4255572,40.56169972
公共厕所,公共设施,公共厕所,公共厕所,分水岭梁路西50米,北京市,北京市,怀柔区,116.6737732,40.56616777
公共厕所,公共设施,公共厕所,公共厕所,分水岭梁路西100米,北京市,北京市,怀柔区,116.6731739,40.56647074
公共厕所,公共设施,公共厕所,公共厕所,分水岭梁路西150米,北京市,北京市,怀柔区,116.6725787,40.56614506
云蒙山国家森林公园-公共厕所,公共设施,公共厕所,公共厕所,分水岭梁路东50米,北京市,北京市,怀柔区,116.6743605,40.56639952
公共厕所,公共设施,公共厕所,公共厕所,琉璃庙镇京加路分水岭公交站西南50米,北京市,北京市,怀柔区,116.6721626,40.56776594
云蒙山国家森林公园-公共厕所,公共设施,公共厕所,公共厕所,后山铺村云蒙山国家森林公园内,北京市,北京市,密云区,116.7048416,40.56497302
云蒙山国家森林公园-公共厕所,公共设施,公共厕所,公共厕所,后山铺村云蒙山国家森林公园内,北京市,北京市,密云区,116.7073253,40.56433308
公共厕所,公共设施,公共厕所,公共厕所,石城镇大关桥黑龙潭自然风景区内,北京市,北京市,密云区,116.7777702,40.56131888
北京黑龙潭自然风景区-公共厕所,公共设施,公共厕所,公共厕所,密关路与琉辛路交叉口西北150米,北京市,北京市,密云区,116.7948836,40.56321568
北京黑龙潭自然风景区-公共厕所,公共设施,公共厕所,公共厕所,密关路与琉辛路交叉口西北100米,北京市,北京市,密云区,116.7948045,40.5629547
龙云山风景区-公共厕所,公共设施,公共厕所,公共厕所,琉辛路东50米,北京市,北京市,密云区,116.7994201,40.56234159
公共厕所,公共设施,公共厕所,公共厕所,琉辛路北50米,北京市,北京市,密云区,116.9090138,40.56262828
公共厕所,公共设施,公共厕所,公共厕所,燕落站附近,北京市,北京市,密云区,116.9289386,40.57007818
公共厕所,公共设施,公共厕所,公共厕所,琉辛路北100米,北京市,北京市,密云区,116.9667692,40.56261365
公共厕所,公共设施,公共厕所,公共厕所,大窝铺三街与琉辛路交叉口西100米,北京市,北京市,密云区,117.0280419,40.56575995
公共厕所,公共设施,公共厕所,公共厕所,兵马营村中心北街与大窝铺四街交叉口东南100米,北京市,北京市,密云区,117.0233413,40.57087745
公共厕所,公共设施,公共厕所,公共厕所,大屯村附近,北京市,北京市,密云区,117.0421154,40.56177695
公共厕所,公共设施,公共厕所,公共厕所,太城路东50米,北京市,北京市,密云区,117.1025173,40.56902769
公共厕所,公共设施,公共厕所,公共厕所,京密路与密古路交叉口南150米,北京市,北京市,密云区,117.1450035,40.56311871
公共厕所,公共设施,公共厕所,公共厕所,京密路与松二路交叉口东北100米,北京市,北京市,密云区,117.1442714,40.56167726
公共厕所,公共设施,公共厕所,公共厕所,八峪路与旧北路交叉口东北100米,北京市,北京市,延庆区,116.0869056,40.55371863
公共厕所,公共设施,公共厕所,公共厕所,西关北街56号附近,北京市,北京市,延庆区,116.0865299,40.55100819
公共厕所,公共设施,公共厕所,公共厕所,北门外大街与教学楼南街交叉口西北200米,北京市,北京市,延庆区,116.0896325,40.55204408
公共厕所,公共设施,公共厕所,公共厕所,东关后街与教学楼南街交叉口东100米,北京市,北京市,延庆区,116.0920716,40.55105449
公共厕所,公共设施,公共厕所,公共厕所,大吉祥路与大庙路交叉口西南150米,北京市,北京市,延庆区,116.3420867,40.55916972
公共厕所,公共设施,公共厕所,公共厕所,川宝路东100米,北京市,北京市,延庆区,116.4163795,40.55477142
公共厕所,公共设施,公共厕所,公共厕所,川宝路东50米,北京市,北京市,延庆区,116.4180773,40.55723367
公共厕所,公共设施,公共厕所,公共厕所,延琉路西50米,北京市,北京市,怀柔区,116.5326701,40.55150974
公共厕所,公共设施,公共厕所,公共厕所,范崎路东100米,北京市,北京市,怀柔区,116.5497212,40.55468508
云蒙山国家森林公园-公共厕所,公共设施,公共厕所,公共厕所,分水岭梁路南100米,北京市,北京市,密云区,116.6739054,40.55393028
云蒙山国家森林公园-公共厕所,公共设施,公共厕所,公共厕所,后山铺村云蒙山国家森林公园内,北京市,北京市,密云区,116.6760425,40.55281584
云蒙山国家森林公园-公共厕所,公共设施,公共厕所,公共厕所,后山铺村云蒙山国家森林公园内,北京市,北京市,密云区,116.6844449,40.55369487
云蒙山国家森林公园-公共厕所,公共设施,公共厕所,公共厕所,后山铺村云蒙山国家森林公园内,北京市,北京市,密云区,116.6888242,40.55301854
云蒙山国家森林公园-公共厕所,公共设施,公共厕所,公共厕所,后山铺村云蒙山国家森林公园内,北京市,北京市,密云区,116.6973142,40.55547326
云蒙山国家森林公园-公共厕所,公共设施,公共厕所,公共厕所,后山铺村云蒙山国家森林公园内,北京市,北京市,密云区,116.6955442,40.55849339
公共厕所,公共设施,公共厕所,公共厕所,后山铺村云蒙山国家森林公园内,北京市,北京市,密云区,116.7126441,40.56029185
北京黑龙潭自然风景区-公共厕所,公共设施,公共厕所,公共厕所,石城镇大关桥黑龙潭自然风景区内,北京市,北京市,密云区,116.7855413,40.560956
公共厕所,公共设施,公共厕所,公共厕所,石城镇大关桥黑龙潭自然风景区内,北京市,北京市,密云区,116.7920877,40.56015001
公共厕所,公共设施,公共厕所,公共厕所,密关路与琉辛路交叉口南200米,北京市,北京市,密云区,116.7957533,40.56068448
北京黑龙潭自然风景区-公共厕所,公共设施,公共厕所,公共厕所,石城镇大关桥黑龙潭自然风景区内,北京市,北京市,密云区,116.7899505,40.55985094
公共厕所,公共设施,公共厕所,公共厕所,双石路西50米,北京市,北京市,密云区,116.8293439,40.55242649
公共厕所,公共设施,公共厕所,公共厕所,石城镇双石路北京豆香缘农家院南50米,北京市,北京市,密云区,116.8307456,40.5516525
公共厕所,公共设施,公共厕所,公共厕所,京密路与002县道交叉口东南100米,北京市,北京市,密云区,117.1425576,40.55427644
太师屯服务区第二公共厕所,公共设施,公共厕所,公共厕所,G45大广高速附近,北京市,北京市,密云区,117.1481805,40.55932531
太师屯服务区公共厕所,公共设施,公共厕所,公共厕所,G45大广高速附近,北京市,北京市,密云区,117.1502313,40.55789073
太师屯服务区公共厕所,公共设施,公共厕所,公共厕所,G45大广高速附近,北京市,北京市,密云区,117.1492196,40.55714035
太师屯服务区第一公共厕所,公共设施,公共厕所,公共厕所,G45大广高速入口南100米,北京市,北京市,密云区,117.1492442,40.5603966
公共厕所,公共设施,公共厕所,公共厕所,玉海路附近,北京市,北京市,延庆区,115.8900886,40.54671368
龙庆峡风景区-公共厕所,公共设施,公共厕所,公共厕所,龙庆峡风景区内,北京市,北京市,延庆区,115.9859477,40.550319
龙庆峡风景区-公共厕所,公共设施,公共厕所,公共厕所,龙庆峡风景区内,北京市,北京市,延庆区,115.9992937,40.54781969
公共厕所,公共设施,公共厕所,公共厕所,前街与旧大路交叉口西北50米,北京市,北京市,延庆区,116.0826621,40.54893859
公共厕所,公共设施,公共厕所,公共厕所,前街与西关北街交叉口东100米,北京市,北京市,延庆区,116.0865782,40.54921615
公共厕所,公共设施,公共厕所,公共厕所,周上路与延琉路交叉口东100米,北京市,北京市,延庆区,116.2916097,40.54997027
公共厕所,公共设施,公共厕所,公共厕所,延琉路西50米,北京市,北京市,延庆区,116.3566349,40.54511974
公共厕所,公共设施,公共厕所,公共厕所,延琉路北50米,北京市,北京市,延庆区,116.368379,40.54340355
公共厕所,公共设施,公共厕所,公共厕所,延琉路西50米,北京市,北京市,延庆区,116.3926611,40.54179864
公共厕所,公共设施,公共厕所,公共厕所,延琉路东50米,北京市,北京市,怀柔区,116.5266819,40.54847555
公共厕所,公共设施,公共厕所,公共厕所,延琉路南50米,北京市,北京市,怀柔区,116.5315489,40.55031069
公共厕所,公共设施,公共厕所,公共厕所,石城乡南石城村桃源仙谷自然风景区内,北京市,北京市,密云区,116.7893406,40.54476422
桃源仙谷自然风景区-公共厕所,公共设施,公共厕所,公共厕所,石城乡南石城村桃源仙谷自然风景区内,北京市,北京市,密云区,116.7940018,40.54287134
公共厕所,公共设施,公共厕所,公共厕所,石城乡北石城村密云九道弯大峡谷风景区附近,北京市,北京市,密云区,116.807604,40.54289237
公共厕所,公共设施,公共厕所,公共厕所,,北京市,北京市,密云区,116.8078955,40.54296786
桃源仙谷自然风景区-公共厕所,公共设施,公共厕所,公共厕所,石城镇石城乡南石城村桃源仙谷自然风景区附近,北京市,北京市,密云区,116.8076189,40.54340713
桃源仙谷自然风景区-公共厕所,公共设施,公共厕所,公共厕所,石城乡南石城村桃源仙谷自然风景区内,北京市,北京市,密云区,116.8006187,40.54236545
北京汽车博物馆-公共厕所,公共设施,公共厕所,公共厕所,,北京市,北京市,密云区,116.8288556,40.54787004
公共厕所,公共设施,公共厕所,公共厕所,,北京市,北京市,密云区,116.8329729,40.55092697
公共厕所,公共设施,公共厕所,公共厕所,双石路东150米,北京市,北京市,密云区,116.8291518,40.55007241
公共厕所,公共设施,公共厕所,公共厕所,104乡道东100米,北京市,北京市,密云区,116.8985127,40.54214027
公共厕所,公共设施,公共厕所,公共厕所,104乡道西50米,北京市,北京市,密云区,116.905353,40.55059579
龙庆峡风景区-公共厕所,公共设施,公共厕所,公共厕所,龙庆峡风景区商业街内,北京市,北京市,延庆区,116.00799,40.53854745
公共厕所,公共设施,公共厕所,公共厕所,旧小路与009县道交叉口东北150米,北京市,北京市,延庆区,116.0103773,40.53628358
公共厕所,公共设施,公共厕所,公共厕所,北外大街与旧小路交叉口西南200米,北京市,北京市,延庆区,116.0134965,40.54037934
公共厕所,公共设施,公共厕所,公共厕所,延琉路北100米,北京市,北京市,怀柔区,116.4978284,40.53378992
公共厕所,公共设施,公共厕所,公共厕所,延琉路北50米,北京市,北京市,怀柔区,116.5144925,40.53983132
公共厕所,公共设施,公共厕所,公共厕所,延琉路北50米,北京市,北京市,怀柔区,116.5137287,40.54006404
公共厕所,公共设施,公共厕所,公共厕所,北湾路与范崎路交叉口西100米,北京市,北京市,怀柔区,116.5709852,40.53215833
公共厕所,公共设施,公共厕所,公共厕所,020县道东50米,北京市,北京市,怀柔区,116.6680493,40.53778213
云蒙山长城遗址公园-公共厕所,公共设施,公共厕所,公共厕所,水库西线公路127号,北京市,北京市,密云区,116.8085599,40.53363296
公共厕所,公共设施,公共厕所,公共厕所,永安街208-1号附近,北京市,北京市,密云区,117.1175779,40.53597384
公共厕所,公共设施,公共厕所,公共厕所,旧小路南50米,北京市,北京市,延庆区,116.0075485,40.53091374
公共厕所,公共设施,公共厕所,公共厕所,永宁,北京市,北京市,延庆区,116.1468553,40.52441732
公共厕所,公共设施,公共厕所,公共厕所,延琉路与滨河北路交叉口西50米,北京市,北京市,延庆区,116.1519068,40.526844
公共厕所,公共设施,公共厕所,公共厕所,拱辰街与昌赤路交叉口西南50米,北京市,北京市,延庆区,116.1582745,40.52749429
公共厕所,公共设施,公共厕所,公共厕所,永宁,北京市,北京市,延庆区,116.1489066,40.526182
公共厕所,公共设施,公共厕所,公共厕所,拱辰街与栅子巷交叉口西50米,北京市,北京市,延庆区,116.1584541,40.52717378
公共厕所,公共设施,公共厕所,公共厕所,仓子巷与拱辰街交叉口东北50米,北京市,北京市,延庆区,116.1595382,40.52641818
公共厕所,公共设施,公共厕所,公共厕所,四海镇四海派出所附近,北京市,北京市,延庆区,116.4050038,40.52775538
公共厕所,公共设施,公共厕所,公共厕所,川宝路与延琉路交叉口西南50米,北京市,北京市,延庆区,116.4031857,40.52897712
公共厕所,公共设施,公共厕所,公共厕所,延琉路东50米,北京市,北京市,怀柔区,116.4837721,40.53077368
公共厕所,公共设施,公共厕所,公共厕所,范崎路西50米,北京市,北京市,怀柔区,116.5686139,40.53093265
幽谷神潭-公共厕所,公共设施,公共厕所,公共厕所,,北京市,北京市,怀柔区,116.6679959,40.52635016
公共厕所,公共设施,公共厕所,公共厕所,,北京市,北京市,怀柔区,116.6640906,40.53113422
公共厕所,公共设施,公共厕所,公共厕所,京密路东100米,北京市,北京市,密云区,117.0969097,40.52087155
公共厕所,公共设施,公共厕所,公共厕所,京密路与002县道交叉口西150米,北京市,北京市,密云区,117.0998855,40.52463647
公共厕所,公共设施,公共厕所,公共厕所,京密路西50米,北京市,北京市,密云区,117.0993768,40.52343391
公共厕所,公共设施,公共厕所,公共厕所,351乡道东100米,北京市,北京市,密云区,117.2153289,40.52937204
玉渡山风景区-公共厕所,公共设施,公共厕所,公共厕所,张山营镇古龙路神奇野山峡东南250米,北京市,北京市,延庆区,115.9221708,40.51876091
公共厕所,公共设施,公共厕所,公共厕所,京银路北50米,北京市,北京市,延庆区,115.9374953,40.51840982
公共厕所,公共设施,公共厕所,公共厕所,京银路北50米,北京市,北京市,延庆区,115.9380982,40.51837572
公共厕所,公共设施,公共厕所,公共厕所,京银路北50米,北京市,北京市,延庆区,115.956842,40.51966697
公共厕所,公共设施,公共厕所,公共厕所,团山路西150米,北京市,北京市,延庆区,116.0997251,40.51129228
公共厕所,公共设施,公共厕所,公共厕所,安四路西50米,北京市,北京市,延庆区,116.397619,40.51286222
公共厕所,公共设施,公共厕所,公共厕所,石城乡水库西线公路175号(密云水库西侧)云蒙峡附近,北京市,北京市,密云区,116.7958255,40.52084765
公共厕所,公共设施,公共厕所,公共厕所,,北京市,北京市,密云区,116.8000657,40.51933141
公共厕所,公共设施,公共厕所,公共厕所,001县道西100米,北京市,北京市,密云区,117.137066,40.51746382
公共厕所,公共设施,公共厕所,公共厕所,351乡道东50米,北京市,北京市,密云区,117.1871072,40.51263359
北京松山森林旅游区-公共厕所,公共设施,公共厕所,公共厕所,松下路附近,北京市,北京市,延庆区,115.8150556,40.50495166
北京松山森林旅游区-公共厕所,公共设施,公共厕所,公共厕所,松阎路与012县道交叉口西北50米,北京市,北京市,延庆区,115.8102502,40.5019293
公共厕所,公共设施,公共厕所,公共厕所,玉下路与020县道交叉口西北200米,北京市,北京市,延庆区,115.8883727,40.51095257
公共厕所,公共设施,公共厕所,公共厕所,京银路东50米,北京市,北京市,延庆区,115.9758949,40.50284322
公共厕所,公共设施,公共厕所,公共厕所,米黄路东100米,北京市,北京市,延庆区,115.9824586,40.50440202
公共厕所,公共设施,公共厕所,公共厕所,029县道东150米,北京市,北京市,延庆区,116.0147929,40.5042199
公共厕所,公共设施,公共厕所,公共厕所,沈家营镇双龙北路马匹营村村委会,北京市,北京市,延庆区,116.0745164,40.50528483
公共厕所,公共设施,公共厕所,公共厕所,中街十一巷与中街十三巷交叉口东南50米,北京市,北京市,延庆区,116.0841893,40.50883261
公共厕所,公共设施,公共厕所,公共厕所,双龙南路与西马路交叉口北100米,北京市,北京市,延庆区,116.0808254,40.51039628
公共厕所,公共设施,公共厕所,公共厕所,范崎路南50米,北京市,北京市,怀柔区,116.5734962,40.51089922
公共厕所,公共设施,公共厕所,公共厕所,范崎路南50米,北京市,北京市,怀柔区,116.5729537,40.5108478
公共厕所,公共设施,公共厕所,公共厕所,范崎路北150米,北京市,北京市,怀柔区,116.5845224,40.50631665
公共厕所,公共设施,公共厕所,公共厕所,京加路西50米,北京市,北京市,怀柔区,116.660309,40.51038195
北京市五座楼森林公园-公共厕所,公共设施,公共厕所,公共厕所,,北京市,北京市,密云区,116.8077718,40.50769561
北京市五座楼森林公园-公共厕所,公共设施,公共厕所,公共厕所,密关路西50米,北京市,北京市,密云区,116.8102193,40.5075361
公共厕所,公共设施,公共厕所,公共厕所,上安街与京密路交叉口南100米,北京市,北京市,密云区,117.0683997,40.5065974
公共厕所,公共设施,公共厕所,公共厕所,东安街与沙太路交叉口东150米,北京市,北京市,密云区,117.1726074,40.50759421
公共厕所,公共设施,公共厕所,公共厕所,东安街2号附近,北京市,北京市,密云区,117.1722477,40.5076775
公共厕所,公共设施,公共厕所,公共厕所,华盛路与沙太路交叉口东100米,北京市,北京市,密云区,117.177199,40.50796545
公共厕所,公共设施,公共厕所,公共厕所,沙太路33号附近,北京市,北京市,密云区,117.1696878,40.5079766
公共厕所,公共设施,公共厕所,公共厕所,351乡道东150米,北京市,北京市,密云区,117.1834523,40.50885017
公共厕所,公共设施,公共厕所,公共厕所,松阎路与012县道交叉口北150米,北京市,北京市,延庆区,115.8109445,40.49895698
公共厕所,公共设施,公共厕所,公共厕所,京银路与西唐路交叉口北150米,北京市,北京市,延庆区,115.9822051,40.49167684
公共厕所,公共设施,公共厕所,公共厕所,范崎路东50米,北京市,北京市,怀柔区,116.5658164,40.491522
百泉山风景区-公共厕所,公共设施,公共厕所,公共厕所,怀北椴树岭百泉山风景区,北京市,北京市,怀柔区,116.6561012,40.49268545
公共厕所,公共设施,公共厕所,公共厕所,京密路与白龙潭桥交叉口南100米,北京市,北京市,密云区,117.0584224,40.49833607
密云白龙潭自然风景区-公共厕所,公共设施,公共厕所,公共厕所,白龙潭龙泉寺附近,北京市,北京市,密云区,117.0628828,40.49668965
公共厕所,公共设施,公共厕所,公共厕所,京银路与马庄路交叉口东北150米,北京市,北京市,延庆区,115.8710251,40.48646995
公共厕所,公共设施,公共厕所,公共厕所,体校体育场南80米(018县道西),北京市,北京市,延庆区,115.9467629,40.48621568
公共厕所,公共设施,公共厕所,公共厕所,北靳路与014县道交叉口西150米,北京市,北京市,延庆区,115.9522816,40.48409713
公共厕所,公共设施,公共厕所,公共厕所,三里河路与北新路交叉口西150米,北京市,北京市,延庆区,115.9619638,40.48524836
公共厕所,公共设施,公共厕所,公共厕所,014县道南50米,北京市,北京市,延庆区,115.9591599,40.48491481
公共厕所,公共设施,公共厕所,公共厕所,八峪路西50米,北京市,北京市,延庆区,116.0337503,40.48281453
公共厕所,公共设施,公共厕所,公共厕所,郭石路南50米,北京市,北京市,延庆区,116.4856173,40.48986819
公共厕所,公共设施,公共厕所,公共厕所,范崎路东50米,北京市,北京市,怀柔区,116.5718202,40.48227637
公共厕所,公共设施,公共厕所,公共厕所,八道河东口北200米,北京市,北京市,怀柔区,116.5713428,40.48193309
公共厕所,公共设施,公共厕所,公共厕所,京加路西100米,北京市,北京市,怀柔区,116.6554519,40.48613073
公共厕所,公共设施,公共厕所,公共厕所,京加路东50米,北京市,北京市,怀柔区,116.6576725,40.48691417
公共厕所,公共设施,公共厕所,公共厕所,京加路东50米,北京市,北京市,怀柔区,116.6569718,40.48409779
公共厕所,公共设施,公共厕所,公共厕所,京加路东100米,北京市,北京市,怀柔区,116.659138,40.48200963
云龙涧自然风景区-公共厕所,公共设施,公共厕所,公共厕所,溪翁庄镇河北路云龙涧自然风景区,北京市,北京市,密云区,116.7752263,40.48613217
云龙涧自然风景区-公共厕所,公共设施,公共厕所,公共厕所,溪翁庄镇河北路云龙涧自然风景区,北京市,北京市,密云区,116.7779452,40.48454297
云龙涧自然风景区-公共厕所,公共设施,公共厕所,公共厕所,河北路北150米,北京市,北京市,密云区,116.7865634,40.48579554
云龙涧自然风景区-公共厕所,公共设施,公共厕所,公共厕所,溪翁庄镇河北路云龙涧自然风景区,北京市,北京市,密云区,116.7836892,40.48920502
北京交通云蒙山庄-洗手间,公共设施,公共厕所,公共厕所,密关路(密云水库白河主坝西侧),北京市,北京市,密云区,116.8175302,40.49078457
中国华电集团高级培训中心8号楼-洗手间,公共设施,公共厕所,公共厕所,溪翁庄镇环湖南路49号,北京市,北京市,密云区,116.8223054,40.48305206
中国华电集团高级培训中心7号楼-洗手间,公共设施,公共厕所,公共厕所,溪翁庄镇环湖南路49号,北京市,北京市,密云区,116.8228064,40.48248326
中国华电集团高级培训中心5号楼-洗手间,公共设施,公共厕所,公共厕所,溪翁庄镇环湖南路49号,北京市,北京市,密云区,116.823057,40.48154416
公共厕所,公共设施,公共厕所,公共厕所,后太公路与沙太路交叉口南100米,北京市,北京市,密云区,117.1678746,40.48325991
公共厕所,公共设施,公共厕所,公共厕所,张山营镇G110中国邮政储蓄银行,北京市,北京市,延庆区,115.8531319,40.47761661
公共厕所,公共设施,公共厕所,公共厕所,西丁公路与014县道交叉口东100米,北京市,北京市,延庆区,115.9379215,40.47940661
公共厕所,公共设施,公共厕所,公共厕所,温泉小区附近,北京市,北京市,延庆区,115.9634874,40.47626439
公共厕所,公共设施,公共厕所,公共厕所,,北京市,北京市,延庆区,115.9620928,40.47399711
公共厕所,公共设施,公共厕所,公共厕所,三里河路西50米,北京市,北京市,延庆区,115.9656722,40.47353571
公共厕所,公共设施,公共厕所,公共厕所,广兴街人民检察院北,北京市,北京市,延庆区,115.9719192,40.47707669
新城街北公共厕所,公共设施,公共厕所,公共厕所,庆隆街与新城街交叉口西南100米,北京市,北京市,延庆区,115.9761396,40.47518534
江水泉公园-公共厕所,公共设施,公共厕所,公共厕所,广兴街北50米,北京市,北京市,延庆区,115.9720188,40.4772943
公共厕所,公共设施,公共厕所,公共厕所,庆隆街与新城街交叉口南50米,北京市,北京市,延庆区,115.9765203,40.47541513
公共厕所,公共设施,公共厕所,公共厕所,延庆镇,北京市,北京市,延庆区,115.9878511,40.47341512
公共厕所,公共设施,公共厕所,公共厕所,庆园街与龙庆路交叉口东北50米,北京市,北京市,延庆区,115.9876737,40.47318776
公共厕所,公共设施,公共厕所,公共厕所,延庆镇庆园街8号附近,北京市,北京市,延庆区,115.9797311,40.47135046
公共厕所,公共设施,公共厕所,公共厕所,延琉路南50米,北京市,北京市,延庆区,116.0265161,40.47782199
公共厕所,公共设施,公共厕所,公共厕所,,北京市,北京市,怀柔区,116.3162169,40.47247258
公共厕所,公共设施,公共厕所,公共厕所,安四路北50米,北京市,北京市,怀柔区,116.3566385,40.47962707
公共厕所,公共设施,公共厕所,公共厕所,八西路南50米,北京市,北京市,怀柔区,116.5649125,40.48090183
公共厕所,公共设施,公共厕所,公共厕所,八西路与范崎路交叉口西北50米,北京市,北京市,怀柔区,116.5714221,40.48061676
公共厕所,公共设施,公共厕所,公共厕所,八西路东50米,北京市,北京市,怀柔区,116.5695833,40.47995533
百泉山风景区-公共厕所,公共设施,公共厕所,公共厕所,京加路西100米,北京市,北京市,怀柔区,116.6533225,40.47290671
公共厕所,公共设施,公共厕所,公共厕所,怀北镇京加路欧亚庄园东北300米,北京市,北京市,怀柔区,116.659093,40.47446712
公共厕所,公共设施,公共厕所,公共厕所,京加路东200米附近,北京市,北京市,怀柔区,116.6574402,40.47118272
公共厕所,公共设施,公共厕所,公共厕所,,北京市,北京市,怀柔区,116.6577323,40.47123115
北京云蒙三峪自然风景区-公共厕所,公共设施,公共厕所,公共厕所,云蒙山抗日斗争纪念碑附近,北京市,北京市,密云区,116.7283788,40.47905692
北京云蒙三峪自然风景区-公共厕所,公共设施,公共厕所,公共厕所,河北路与河白路交叉口西北100米,北京市,北京市,密云区,116.7576964,40.4784846
公共厕所,公共设施,公共厕所,公共厕所,北白岩正街附近,北京市,北京市,密云区,116.8056205,40.47921117
中国华电集团高级培训中心3号楼-洗手间,公共设施,公共厕所,公共厕所,溪翁庄镇环湖南路49号,北京市,北京市,密云区,116.8235982,40.4801558
中国华电集团高级培训中心4号楼-洗手间,公共设施,公共厕所,公共厕所,溪翁庄镇环湖南路49号,北京市,北京市,密云区,116.8234489,40.4806353
中国华电集团高级培训中心保龄球馆-洗手间,公共设施,公共厕所,公共厕所,溪翁庄镇环湖南路49号中国华电集团高级培训中心,北京市,北京市,密云区,116.8222656,40.48085299
公共厕所,公共设施,公共厕所,公共厕所,密关路北100米北京密云水库宾馆会议厅附近,北京市,北京市,密云区,116.8321019,40.47553066
公共厕所,公共设施,公共厕所,公共厕所,密关路南50米,北京市,北京市,密云区,116.8305851,40.47482319
公共厕所,公共设施,公共厕所,公共厕所,密关路附近,北京市,北京市,密云区,116.8382894,40.4730839
公共厕所,公共设施,公共厕所,公共厕所,313省道北100米,北京市,北京市,密云区,116.8567028,40.4740481
公共厕所,公共设施,公共厕所,公共厕所,313省道南50米,北京市,北京市,密云区,116.8749257,40.47407984
古崖居遗址-公共厕所,公共设施,公共厕所,公共厕所,010县道西50米,北京市,北京市,延庆区,115.7690053,40.46129839
公共厕所,公共设施,公共厕所,公共厕所,京银路西100米,北京市,北京市,延庆区,115.8255944,40.46690979
公共厕所,公共设施,公共厕所,公共厕所,张山营,北京市,北京市,延庆区,115.826178,40.46700484
公共厕所,公共设施,公共厕所,公共厕所,北靳路南150米,北京市,北京市,延庆区,115.9565795,40.46611074
公共厕所,公共设施,公共厕所,公共厕所,,北京市,北京市,延庆区,115.9503072,40.46339494
公共厕所,公共设施,公共厕所,公共厕所,北靳路东50米,北京市,北京市,延庆区,115.9567246,40.47001567
公共厕所,公共设施,公共厕所,公共厕所,北靳路与018县道交叉口西南150米,北京市,北京市,延庆区,115.9584128,40.46308444
公共厕所,公共设施,公共厕所,公共厕所,广兴街与高塔路交叉口北100米,北京市,北京市,延庆区,115.9751592,40.46490773
公共厕所,公共设施,公共厕所,公共厕所,广兴街与高塔路交叉口东北50米,北京市,北京市,延庆区,115.9754233,40.46476402
公共厕所,公共设施,公共厕所,公共厕所,恒安中街与恒安中街三巷交叉口东南50米,北京市,北京市,延庆区,115.9772071,40.46741765
公共厕所,公共设施,公共厕所,公共厕所,东外大街100号附近,北京市,北京市,延庆区,115.9711894,40.46226628
公共厕所,公共设施,公共厕所,公共厕所,广兴街与庆园街交叉口西北100米,北京市,北京市,延庆区,115.973145,40.47112583
公共厕所,公共设施,公共厕所,公共厕所,东外大街北100米,北京市,北京市,延庆区,115.9786918,40.46199463
公共厕所,公共设施,公共厕所,公共厕所,香苑街与高塔路交叉口西南50米,北京市,北京市,延庆区,115.9837223,40.46565003
公共厕所,公共设施,公共厕所,公共厕所,香苑街与高塔路交叉口东南200米,北京市,北京市,延庆区,115.9851126,40.46483519
香水苑公园-公共厕所,公共设施,公共厕所,公共厕所,香水园街道高塔路香水苑公园,北京市,北京市,延庆区,115.987827,40.46668416
公共厕所,公共设施,公共厕所,公共厕所,新兴小区附近,北京市,北京市,延庆区,115.9810401,40.4683169
公共厕所,公共设施,公共厕所,公共厕所,东外大街58号附近,北京市,北京市,延庆区,115.9864243,40.46339485
公共厕所,公共设施,公共厕所,公共厕所,香苑街87号附近,北京市,北京市,延庆区,115.9827262,40.46988017
公共厕所,公共设施,公共厕所,公共厕所,新城街与高塔路交叉口西南50米,北京市,北京市,延庆区,115.9792237,40.46452796
北京圣世苑温泉大酒店(延庆-县城)-洗手间,公共设施,公共厕所,公共厕所,东外大街69号圣世苑温泉大酒店,北京市,北京市,延庆区,115.9834436,40.46284308
公共厕所,公共设施,公共厕所,公共厕所,延庆镇泰安小区附近,北京市,北京市,延庆区,115.9949234,40.46607579
香水苑公园-公共厕所,公共设施,公共厕所,公共厕所,东外大街与龙庆路交叉口西北200米,北京市,北京市,延庆区,115.9905457,40.46581926
公共厕所,公共设施,公共厕所,公共厕所,高塔路与龙庆路交叉口东100米,北京市,北京市,延庆区,115.9904748,40.46743777
公共厕所,公共设施,公共厕所,公共厕所,高塔路北200米,北京市,北京市,延庆区,115.9918965,40.46973643
公共厕所,公共设施,公共厕所,公共厕所,龙庆南路与龙庆路交叉口北100米,北京市,北京市,延庆区,115.9944357,40.46154025
公共厕所,公共设施,公共厕所,公共厕所,井三路北50米,北京市,北京市,延庆区,116.1025753,40.46218304
公共厕所,公共设施,公共厕所,公共厕所,安四路东50米,北京市,北京市,怀柔区,116.3383549,40.46664614
响水湖长城自然风景区-公共厕所,公共设施,公共厕所,公共厕所,洞庄路东50米,北京市,北京市,怀柔区,116.4726179,40.46628926
响水湖长城自然风景区-公共厕所,公共设施,公共厕所,公共厕所,渤海镇响水湖长城自然风景区庄户村村委会附近,北京市,北京市,怀柔区,116.4762101,40.46589959
公共厕所,公共设施,公共厕所,公共厕所,范崎路附近,北京市,北京市,怀柔区,116.5945802,40.46592916
公共厕所,公共设施,公共厕所,公共厕所,交界河路西50米,北京市,北京市,怀柔区,116.596461,40.46820784
公共厕所,公共设施,公共厕所,公共厕所,京加路东50米,北京市,北京市,怀柔区,116.655164,40.46774154
公共厕所,公共设施,公共厕所,公共厕所,京加路东200米附近,北京市,北京市,怀柔区,116.6574402,40.47118272
公共厕所,公共设施,公共厕所,公共厕所,,北京市,北京市,密云区,116.7384427,40.4644452
公共厕所,公共设施,公共厕所,公共厕所,卸牛路东50米,北京市,北京市,密云区,116.7428388,40.46504031
公共厕所,公共设施,公共厕所,公共厕所,密关路东100米,北京市,北京市,密云区,116.8350794,40.46717477
公共厕所,公共设施,公共厕所,公共厕所,乔白路与755乡道交叉口东50米,北京市,北京市,密云区,116.8841301,40.46832548
云谷山庄农业部绿化基地-洗手间,公共设施,公共厕所,公共厕所,穆家峪镇北碱厂村(密云水库潮河大坝北侧),北京市,北京市,密云区,116.9900718,40.46726957
公共厕所,公共设施,公共厕所,公共厕所,京银路北50米,北京市,北京市,延庆区,115.8011001,40.45147076
公共厕所,公共设施,公共厕所,公共厕所,延农路南50米,北京市,北京市,延庆区,115.8863771,40.45207363
公共厕所,公共设施,公共厕所,公共厕所,011县道北100米,北京市,北京市,延庆区,115.9479122,40.45430322
公共厕所破屋一座,公共设施,公共厕所,公共厕所,延农公路北50米,北京市,北京市,延庆区,115.9551047,40.4565275
公共厕所,公共设施,公共厕所,公共厕所,延农公路北100米,北京市,北京市,延庆区,115.9551595,40.4571441
公共厕所,公共设施,公共厕所,公共厕所,延农公路北150米,北京市,北京市,延庆区,115.9526122,40.45718722
妫水公园-公共厕所,公共设施,公共厕所,公共厕所,延农公路南50米,北京市,北京市,延庆区,115.9518503,40.45575762
公共厕所,公共设施,公共厕所,公共厕所,延农公路3号附近,北京市,北京市,延庆区,115.9576558,40.45639422
公共厕所,公共设施,公共厕所,公共厕所,儒林街与昌平街交叉口西南50米,北京市,北京市,延庆区,115.9668158,40.4569158
公共厕所,公共设施,公共厕所,公共厕所,西街16号附近,北京市,北京市,延庆区,115.9613023,40.4574284
公共厕所,公共设施,公共厕所,公共厕所,延康路附近,北京市,北京市,延庆区,115.961055,40.4570802
夏都公园-公共厕所,公共设施,公共厕所,公共厕所,南顺城街与延康路交叉口西南150米,北京市,北京市,延庆区,115.9638094,40.45347442
夏都公园-公共厕所,公共设施,公共厕所,公共厕所,延康路与西顺城街交叉口东北200米,北京市,北京市,延庆区,115.963621,40.45321104
公共厕所,公共设施,公共厕所,公共厕所,东顺城街与城隍庙街交叉口西100米,北京市,北京市,延庆区,115.968671,40.45689667
公共厕所,公共设施,公共厕所,公共厕所,三义庙街与药王庙街交叉口南50米,北京市,北京市,延庆区,115.9665154,40.45917167
妫水公园-公共厕所,公共设施,公共厕所,公共厕所,西环路与西顺城街交叉口西100米,北京市,北京市,延庆区,115.9599266,40.4545422
妫水公园-公共厕所,公共设施,公共厕所,公共厕所,西环路与西顺城街交叉口西南100米,北京市,北京市,延庆区,115.9601311,40.45421881
公共厕所,公共设施,公共厕所,公共厕所,草场街与风水街交叉口西北100米,北京市,北京市,延庆区,115.9617587,40.4595463
公共厕所,公共设施,公共厕所,公共厕所,西顺城街附近,北京市,北京市,延庆区,115.9595162,40.45934022
公共厕所,公共设施,公共厕所,公共厕所,药王庙街三义庙街路口附近,北京市,北京市,延庆区,115.9644864,40.46073952
公共厕所,公共设施,公共厕所,公共厕所,妫水北街33号附近,北京市,北京市,延庆区,115.9682488,40.46106107
夏都公园-公共厕所,公共设施,公共厕所,公共厕所,南顺城街南50米,北京市,北京市,延庆区,115.9714464,40.45562239
夏都公园-公共厕所,公共设施,公共厕所,公共厕所,夏都公园北门,北京市,北京市,延庆区,115.9710397,40.45541063
公共厕所,公共设施,公共厕所,公共厕所,北顺城街8号附近,北京市,北京市,延庆区,115.9735731,40.45878296
公共厕所,公共设施,公共厕所,公共厕所,东外大街与建业胡同交叉口西南50米,北京市,北京市,延庆区,115.9740345,40.45951531
公共厕所,公共设施,公共厕所,公共厕所,凯思大酒店后院,北京市,北京市,延庆区,115.9690728,40.4569975
卫生间(中踏广场),公共设施,公共厕所,公共厕所,东外大街111号中踏广场F4层,北京市,北京市,延庆区,115.9702578,40.45906429
女洗手间,公共设施,公共厕所,公共厕所,东外大街111号中踏广场F4,北京市,北京市,延庆区,115.9702219,40.4590604
公共厕所,公共设施,公共厕所,公共厕所,东外大街南100米,北京市,北京市,延庆区,115.9774512,40.45996516
东湖公园-公共厕所,公共设施,公共厕所,公共厕所,妫水南街与湖南东路交叉口北50米,北京市,北京市,延庆区,115.9747811,40.45162848
公共厕所,公共设施,公共厕所,公共厕所,妫水北街与步行街交叉口东50米,北京市,北京市,延庆区,115.9718545,40.46047116
公共厕所,公共设施,公共厕所,公共厕所,妫水北街g座附近,北京市,北京市,延庆区,115.9698679,40.45981907
公共厕所,公共设施,公共厕所,公共厕所,妫水北街39号1幢B座附近,北京市,北京市,延庆区,115.9693526,40.45956063
公共厕所,公共设施,公共厕所,公共厕所,东外大街81号附近,北京市,北京市,延庆区,115.9775378,40.46099546
无障碍洗手间,公共设施,公共厕所,公共厕所,妫水北街46号环球新意百货B2,北京市,北京市,延庆区,115.9694282,40.46028311
公共厕所,公共设施,公共厕所,公共厕所,妫水北街39号1栋F座附近,北京市,北京市,延庆区,115.9690513,40.46109082
男洗手间,公共设施,公共厕所,公共厕所,妫水北街39号1栋F座附近,北京市,北京市,延庆区,115.9690693,40.4610058
东湖公园-公共厕所,公共设施,公共厕所,公共厕所,师范路与湖北东路交叉口东南150米,北京市,北京市,延庆区,115.9844559,40.45718646
东湖公园-公共厕所,公共设施,公共厕所,公共厕所,湖南东路北200米,北京市,北京市,延庆区,115.9817526,40.4535971
公共厕所,公共设施,公共厕所,公共厕所,湖北东路北100米,北京市,北京市,延庆区,115.9791,40.45798614
公共厕所,公共设施,公共厕所,公共厕所,湖南东路与铝连路交叉口东100米,北京市,北京市,延庆区,115.9875976,40.45284078
东湖公园-公共厕所,公共设施,公共厕所,公共厕所,湖北东路南100米,北京市,北京市,延庆区,115.993654,40.45742139
公共厕所,公共设施,公共厕所,公共厕所,湖南东路东200米,北京市,北京市,延庆区,115.9939256,40.4533153
公共厕所,公共设施,公共厕所,公共厕所,滨河南路北100米,北京市,北京市,延庆区,116.01434,40.45371502
响水湖长城自然风景区-公共厕所,公共设施,公共厕所,公共厕所,洞庄路西50米,北京市,北京市,怀柔区,116.4479178,40.45340262
响水湖长城自然风景区-公共厕所,公共设施,公共厕所,公共厕所,洞庄路北50米,北京市,北京市,怀柔区,116.4544202,40.46030145
公共厕所,公共设施,公共厕所,公共厕所,大水峪村北500米北京怀柔青龙峡旅游度假区内,北京市,北京市,怀柔区,116.6762813,40.45470378
公共厕所,公共设施,公共厕所,公共厕所,大水峪村北500米北京怀柔青龙峡旅游度假区内,北京市,北京市,怀柔区,116.6786095,40.45635872
公共厕所,公共设施,公共厕所,公共厕所,大水峪村北500米青龙峡旅游度假区内,北京市,北京市,怀柔区,116.6783396,40.45351542
公共厕所,公共设施,公共厕所,公共厕所,大水峪村北500米青龙峡旅游度假区内,北京市,北京市,怀柔区,116.6770355,40.45187055
公共厕所,公共设施,公共厕所,公共厕所,怀北镇大水峪村北500米北京怀柔青龙峡旅游度假区内,北京市,北京市,怀柔区,116.6804698,40.45247791
公共厕所,公共设施,公共厕所,公共厕所,大水峪村北500米北京怀柔青龙峡旅游度假区内,北京市,北京市,怀柔区,116.6872642,40.45216682
公共厕所,公共设施,公共厕所,公共厕所,怀北镇大水峪村北500米北京市工商行政管理局怀柔分局青龙峡景区工作站附近,北京市,北京市,怀柔区,116.689993,40.45242
北京怀柔青龙峡旅游度假区-公共厕所,公共设施,公共厕所,公共厕所,,北京市,北京市,怀柔区,116.6905147,40.45161645
公共厕所,公共设施,公共厕所,公共厕所,密西路北50米,北京市,北京市,密云区,116.7270208,40.45335198
公共厕所,公共设施,公共厕所,公共厕所,西田各庄镇密西路小水峪火车站旁,北京市,北京市,密云区,116.7204953,40.4521175
公共厕所,公共设施,公共厕所,公共厕所,西田各庄镇小石尖社区卫生服务站,北京市,北京市,密云区,116.7632165,40.45917438
公共厕所,公共设施,公共厕所,公共厕所,河北路东150米,北京市,北京市,密云区,116.7632436,40.45865362
公共厕所,公共设施,公共厕所,公共厕所,,北京市,北京市,密云区,116.8962959,40.4582416
公共厕所,公共设施,公共厕所,公共厕所,,北京市,北京市,密云区,116.896814,40.45452315
公共厕所,公共设施,公共厕所,公共厕所,石坝公路东50米,北京市,北京市,密云区,116.8994572,40.45373418
公共厕所,公共设施,公共厕所,公共厕所,313省道西150米,北京市,北京市,密云区,116.9259851,40.45843677
公共厕所,公共设施,公共厕所,公共厕所,汇川街西50米,北京市,北京市,延庆区,115.9651591,40.44702347
公共厕所,公共设施,公共厕所,公共厕所,湖南西路20号附近,北京市,北京市,延庆区,115.963134,40.44829039
公共厕所,公共设施,公共厕所,公共厕所,汇川街与菜园中街交叉口东100米,北京市,北京市,延庆区,115.9670227,40.44459237
公共厕所,公共设施,公共厕所,公共厕所,延庆镇,北京市,北京市,延庆区,115.9602833,40.44882267
夏都会议中心-洗手间,公共设施,公共厕所,公共厕所,湖南西路22号(夏都公园旁),北京市,北京市,延庆区,115.9629834,40.44860366
公共厕所,公共设施,公共厕所,公共厕所,菜园中街与西街交叉口南100米,北京市,北京市,延庆区,115.9727446,40.44490814
公共厕所,公共设施,公共厕所,公共厕所,菜园南街与菜园南街四巷交叉口东南100米,北京市,北京市,延庆区,115.9740224,40.44510238
公共厕所,公共设施,公共厕所,公共厕所,菜园南街与菜园街交叉口南100米,北京市,北京市,延庆区,115.9747002,40.44509942
公共厕所,公共设施,公共厕所,公共厕所,菜园南街与菜园南街四巷交叉口南100米,北京市,北京市,延庆区,115.9734722,40.44494003
公共厕所,公共设施,公共厕所,公共厕所,菜园南街与菜园南街四巷交叉口南150米,北京市,北京市,延庆区,115.9735869,40.44447189
公共厕所,公共设施,公共厕所,公共厕所,菜园南街一巷与菜园南街二巷交叉口西北100米,北京市,北京市,延庆区,115.9748199,40.44447733
公共厕所,公共设施,公共厕所,公共厕所,菜园南街一巷与菜园南街二巷交叉口东北100米,北京市,北京市,延庆区,115.9755655,40.44443218
公共厕所,公共设施,公共厕所,公共厕所,林带路与百莲路交叉口东北100米,北京市,北京市,延庆区,115.9734007,40.44327592
公共厕所,公共设施,公共厕所,公共厕所,功德巷与妫水南街交叉口东北50米,北京市,北京市,延庆区,115.9767032,40.44849218
公共厕所,公共设施,公共厕所,公共厕所,妫水南街8号附近,北京市,北京市,延庆区,115.9768845,40.44878853
公共厕所,公共设施,公共厕所,公共厕所,菜园南街一巷与菜园南街二巷交叉口东南150米,北京市,北京市,延庆区,115.976084,40.44260841
公共厕所,公共设施,公共厕所,公共厕所,菜园南街13号附近,北京市,北京市,延庆区,115.9806601,40.44685216
公共厕所,公共设施,公共厕所,公共厕所,菜园南街南50米,北京市,北京市,延庆区,115.9807459,40.446617
公共厕所,公共设施,公共厕所,公共厕所,海川路与999县道交叉口北200米,北京市,北京市,延庆区,115.9964881,40.44976296
柳沟民俗旅游度假区-公共厕所,公共设施,公共厕所,公共厕所,柳二路与西北路交叉口南100米,北京市,北京市,延庆区,116.0939747,40.44446021
柳沟民俗旅游度假区-公共厕所,公共设施,公共厕所,公共厕所,胡柳路东200米,北京市,北京市,延庆区,116.0909868,40.44749991
公共厕所,公共设施,公共厕所,公共厕所,安四路南50米,北京市,北京市,怀柔区,116.3259183,40.44278857
公共厕所,公共设施,公共厕所,公共厕所,铁三路西50米,北京市,北京市,怀柔区,116.4116585,40.44650052
公共厕所,公共设施,公共厕所,公共厕所,铁三路东50米,北京市,北京市,怀柔区,116.415344,40.44161236
公共厕所,公共设施,公共厕所,公共厕所,洞庄路西50米,北京市,北京市,怀柔区,116.4379957,40.4475983
公共厕所,公共设施,公共厕所,公共厕所,洞庄路东50米,北京市,北京市,怀柔区,116.4461163,40.44940045
响水湖长城自然风景区-公共厕所,公共设施,公共厕所,公共厕所,洞庄路东50米,北京市,北京市,怀柔区,116.4469726,40.45030488
神堂峪自然风景区-公共厕所,公共设施,公共厕所,公共厕所,神堂峪道西200米,北京市,北京市,怀柔区,116.6159617,40.44797256
神堂峪自然风景区-公共厕所,公共设施,公共厕所,公共厕所,神堂峪道东50米,北京市,北京市,怀柔区,116.6189729,40.44689189
神堂峪自然风景区-公共厕所,公共设施,公共厕所,公共厕所,神堂峪道东150米,北京市,北京市,怀柔区,116.6197836,40.4466421
公共厕所,公共设施,公共厕所,公共厕所,青龙湖旅游度假区附近,北京市,北京市,怀柔区,116.6934778,40.44626974
公共厕所,公共设施,公共厕所,公共厕所,,北京市,北京市,怀柔区,116.6954689,40.44554882
公共厕所,公共设施,公共厕所,公共厕所,怀北镇青龙湖旅游度假区好再来农家院,北京市,北京市,怀柔区,116.6948282,40.44727513
公共厕所,公共设施,公共厕所,公共厕所,,北京市,北京市,怀柔区,116.6936798,40.44949307
公共厕所,公共设施,公共厕所,公共厕所,712乡道西50米,北京市,北京市,密云区,116.8088265,40.44671793
公共厕所,公共设施,公共厕所,公共厕所,北石骆驼附近,北京市,北京市,密云区,116.8992582,40.44666516
公共厕所,公共设施,公共厕所,公共厕所,京密路与庄上路交叉口南150米,北京市,北京市,密云区,117.0056727,40.44122213
公共厕所,公共设施,公共厕所,公共厕所,下营路与京银路交叉口东南100米,北京市,北京市,延庆区,115.781387,40.43546155
公共厕所,公共设施,公共厕所,公共厕所,,北京市,北京市,延庆区,115.9174979,40.44064733
公共厕所,公共设施,公共厕所,公共厕所,,北京市,北京市,延庆区,115.9385294,40.43890277
公共厕所,公共设施,公共厕所,公共厕所,妫川路与德阳东街交叉口西南150米,北京市,北京市,延庆区,115.9788539,40.43362287
公共厕所,公共设施,公共厕所,公共厕所,司家营村南煤场路,北京市,北京市,延庆区,115.9813194,40.4354838
公共厕所,公共设施,公共厕所,公共厕所,圣百街与妫川路交叉口南100米,北京市,北京市,延庆区,115.9798392,40.43660676
公共厕所,公共设施,公共厕所,公共厕所,妫川路附近,北京市,北京市,延庆区,115.9867562,40.43967475
公共厕所,公共设施,公共厕所,公共厕所,妫水南街与百泉街交叉口西南50米,北京市,北京市,延庆区,115.9800102,40.44002488
公共厕所,公共设施,公共厕所,公共厕所,司连路东50米,北京市,北京市,延庆区,115.9903696,40.44067836
公共厕所,公共设施,公共厕所,公共厕所,旧京银路南100米,北京市,北京市,延庆区,116.0138365,40.43953131
公共厕所,公共设施,公共厕所,公共厕所,京银路南150米,北京市,北京市,延庆区,116.0237779,40.43449159
公共厕所,公共设施,公共厕所,公共厕所,京银路北100米,北京市,北京市,延庆区,116.0379642,40.43109362
公共厕所,公共设施,公共厕所,公共厕所,,北京市,北京市,延庆区,116.1034235,40.43691692
公共厕所,公共设施,公共厕所,公共厕所,柳果路东150米,北京市,北京市,延庆区,116.1044332,40.43260313
公共厕所,公共设施,公共厕所,公共厕所,大西路与昌赤路交叉口东南50米,北京市,北京市,延庆区,116.224343,40.43545247
公共厕所,公共设施,公共厕所,公共厕所,汉太路与莲花山路交叉口西南200米,北京市,北京市,延庆区,116.2535637,40.44071108
莲花山森林公园-公共厕所,公共设施,公共厕所,公共厕所,,北京市,北京市,延庆区,116.2662569,40.43444073
公共厕所,公共设施,公共厕所,公共厕所,铁三路西50米,北京市,北京市,怀柔区,116.4159832,40.43862312
公共厕所,公共设施,公共厕所,公共厕所,铁三路西50米,北京市,北京市,怀柔区,116.4151129,40.44089445
公共厕所,公共设施,公共厕所,公共厕所,铁三路北50米,北京市,北京市,怀柔区,116.4228195,40.43263656
公共厕所,公共设施,公共厕所,公共厕所,铁三路北100米,北京市,北京市,怀柔区,116.426066,40.43208484
公共厕所,公共设施,公共厕所,公共厕所,铁三路北50米,北京市,北京市,怀柔区,116.4260019,40.43178787
公共厕所,公共设施,公共厕所,公共厕所,渤海镇马莲桥公交站东北100米,北京市,北京市,怀柔区,116.4309185,40.43694582
公共厕所,公共设施,公共厕所,公共厕所,洞庄路西50米,北京市,北京市,怀柔区,116.4306753,40.4350822
公共厕所,公共设施,公共厕所,公共厕所,龙泉庄延长路与245乡道交叉口西北50米,北京市,北京市,怀柔区,116.4743233,40.43302886
慕田峪长城-公共厕所,公共设施,公共厕所,公共厕所,渤海镇慕田峪长城内,北京市,北京市,怀柔区,116.55821,40.43356102
慕田峪长城-公共厕所,公共设施,公共厕所,公共厕所,渤海镇慕田峪长城内,北京市,北京市,怀柔区,116.5582712,40.43261748
慕田峪长城-公共厕所,公共设施,公共厕所,公共厕所,渤海镇慕田峪长城内,北京市,北京市,怀柔区,116.5560203,40.43136156
慕田峪长城-公共厕所,公共设施,公共厕所,公共厕所,渤海镇慕田峪长城风景区慕田峪长城国家级旅游景区内,北京市,北京市,怀柔区,116.5634643,40.43383206
公共厕所,公共设施,公共厕所,公共厕所,范崎路东50米,北京市,北京市,怀柔区,116.5788329,40.43796844
公共厕所,公共设施,公共厕所,公共厕所,范崎路与004县道交叉口西北150米,北京市,北京市,怀柔区,116.5805431,40.43446974
公共厕所,公共设施,公共厕所,公共厕所,神堂峪道东50米,北京市,北京市,怀柔区,116.621362,40.43694223
公共厕所,公共设施,公共厕所,公共厕所,神堂峪道东50米,北京市,北京市,怀柔区,116.6214478,40.43672222
公共厕所,公共设施,公共厕所,公共厕所,青龙峡路口西北200米,北京市,北京市,怀柔区,116.6680061,40.4378755
公共厕所,公共设施,公共厕所,公共厕所,,北京市,北京市,怀柔区,116.6878658,40.4351807
公共厕所,公共设施,公共厕所,公共厕所,密西路西200米,北京市,北京市,密云区,116.729541,40.43528485
公共厕所,公共设施,公共厕所,公共厕所,庄上路南50米,北京市,北京市,密云区,117.016439,40.44068385
公共厕所,公共设施,公共厕所,公共厕所,查子沟村大街77号附近,北京市,北京市,密云区,117.051654,40.4309834
苍术会新升公共厕所,公共设施,公共厕所,公共厕所,后太公路与沙太路交叉口东南150米,北京市,北京市,密云区,117.174913,40.43190383
公共厕所,公共设施,公共厕所,公共厕所,小大路与西大路交叉口东150米,北京市,北京市,延庆区,115.8959599,40.42394867
公共厕所,公共设施,公共厕所,公共厕所,南营村中街一巷南50米,北京市,北京市,延庆区,115.8907275,40.42462492
公共厕所,公共设施,公共厕所,公共厕所,开发区路南150米,北京市,北京市,延庆区,115.9801719,40.42281216
公共厕所,公共设施,公共厕所,公共厕所,京银路北100米,北京市,北京市,延庆区,116.0382735,40.43098096
公共厕所,公共设施,公共厕所,公共厕所,京银路附近,北京市,北京市,延庆区,116.0500695,40.4243513
公共厕所,公共设施,公共厕所,公共厕所,352乡道南50米,北京市,北京市,怀柔区,116.3216615,40.42476889
公共厕所,公共设施,公共厕所,公共厕所,安四路西50米,北京市,北京市,怀柔区,116.3280983,40.42689371
公共厕所,公共设施,公共厕所,公共厕所,安四路西50米,北京市,北京市,怀柔区,116.3284275,40.42703503
公共厕所,公共设施,公共厕所,公共厕所,安四路东50米,北京市,北京市,怀柔区,116.3413119,40.42444315
公共厕所,公共设施,公共厕所,公共厕所,辛桃路东50米,北京市,北京市,怀柔区,116.5339223,40.42775923
公共厕所,公共设施,公共厕所,公共厕所,,北京市,北京市,怀柔区,116.5434161,40.42809603
公共厕所,公共设施,公共厕所,公共厕所,渤海镇慕田峪聚友农家院东北50米,北京市,北京市,怀柔区,116.5446348,40.43078345
慕田峪长城-公共厕所,公共设施,公共厕所,公共厕所,慕田峪路东50米,北京市,北京市,怀柔区,116.5562571,40.4283751
慕田峪长城-公共厕所,公共设施,公共厕所,公共厕所,慕田峪路附近,北京市,北京市,怀柔区,116.5576343,40.43104015
慕田峪长城-公共厕所,公共设施,公共厕所,公共厕所,渤海镇慕田峪长城内,北京市,北京市,怀柔区,116.5579248,40.43115754
慕田峪长城-公共厕所,公共设施,公共厕所,公共厕所,渤海镇慕田峪长城内,北京市,北京市,怀柔区,116.5662545,40.43010885
公共厕所,公共设施,公共厕所,公共厕所,官地村附近,北京市,北京市,怀柔区,116.6286757,40.4279994
公共厕所,公共设施,公共厕所,公共厕所,神堂峪道北100米,北京市,北京市,怀柔区,116.6289719,40.4287377
公共厕所,公共设施,公共厕所,公共厕所,京加路西50米,北京市,北京市,怀柔区,116.6687907,40.43114066
公共厕所,公共设施,公共厕所,公共厕所,环镇路西50米,北京市,北京市,怀柔区,116.6985879,40.42465027
公共厕所,公共设施,公共厕所,公共厕所,西田各庄镇卸甲山村卸甲山村委会附近,北京市,北京市,密云区,116.7583408,40.42960451
公共厕所,公共设施,公共厕所,公共厕所,东太路与701乡道交叉口西150米,北京市,北京市,密云区,116.8138707,40.4252137
公共厕所,公共设施,公共厕所,公共厕所,沙石路密云区穆家峪镇水漳村委会,北京市,北京市,密云区,116.892719,40.42471504
公共厕所,公共设施,公共厕所,公共厕所,穆石路与西穆家峪五街交叉口西50米,北京市,北京市,密云区,116.9328547,40.42515494
公共厕所,公共设施,公共厕所,公共厕所,墙子路南街附近,北京市,北京市,密云区,117.2146506,40.42295614
公共厕所,公共设施,公共厕所,公共厕所,,北京市,北京市,密云区,117.2208617,40.42579671
公共厕所,公共设施,公共厕所,公共厕所,大榆树镇农业机械研究所西南450米,北京市,北京市,延庆区,115.9668554,40.42006548
公共厕所,公共设施,公共厕所,公共厕所,海川路东150米,北京市,北京市,延庆区,115.9774772,40.420521
公共厕所,公共设施,公共厕所,公共厕所,,北京市,北京市,延庆区,115.9830054,40.41385906
公共厕所,公共设施,公共厕所,公共厕所,爱迪生路与诺贝尔路交叉口西南200米思贤楼附近,北京市,北京市,延庆区,116.015934,40.41383424
公共厕所,公共设施,公共厕所,公共厕所,暖马路西50米,北京市,北京市,延庆区,116.2244229,40.41319407
黄花城水长城-公共厕所,公共设施,公共厕所,公共厕所,九渡河镇境内,北京市,北京市,怀柔区,116.2823725,40.41470951
黄花城水长城-公共厕所,公共设施,公共厕所,公共厕所,九渡河镇境内,北京市,北京市,怀柔区,116.2945438,40.41325679
黄花城水长城-公共厕所,公共设施,公共厕所,公共厕所,九渡河镇境内,北京市,北京市,怀柔区,116.295115,40.41138555
黄花城水长城-公共厕所,公共设施,公共厕所,公共厕所,九渡河镇境内,北京市,北京市,怀柔区,116.2893165,40.41253633
黄花城水长城-公共厕所,公共设施,公共厕所,公共厕所,九渡河镇境内,北京市,北京市,怀柔区,116.2985292,40.41156074
黄花城水长城-公共厕所,公共设施,公共厕所,公共厕所,九渡河镇境内,北京市,北京市,怀柔区,116.3058738,40.4118886
公共厕所,公共设施,公共厕所,公共厕所,安四路与黄西路交叉口东北50米,北京市,北京市,怀柔区,116.3414294,40.41131488
公共厕所,公共设施,公共厕所,公共厕所,008县道东50米,北京市,北京市,怀柔区,116.4436926,40.42034898
公共厕所,公共设施,公共厕所,公共厕所,怀黄公路北50米,北京市,北京市,怀柔区,116.4667732,40.41136827
公共厕所,公共设施,公共厕所,公共厕所,怀黄公路北50米,北京市,北京市,怀柔区,116.4903793,40.41212074
公共厕所,公共设施,公共厕所,公共厕所,怀黄公路南50米,北京市,北京市,怀柔区,116.5062836,40.41257777
公共厕所,公共设施,公共厕所,公共厕所,怀黄公路北50米,北京市,北京市,怀柔区,116.5115157,40.4136535
慕田峪长城-公共厕所,公共设施,公共厕所,公共厕所,怀黄公路与辛桃路交叉口东南150米,北京市,北京市,怀柔区,116.5374197,40.41620568
慕田峪长城-公共厕所,公共设施,公共厕所,公共厕所,渤海镇慕田峪长城内,北京市,北京市,怀柔区,116.5382009,40.41594153
公共厕所,公共设施,公共厕所,公共厕所,怀黄公路与辛桃路交叉口东北200米,北京市,北京市,怀柔区,116.5374626,40.41832299
慕田峪长城-公共厕所,公共设施,公共厕所,公共厕所,辛桃路东100米,北京市,北京市,怀柔区,116.538671,40.41735704
公共厕所,公共设施,公共厕所,公共厕所,渤海镇慕田峪路北京怀柔竹溪度假村西,北京市,北京市,怀柔区,116.5371264,40.41995262
公共厕所,公共设施,公共厕所,公共厕所,辛桃路西50米,北京市,北京市,怀柔区,116.5368015,40.41995188
慕田峪长城-公共厕所,公共设施,公共厕所,公共厕所,渤海镇慕田峪长城内,北京市,北京市,怀柔区,116.5414032,40.41817164
慕田峪长城-公共厕所,公共设施,公共厕所,公共厕所,渤海镇慕田峪长城内,北京市,北京市,怀柔区,116.5393619,40.41690273
公共厕所,公共设施,公共厕所,公共厕所,怀黄公路西50米,北京市,北京市,怀柔区,116.5415532,40.41297489
公共厕所,公共设施,公共厕所,公共厕所,慕田峪路附近,北京市,北京市,怀柔区,116.543416,40.42092578
公共厕所,公共设施,公共厕所,公共厕所,神堂峪道与神石路交叉口北50米,北京市,北京市,怀柔区,116.6352851,40.41826337
公共厕所,公共设施,公共厕所,公共厕所,范崎路东50米,北京市,北京市,怀柔区,116.6407606,40.41135508
公共厕所,公共设施,公共厕所,公共厕所,北神路南50米,北京市,北京市,怀柔区,116.6921673,40.41326181
公共厕所,公共设施,公共厕所,公共厕所,龙各庄188龙各庄村村民委员会附近,北京市,北京市,怀柔区,116.6914882,40.41254621
公共厕所,公共设施,公共厕所,公共厕所,后达路附近,北京市,北京市,密云区,116.8709603,40.41827619
公共厕所,公共设施,公共厕所,公共厕所,密兴路北50米,北京市,北京市,密云区,117.1417606,40.41137246
野鸭湖国家湿地公园-公共厕所,公共设施,公共厕所,公共厕所,康野路野鸭湖国家湿地公园(暂停营业)附近,北京市,北京市,延庆区,115.8524149,40.40792583
公共厕所,公共设施,公共厕所,公共厕所,,北京市,北京市,延庆区,115.9703248,40.40209942
公共厕所,公共设施,公共厕所,公共厕所,,北京市,北京市,延庆区,116.2716087,40.40400923
黄花城水长城-公共厕所,公共设施,公共厕所,公共厕所,九渡河镇西水峪黄花城水长城,北京市,北京市,怀柔区,116.3070261,40.40605162
黄花城水长城-公共厕所,公共设施,公共厕所,公共厕所,353乡道西100米,北京市,北京市,怀柔区,116.3074801,40.40625271
黄花城水长城-公共厕所,公共设施,公共厕所,公共厕所,353乡道北50米,北京市,北京市,怀柔区,116.3081007,40.40606863
黄花城水长城-公共厕所,公共设施,公共厕所,公共厕所,九渡河镇境内,北京市,北京市,怀柔区,116.3071692,40.41061969
黄花城水长城-公共厕所,公共设施,公共厕所,公共厕所,,北京市,北京市,怀柔区,116.3074905,40.41073406
石湖峪村公共厕所1,公共设施,公共厕所,公共厕所,353乡道南100米,北京市,北京市,怀柔区,116.3169506,40.40740744
黄花城长城-公共厕所,公共设施,公共厕所,公共厕所,,北京市,北京市,怀柔区,116.3091529,40.41009321
公共厕所,公共设施,公共厕所,公共厕所,黄东路北50米,北京市,北京市,怀柔区,116.3377561,40.40601343
公共厕所,公共设施,公共厕所,公共厕所,353乡道北50米,北京市,北京市,怀柔区,116.3303393,40.41021973
公共厕所,公共设施,公共厕所,公共厕所,安四路九渡河镇黄花城小学东南200米,北京市,北京市,怀柔区,116.3410974,40.40135608
公共厕所,公共设施,公共厕所,公共厕所,东宫路与安四路交叉口南50米,北京市,北京市,怀柔区,116.3492455,40.4012332
公共厕所,公共设施,公共厕所,公共厕所,怀黄公路西50米,北京市,北京市,怀柔区,116.4140169,40.40804618
公共厕所,公共设施,公共厕所,公共厕所,怀黄公路南50米,北京市,北京市,怀柔区,116.4122599,40.40951632
公共厕所,公共设施,公共厕所,公共厕所,怀黄公路南50米,北京市,北京市,怀柔区,116.545717,40.41027737
公共厕所,公共设施,公共厕所,公共厕所,怀黄公路西50米,北京市,北京市,怀柔区,116.5496988,40.40442401
公共厕所,公共设施,公共厕所,公共厕所,怀黄公路东50米,北京市,北京市,怀柔区,116.5508596,40.40268271
公共厕所,公共设施,公共厕所,公共厕所,范崎路北50米,北京市,北京市,怀柔区,116.6097571,40.41122132
公共厕所,公共设施,公共厕所,公共厕所,范崎路南50米,北京市,北京市,怀柔区,116.6373722,40.40945534
公共厕所,公共设施,公共厕所,公共厕所,雁水路3号雁栖湖内,北京市,北京市,怀柔区,116.6536966,40.40832813
公共厕所,公共设施,公共厕所,公共厕所,怀北怀柔北站附近,北京市,北京市,怀柔区,116.6865088,40.40853024
公共厕所,公共设施,公共厕所,公共厕所,北神路南50米,北京市,北京市,怀柔区,116.7087981,40.40962271
公共厕所,公共设施,公共厕所,公共厕所,北神路北50米,北京市,北京市,怀柔区,116.7113828,40.41019936
公共厕所,公共设施,公共厕所,公共厕所,,北京市,北京市,密云区,116.8211936,40.40150712
公共厕所,公共设施,公共厕所,公共厕所,密关路东50米,北京市,北京市,密云区,116.8430675,40.40269441
公共厕所,公共设施,公共厕所,公共厕所,京密路穆家峪镇中心小学东南250米,北京市,北京市,密云区,116.9503611,40.40638717
公共厕所,公共设施,公共厕所,公共厕所,京密路与密古路交叉口西100米,北京市,北京市,密云区,116.9607593,40.40627661
公共厕所,公共设施,公共厕所,公共厕所,京密路与密古路交叉口西150米,北京市,北京市,密云区,116.9602085,40.40644398
公共厕所,公共设施,公共厕所,公共厕所,达水路东50米,北京市,北京市,密云区,117.0191514,40.41017801
康西草原-公共厕所,公共设施,公共厕所,公共厕所,卡丁车游乐场附近,北京市,北京市,延庆区,115.8455784,40.39189766
康西草原-公共厕所,公共设施,公共厕所,公共厕所,康庄西康西草原,北京市,北京市,延庆区,115.8453558,40.39174534
康西草原-公共厕所,公共设施,公共厕所,公共厕所,017县道附近,北京市,北京市,延庆区,115.8499889,40.39180579
公共厕所,公共设施,公共厕所,公共厕所,西新路附近,北京市,北京市,延庆区,115.9711295,40.3922226
公共厕所,公共设施,公共厕所,公共厕所,小张家口村附近,北京市,北京市,延庆区,116.0235981,40.39817067
公共厕所,公共设施,公共厕所,公共厕所,昌赤路西50米,北京市,北京市,延庆区,116.256106,40.39344171
公共厕所,公共设施,公共厕所,公共厕所,安四路西50米,北京市,北京市,怀柔区,116.3528109,40.39910428
公共厕所,公共设施,公共厕所,公共厕所,东宫村附近,北京市,北京市,怀柔区,116.352662,40.40048902
公共厕所,公共设施,公共厕所,公共厕所,东宫路与安四路交叉口东南150米,北京市,北京市,怀柔区,116.3498914,40.4005374
公共厕所,公共设施,公共厕所,公共厕所,怀黄公路东50米,北京市,北京市,怀柔区,116.5534594,40.39868759
公共厕所,公共设施,公共厕所,公共厕所,怀黄公路西50米,北京市,北京市,怀柔区,116.5569677,40.39364295
公共厕所,公共设施,公共厕所,公共厕所,,北京市,北京市,怀柔区,116.5790334,40.39441484
雁栖湖-公共厕所,公共设施,公共厕所,公共厕所,雁水路3号雁栖湖,北京市,北京市,怀柔区,116.6788046,40.39616365
雁栖湖-公共厕所,公共设施,公共厕所,公共厕所,京加路西150米,北京市,北京市,怀柔区,116.6766162,40.4002383
雁栖湖-公共厕所,公共设施,公共厕所,公共厕所,雁水路3号雁栖湖,北京市,北京市,怀柔区,116.6740515,40.40079695
雁栖湖-公共厕所,公共设施,公共厕所,公共厕所,雁水路3号雁栖湖游乐园内,北京市,北京市,怀柔区,116.6772933,40.40070087
观山邸酒店-洗手间,公共设施,公共厕所,公共厕所,雁栖湖雁水路6号,北京市,北京市,怀柔区,116.676971,40.39415577
雁栖湖-公共厕所,公共设施,公共厕所,公共厕所,雁栖湖路1号附近,北京市,北京市,怀柔区,116.6809167,40.39606677
公共厕所,公共设施,公共厕所,公共厕所,龙德行路南150米,北京市,北京市,怀柔区,116.6954366,40.3934496
公共厕所,公共设施,公共厕所,公共厕所,怀北镇东庄村附近,北京市,北京市,怀柔区,116.696586,40.39163341
通盈・雁栖湖高尔夫俱乐部-洗手间,公共设施,公共厕所,公共厕所,怀北镇西庄村甲2号雁栖湖,北京市,北京市,怀柔区,116.6955783,40.40045691
公共厕所,公共设施,公共厕所,公共厕所,702乡道南50米,北京市,北京市,密云区,116.7603011,40.40030452
公共厕所,公共设施,公共厕所,公共厕所,双兴西街与永和西街北一巷交叉口西北150米,北京市,北京市,密云区,116.8269747,40.40073919
公共厕所,公共设施,公共厕所,公共厕所,新西路与白云街交叉口西南50米,北京市,北京市,密云区,116.8297347,40.39466145
公共厕所,公共设施,公共厕所,公共厕所,站西路西100米,北京市,北京市,密云区,116.8486332,40.3967457
公共厕所,公共设施,公共厕所,公共厕所,站东路东150米,北京市,北京市,密云区,116.8555803,40.39554968
公共厕所,公共设施,公共厕所,公共厕所,站西路与车站路交叉口西北200米,北京市,北京市,密云区,116.8517299,40.39645864
公共厕所,公共设施,公共厕所,公共厕所,站西路西100米,北京市,北京市,密云区,116.8496588,40.39633947
公共厕所,公共设施,公共厕所,公共厕所,密云镇新东路与车站路交叉口北100米,北京市,北京市,密云区,116.8508282,40.39133003
公共厕所,公共设施,公共厕所,公共厕所,檀营街与站东路交叉口东南100米,北京市,北京市,密云区,116.8628844,40.39256651
北京冶仙塔旅游风景区-公共厕所,公共设施,公共厕所,公共厕所,,北京市,北京市,密云区,116.8604389,40.3991431
北京冶仙塔旅游风景区-公共厕所,公共设施,公共厕所,公共厕所,密沙路北京冶仙塔旅游风景区净水观音,北京市,北京市,密云区,116.8678161,40.40005062
公共厕所,公共设施,公共厕所,公共厕所,京密路北150米,北京市,北京市,密云区,116.9098463,40.40011174
密云服务区公共厕所,公共设施,公共厕所,公共厕所,,北京市,北京市,密云区,116.9294723,40.39718159
公共厕所,公共设施,公共厕所,公共厕所,水辛路与辛沙路交叉口南200米,北京市,北京市,密云区,116.9693305,40.40023152
公共厕所,公共设施,公共厕所,公共厕所,水辛路与辛沙路交叉口东南200米,北京市,北京市,密云区,116.9696391,40.40061152
公共厕所,公共设施,公共厕所,公共厕所,达峪大街西50米,北京市,北京市,密云区,117.0466046,40.39936564
公共厕所,公共设施,公共厕所,公共厕所,屯军营村东街与康货路交叉口北50米,北京市,北京市,延庆区,115.8762709,40.38990824
公共厕所,公共设施,公共厕所,公共厕所,康张路与延康路交叉口东50米,北京市,北京市,延庆区,115.9015283,40.38787689
公共厕所,公共设施,公共厕所,公共厕所,西新路西50米,北京市,北京市,延庆区,115.9702091,40.3872669
公共厕所,公共设施,公共厕所,公共厕所,渤三路南50米,北京市,北京市,怀柔区,116.5267197,40.38299667
公共厕所,公共设施,公共厕所,公共厕所,渤三路东100米,北京市,北京市,怀柔区,116.5311656,40.38269787
公共厕所,公共设施,公共厕所,公共厕所,渤三路北150米,北京市,北京市,怀柔区,116.5387647,40.38175083
公共厕所,公共设施,公共厕所,公共厕所,怀黄公路东50米,北京市,北京市,怀柔区,116.5564974,40.3896646
公共厕所,公共设施,公共厕所,公共厕所,怀黄公路西50米,北京市,北京市,怀柔区,116.5561908,40.38975609
公共厕所,公共设施,公共厕所,公共厕所,怀黄公路西50米,北京市,北京市,怀柔区,116.5493048,40.38173514
红螺寺-公共厕所,公共设施,公共厕所,公共厕所,卢庄村北红螺东路2号红螺寺内,北京市,北京市,怀柔区,116.6222612,40.38173337
北京・宽沟雁栖山庄-洗手间,公共设施,公共厕所,公共厕所,雁栖湖桃花园小区雁青路21号,北京市,北京市,怀柔区,116.658887,40.38440871
大雁楼宾馆-洗手间,公共设施,公共厕所,公共厕所,雁栖镇雁青路15号大雁楼宾馆,北京市,北京市,怀柔区,116.6555862,40.38545262
雁栖湖-公共厕所,公共设施,公共厕所,公共厕所,雁水路3号雁栖湖内,北京市,北京市,怀柔区,116.6732764,40.38709619
公共厕所,公共设施,公共厕所,公共厕所,北台上路与雁栖湖南路交叉口东南200米,北京市,北京市,怀柔区,116.6740436,40.38394279
公共厕所,公共设施,公共厕所,公共厕所,怀北镇,北京市,北京市,怀柔区,116.6830878,40.38745378
公共厕所,公共设施,公共厕所,公共厕所,环镇路南150米,北京市,北京市,怀柔区,116.6875776,40.38746779
公共厕所,公共设施,公共厕所,公共厕所,京加路附近,北京市,北京市,怀柔区,116.6856007,40.3894236
公共厕所,公共设施,公共厕所,公共厕所,环镇路南50米,北京市,北京市,怀柔区,116.6947048,40.39071771
公共厕所,公共设施,公共厕所,公共厕所,西环路路口西南200米,北京市,北京市,密云区,116.8169774,40.38671738
公共厕所,公共设施,公共厕所,公共厕所,京沈路与新北路交叉口西南200米,北京市,北京市,密云区,116.8173451,40.38697198
公共厕所,公共设施,公共厕所,公共厕所,新北路37号附近,北京市,北京市,密云区,116.8247251,40.38800642
公共厕所,公共设施,公共厕所,公共厕所,新北路与果园西路交叉口东南100米,北京市,北京市,密云区,116.8207525,40.38760513
公共厕所,公共设施,公共厕所,公共厕所,京沈路与开元西街交叉口南50米,北京市,北京市,密云区,116.8193696,40.38955088
公共厕所,公共设施,公共厕所,公共厕所,新北路46号附近,北京市,北京市,密云区,116.8361514,40.38739864
滨河公园-公共厕所,公共设施,公共厕所,公共厕所,城后街20号附近,北京市,北京市,密云区,116.8350822,40.38160766
滨河公园-公共厕所,公共设施,公共厕所,公共厕所,新北路29号附近,北京市,北京市,密云区,116.8380635,40.38214182
公共厕所,公共设施,公共厕所,公共厕所,鑫溪凯旋加油站(密云区水电技术管理服务站西南)附近,北京市,北京市,密云区,116.8436867,40.3861732
公共厕所,公共设施,公共厕所,公共厕所,滨河路东100米,北京市,北京市,密云区,116.8436016,40.38578019
公共厕所,公共设施,公共厕所,公共厕所,滨河路东50米,北京市,北京市,密云区,116.8431057,40.38574936
公共厕所,公共设施,公共厕所,公共厕所,新中街2号附近,北京市,北京市,密云区,116.8488818,40.38721338
公共厕所,公共设施,公共厕所,公共厕所,滨河公园(西门)附近,北京市,北京市,密云区,116.8419011,40.38272232
公共厕所,公共设施,公共厕所,公共厕所,新东路54号附近,北京市,北京市,密云区,116.8520756,40.38636564
公共厕所,公共设施,公共厕所,公共厕所,新东路与新北路交叉口西北50米,北京市,北京市,密云区,116.8516308,40.38770851
公共厕所,公共设施,公共厕所,公共厕所,行宫街50号附近,北京市,北京市,密云区,116.8566843,40.38363233
法制公园-公共厕所,公共设施,公共厕所,公共厕所,檀西路法制公园西北(宾阳北里东),北京市,北京市,密云区,116.8568965,40.38379357
公共厕所,公共设施,公共厕所,公共厕所,新东路与车站路交叉口东南200米,北京市,北京市,密云区,116.8517788,40.38969206
公共厕所,公共设施,公共厕所,公共厕所,城后街与新东路交叉口西150米,北京市,北京市,密云区,116.851339,40.38270874
公共厕所,公共设施,公共厕所,公共厕所,旧密古路与檀营街交叉口西50米,北京市,北京市,密云区,116.863197,40.38235236
公共厕所,公共设施,公共厕所,公共厕所,行宫街46号附近,北京市,北京市,密云区,116.8594906,40.38451088
公共厕所,公共设施,公共厕所,公共厕所,刘林池村附近,北京市,北京市,密云区,116.8684269,40.38242933
公共厕所,公共设施,公共厕所,公共厕所,一九七八新农村,北京市,北京市,密云区,116.8791197,40.384499
公共厕所,公共设施,公共厕所,公共厕所,檀支一路与檀营北街交叉口东北50米,北京市,北京市,密云区,116.8708738,40.39017621
公共厕所,公共设施,公共厕所,公共厕所,京密路与密兴路交叉口西100米,北京市,北京市,密云区,116.8841457,40.38437896
公共厕所,公共设施,公共厕所,公共厕所,城关街道与永泰路交叉口东150米,北京市,北京市,密云区,116.8820062,40.3859753
公共厕所,公共设施,公共厕所,公共厕所,穆家峪,北京市,北京市,密云区,116.8797843,40.38168239
公共厕所,公共设施,公共厕所,公共厕所,,北京市,北京市,密云区,116.9094912,40.38129343
公共厕所,公共设施,公共厕所,公共厕所,沙厂大街南50米,北京市,北京市,密云区,117.0234467,40.38512807
公共厕所,公共设施,公共厕所,公共厕所,沙厂大街北50米,北京市,北京市,密云区,117.0263948,40.38455444
公共厕所,公共设施,公共厕所,公共厕所,平程路西50米,北京市,北京市,密云区,117.1426205,40.38567396
公共厕所,公共设施,公共厕所,公共厕所,康庄镇小王庄村村委会附近,北京市,北京市,延庆区,115.8748848,40.37405038
公共厕所,公共设施,公共厕所,公共厕所,康西路10,北京市,北京市,延庆区,115.8867431,40.37519824
公共厕所,公共设施,公共厕所,公共厕所,小北街与汇通路交叉口西50米,北京市,北京市,延庆区,115.8964109,40.37749213
公共厕所,公共设施,公共厕所,公共厕所,站北街南50米,北京市,北京市,延庆区,115.891729,40.37888538
公共厕所,公共设施,公共厕所,公共厕所,晨光北街与汇通路交叉口西150米,北京市,北京市,延庆区,115.8988259,40.37774082
公共厕所,公共设施,公共厕所,公共厕所,海川路西100米,北京市,北京市,延庆区,115.9473581,40.37828788
公共厕所,公共设施,公共厕所,公共厕所,海川路东100米,北京市,北京市,延庆区,115.9490371,40.37834512
公共厕所,公共设施,公共厕所,公共厕所,红庙路东50米,北京市,北京市,怀柔区,116.3530535,40.37570984
公共厕所,公共设施,公共厕所,公共厕所,红庙路东50米,北京市,北京市,怀柔区,116.353426,40.37414278
公共厕所,公共设施,公共厕所,公共厕所,吉寺路北50米,北京市,北京市,怀柔区,116.4292722,40.37581751
栗花沟-公共厕所,公共设施,公共厕所,公共厕所,怀黄公路西50米,北京市,北京市,怀柔区,116.5485676,40.37766612
公共厕所,公共设施,公共厕所,公共厕所,渤三路西50米,北京市,北京市,怀柔区,116.539493,40.3794292
公共厕所,公共设施,公共厕所,公共厕所,西甘路西50米,北京市,北京市,怀柔区,116.5806762,40.37757638
公共厕所,公共设施,公共厕所,公共厕所,红螺路东100米,北京市,北京市,怀柔区,116.6150515,40.37271008
红螺寺-公共厕所,公共设施,公共厕所,公共厕所,红螺路附近,北京市,北京市,怀柔区,116.6186566,40.37388204
红螺寺-公共厕所,公共设施,公共厕所,公共厕所,卢庄村北红螺东路2号红螺寺内,北京市,北京市,怀柔区,116.6250296,40.37569493
红螺寺-公共厕所,公共设施,公共厕所,公共厕所,卢庄村北红螺东路2号红螺寺内,北京市,北京市,怀柔区,116.6221969,40.37652317
红螺寺-公共厕所,公共设施,公共厕所,公共厕所,卢庄村北红螺东路2号红螺寺内,北京市,北京市,怀柔区,116.6213866,40.37540949
红螺寺-公共厕所,公共设施,公共厕所,公共厕所,卢庄村北红螺东路2号红螺寺内,北京市,北京市,怀柔区,116.6213101,40.38065785
红螺寺-公共厕所,公共设施,公共厕所,公共厕所,卢庄村北红螺东路2号红螺寺内,北京市,北京市,怀柔区,116.6199056,40.3722342
公共厕所,公共设施,公共厕所,公共厕所,京加路附近,北京市,北京市,怀柔区,116.6781668,40.37690935
公共厕所,公共设施,公共厕所,公共厕所,北台上路西100米,北京市,北京市,怀柔区,116.6726192,40.37970591
公共厕所,公共设施,公共厕所,公共厕所,雁栖工业开发区,北京市,北京市,怀柔区,116.6811496,40.37604311
公共厕所,公共设施,公共厕所,公共厕所,东新路西100米,北京市,北京市,怀柔区,116.6959181,40.38003038
公共厕所,公共设施,公共厕所,公共厕所,东新路东50米,北京市,北京市,怀柔区,116.7000741,40.38020793
公共厕所,公共设施,公共厕所,公共厕所,西统路西100米,北京市,北京市,密云区,116.7475493,40.37517553
公共厕所,公共设施,公共厕所,公共厕所,于家台村附近,北京市,北京市,密云区,116.7715098,40.3799313
公共厕所,公共设施,公共厕所,公共厕所,新北路东50米,北京市,北京市,密云区,116.8050291,40.37218744
公共厕所,公共设施,公共厕所,公共厕所,果园北街北150米,北京市,北京市,密云区,116.817561,40.37496736
公共厕所,公共设施,公共厕所,公共厕所,万利花园东北(西门外大街北),北京市,北京市,密云区,116.8171949,40.37855751
公共厕所,公共设施,公共厕所,公共厕所,西门外大街7-15号附近,北京市,北京市,密云区,116.8259148,40.3764095
密虹公园-公共厕所,公共设施,公共厕所,公共厕所,西滨河路密云县科学技术委员会附近,北京市,北京市,密云区,116.8288126,40.3742356
公共厕所,公共设施,公共厕所,公共厕所,果园北街与果园西路交叉口东150米,北京市,北京市,密云区,116.8215909,40.37390523
公共厕所,公共设施,公共厕所,公共厕所,果园路西50米,北京市,北京市,密云区,116.8242242,40.37149094
公共厕所,公共设施,公共厕所,公共厕所,果园路6号附近,北京市,北京市,密云区,116.8248444,40.37135414
公共厕所,公共设施,公共厕所,公共厕所,新西路附近,北京市,北京市,密云区,116.8278138,40.38090056
公共厕所,公共设施,公共厕所,公共厕所,康复西巷6号附近,北京市,北京市,密云区,116.8365054,40.37735162
密虹公园-公共厕所,公共设施,公共厕所,公共厕所,康居路与西门外大街交叉口西南150米,北京市,北京市,密云区,116.8304455,40.37536225
公共厕所,公共设施,公共厕所,公共厕所,于家胡同与锥塔胡同交叉口东南50米,北京市,北京市,密云区,116.8386422,40.37664165
公共厕所,公共设施,公共厕所,公共厕所,长安村附近,北京市,北京市,密云区,116.838907,40.37430088
洗手间,公共设施,公共厕所,公共厕所,鼓楼南大街3号燕赛奥特莱斯购物中心F5,北京市,北京市,密云区,116.8389281,40.37351417
公共厕所,公共设施,公共厕所,公共厕所,西鱼市口胡同与长安街交叉口南50米,北京市,北京市,密云区,116.8384274,40.37249361
卫生间(燕赛奥特莱斯购物中心),公共设施,公共厕所,公共厕所,鼓楼南大街3号燕赛奥特莱斯购物中心F5层,北京市,北京市,密云区,116.8389522,40.37343724
公共厕所(密云图书馆),公共设施,公共厕所,公共厕所,西鼓楼东大街31号密云图书馆F3层,北京市,北京市,密云区,116.8419931,40.37599769
公共厕所(密云图书馆),公共设施,公共厕所,公共厕所,西鼓楼东大街31号密云图书馆F2层,北京市,北京市,密云区,116.8419911,40.37600169
公共厕所(密云图书馆),公共设施,公共厕所,公共厕所,西鼓楼东大街31号密云图书馆F1层,北京市,北京市,密云区,116.8419641,40.37599564
公共厕所,公共设施,公共厕所,公共厕所,新中街39号附近,北京市,北京市,密云区,116.8439821,40.37830832
公共厕所,公共设施,公共厕所,公共厕所,通城胡同与鼓楼东大街交叉口西南50米,北京市,北京市,密云区,116.8414123,40.37462514
公共厕所,公共设施,公共厕所,公共厕所,东鱼市胡同与马道胡同交叉口东南50米,北京市,北京市,密云区,116.8436182,40.37285448
大剧院活动公共厕所,公共设施,公共厕所,公共厕所,鼓楼北大街12号附近,北京市,北京市,密云区,116.8398023,40.37604288
公共厕所,公共设施,公共厕所,公共厕所,东源路与新中街交叉口西北50米,北京市,北京市,密云区,116.8450867,40.38006859
公共厕所,公共设施,公共厕所,公共厕所,卫生职工教育学校东门,北京市,北京市,密云区,116.8399533,40.37836139
公共厕所,公共设施,公共厕所,公共厕所,鼓楼北大街3号附近,北京市,北京市,密云区,116.8397139,40.37805707
公共厕所,公共设施,公共厕所,公共厕所,鼓楼南大街16号国泰百货F1,北京市,北京市,密云区,116.839883,40.37214029
肯德基(密云南大街餐厅)-洗手间,公共设施,公共厕所,公共厕所,鼓楼南大街5号,北京市,北京市,密云区,116.8395622,40.37391815
麦当劳(鼓楼南大街店)-洗手间,公共设施,公共厕所,公共厕所,鼓楼南大街3号燕赛奥特莱斯购物中心,北京市,北京市,密云区,116.8393208,40.37358684
公共厕所,公共设施,公共厕所,公共厕所,东门大街与新东路交叉口西南50米,北京市,北京市,密云区,116.8525876,40.37667764
公共厕所,公共设施,公共厕所,公共厕所,东门大街177号附近,北京市,北京市,密云区,116.8519517,40.37695258
公共厕所,公共设施,公共厕所,公共厕所,东门大街与育才路交叉口东南50米,北京市,北京市,密云区,116.8499939,40.37612282
公共厕所,公共设施,公共厕所,公共厕所,密云镇新南路53号,北京市,北京市,密云区,116.851727,40.3715
公共厕所,公共设施,公共厕所,公共厕所,东源路与育才路交叉口南100米,北京市,北京市,密云区,116.8492794,40.37931565
公共厕所,公共设施,公共厕所,公共厕所,京密路与檀营街交叉口南100米,北京市,北京市,密云区,116.8648545,40.37562557
公共厕所,公共设施,公共厕所,公共厕所,京密路宾阳大厦旁(密云区医院西100米),北京市,北京市,密云区,116.862368,40.37511171
公共厕所,公共设施,公共厕所,公共厕所,行宫南区26号楼附近,北京市,北京市,密云区,116.8630523,40.37863841
公共厕所,公共设施,公共厕所,公共厕所,阳光街385号院-10,北京市,北京市,密云区,116.8623284,40.37178674
公共厕所,公共设施,公共厕所,公共厕所,旧密古路与檀西路交叉口北150米,北京市,北京市,密云区,116.860256,40.38076515
公共厕所,公共设施,公共厕所,公共厕所,京密路北150米,北京市,北京市,密云区,116.8707089,40.38001147
公共厕所,公共设施,公共厕所,公共厕所,鑫新通达客运有限公司,北京市,北京市,密云区,116.8841992,40.3801444
北京张裕爱斐堡国际酒庄-公共厕所,公共设施,公共厕所,公共厕所,俄林小径与张弼士道交叉口东北50米,北京市,北京市,密云区,116.8945442,40.37696317
北京张裕爱斐堡国际酒庄-公共厕所,公共设施,公共厕所,公共厕所,巨各庄东白岩(近蔡家洼)北京张裕爱斐堡国际酒庄内,北京市,北京市,密云区,116.8941114,40.37708311
北京张裕爱斐堡国际酒庄-公共厕所,公共设施,公共厕所,公共厕所,巨各庄东白岩(近蔡家洼)北京张裕爱斐堡国际酒庄内,北京市,北京市,密云区,116.8941977,40.37437799
爵士公寓-洗手间,公共设施,公共厕所,公共厕所,巴克斯街6号C-36,北京市,北京市,密云区,116.8925657,40.37258242
公共厕所,公共设施,公共厕所,公共厕所,希杜里街与萨图思街交叉口西50米北京张裕爱斐堡国际会议中心,北京市,北京市,密云区,116.891841,40.37247035
北京张裕爱斐堡国际会议中心-洗手间,公共设施,公共厕所,公共厕所,希杜里街与萨巴齐奥斯街交叉口西50米,北京市,北京市,密云区,116.8921779,40.37229246
公共厕所,公共设施,公共厕所,公共厕所,密三路南50米,北京市,北京市,密云区,116.9131581,40.37737013
公共厕所,公共设施,公共厕所,公共厕所,巨隆大街与河东街交叉口西北50米,北京市,北京市,密云区,116.9350267,40.37771918
公共厕所,公共设施,公共厕所,公共厕所,密兴旧路与水辛路交叉口东北200米,北京市,北京市,密云区,116.9497175,40.37469853
公共厕所,公共设施,公共厕所,公共厕所,402乡道东50米,北京市,北京市,密云区,117.1041605,40.37717794
公共厕所,公共设施,公共厕所,公共厕所,平程路东100米,北京市,北京市,密云区,117.1471329,40.38004855
公共厕所,公共设施,公共厕所,公共厕所,榆林堡小北街南200米,北京市,北京市,延庆区,115.8736713,40.37003863
公共厕所,公共设施,公共厕所,公共厕所,晨光南街与西官路交叉口东南100米,北京市,北京市,延庆区,115.9011825,40.36934306
公共厕所,公共设施,公共厕所,公共厕所,外石路与西官路交叉口西100米,北京市,北京市,延庆区,115.9245609,40.3618123
公共厕所,公共设施,公共厕所,公共厕所,营城子桥与G6京藏高速交叉口西南100米,北京市,北京市,延庆区,115.9488515,40.3630994
公共厕所,公共设施,公共厕所,公共厕所,西东路与西新路交叉口西北150米,北京市,北京市,延庆区,115.965035,40.36445964
公共厕所,公共设施,公共厕所,公共厕所,西新路与216省道交叉口西南50米,北京市,北京市,延庆区,115.9653453,40.36220649
公共厕所,公共设施,公共厕所,公共厕所,西新路与216省道交叉口南50米,北京市,北京市,延庆区,115.9656425,40.3621527
公共厕所,公共设施,公共厕所,公共厕所,西新路与216省道交叉口东南100米,北京市,北京市,延庆区,115.9662078,40.36195522
公共厕所,公共设施,公共厕所,公共厕所,216省道附近,北京市,北京市,延庆区,115.9708374,40.36129852
八达岭长城-公共厕所,公共设施,公共厕所,公共厕所,岔西环岛与031县道交叉口西150米,北京市,北京市,延庆区,115.9844909,40.36257903
公共厕所,公共设施,公共厕所,公共厕所,岔西环岛与岔道路交叉口北150米,北京市,北京市,延庆区,115.9859896,40.36351621
公共厕所,公共设施,公共厕所,公共厕所,八达岭福运来客栈附近,北京市,北京市,延庆区,115.9924006,40.36222011
八达岭长城-公共厕所,公共设施,公共厕所,公共厕所,216省道东150米,北京市,北京市,延庆区,115.9926458,40.36175151
北京八达岭国家森林公园-公共厕所,公共设施,公共厕所,公共厕所,,北京市,北京市,延庆区,116.0388123,40.36898672
公共厕所,公共设施,公共厕所,公共厕所,京银路北50米,北京市,北京市,延庆区,116.1056826,40.36402597
碓臼峪自然风景区-公共厕所,公共设施,公共厕所,公共厕所,下大路南50米,北京市,北京市,昌平区,116.2182171,40.36799458
碓臼峪自然风景区-公共厕所,公共设施,公共厕所,公共厕所,下大路,北京市,北京市,昌平区,116.2179286,40.36827323
公共厕所,公共设施,公共厕所,公共厕所,昌赤路东50米,北京市,北京市,昌平区,116.240207,40.36203691
公共厕所,公共设施,公共厕所,公共厕所,怀长路西50米,北京市,北京市,昌平区,116.3065817,40.36246706
公共厕所,公共设施,公共厕所,公共厕所,安四路西50米,北京市,北京市,怀柔区,116.3551545,40.36955963
公共厕所,公共设施,公共厕所,公共厕所,安四路与怀黄路交叉口东南100米,北京市,北京市,怀柔区,116.3617308,40.36573659
公共厕所,公共设施,公共厕所,公共厕所,怀黄公路北50米,北京市,北京市,怀柔区,116.5681942,40.36291848
圣泉寺-公共厕所,公共设施,公共厕所,公共厕所,桥梓镇怀黄路圣泉寺,北京市,北京市,怀柔区,116.5718881,40.36277208
公共厕所,公共设施,公共厕所,公共厕所,南斜街与西甘路交叉口北100米,北京市,北京市,怀柔区,116.588188,40.36632537
公共厕所,公共设施,公共厕所,公共厕所,芦西路与西甘路交叉口西南50米,北京市,北京市,怀柔区,116.5875638,40.36806972
公共厕所,公共设施,公共厕所,公共厕所,南斜街与西甘路交叉口南50米,北京市,北京市,怀柔区,116.5881291,40.36537067
公共厕所,公共设施,公共厕所,公共厕所,怀柔镇,北京市,北京市,怀柔区,116.5885694,40.36316841
公共厕所,公共设施,公共厕所,公共厕所,怀黄公路与西甘路交叉口东150米,北京市,北京市,怀柔区,116.5908431,40.36294167
公共厕所,公共设施,公共厕所,公共厕所,红螺路红螺镇村文化活动室附近,北京市,北京市,怀柔区,116.6146193,40.36372133
公共厕所,公共设施,公共厕所,公共厕所,红螺路东100米,北京市,北京市,怀柔区,116.614302,40.36939384
公共厕所,公共设施,公共厕所,公共厕所,芦西路东200米,北京市,北京市,怀柔区,116.6158147,40.36946338
公共厕所,公共设施,公共厕所,公共厕所,,北京市,北京市,怀柔区,116.6144187,40.3624979
公共厕所,公共设施,公共厕所,公共厕所,,北京市,北京市,怀柔区,116.6166923,40.37015029
红螺园饭店-洗手间,公共设施,公共厕所,公共厕所,红螺寺东路5号,北京市,北京市,怀柔区,116.6234531,40.3644345
公共厕所,公共设施,公共厕所,公共厕所,红螺路东50米,北京市,北京市,怀柔区,116.630827,40.36409971
北京生存岛实践基地-公共厕所,公共设施,公共厕所,公共厕所,红螺东路6号北京生存岛实践基地附近,北京市,北京市,怀柔区,116.6352402,40.36239261
公共厕所,公共设施,公共厕所,公共厕所,范各庄村路西50米,北京市,北京市,怀柔区,116.6576341,40.36386374
公共厕所,公共设施,公共厕所,公共厕所,范各庄村路东50米,北京市,北京市,怀柔区,116.659043,40.36489574
公共厕所,公共设施,公共厕所,公共厕所,京加路西50米,北京市,北京市,怀柔区,116.6578887,40.36153798
公共厕所,公共设施,公共厕所,公共厕所,京加路西50米,北京市,北京市,怀柔区,116.6582128,40.36154336
公共厕所,公共设施,公共厕所,公共厕所,范各庄村路东200米,北京市,北京市,怀柔区,116.6613574,40.36518322
公共厕所,公共设施,公共厕所,公共厕所,范各庄村路东200米,北京市,北京市,怀柔区,116.6616303,40.36760294
公共厕所,公共设施,公共厕所,公共厕所,京加路附近,北京市,北京市,怀柔区,116.6597966,40.3668277
公共厕所,公共设施,公共厕所,公共厕所,美泉商街甲9-902附近,北京市,北京市,怀柔区,116.668617,40.36935094
公共厕所,公共设施,公共厕所,公共厕所,大建路南50米,北京市,北京市,密云区,116.7389781,40.3648812
公共厕所,公共设施,公共厕所,公共厕所,大建路南50米,北京市,北京市,密云区,116.7384814,40.36488131
公共厕所,公共设施,公共厕所,公共厕所,镇政府路口西100米,北京市,北京市,密云区,116.746593,40.36487872
公共厕所,公共设施,公共厕所,公共厕所,统仓路西50米,北京市,北京市,密云区,116.7422065,40.36881849
公共厕所,公共设施,公共厕所,公共厕所,沿村休闲健身公园(西统路西),北京市,北京市,密云区,116.7440674,40.36946819
公共厕所,公共设施,公共厕所,公共厕所,Y652与Y653交叉口东南50米,北京市,北京市,密云区,116.7830495,40.36350883
公共厕所,公共设施,公共厕所,公共厕所,京密路与新南路交叉口东南100米,北京市,北京市,密云区,116.8156336,40.3651639
公共厕所,公共设施,公共厕所,公共厕所,西大桥路22附近,北京市,北京市,密云区,116.81581,40.36520222
公共厕所,公共设施,公共厕所,公共厕所,旧京承路与西大桥路交叉口东50米,北京市,北京市,密云区,116.811644,40.36625321
公共厕所,公共设施,公共厕所,公共厕所,园林路11号附近,北京市,北京市,密云区,116.8183506,40.36686642
公共厕所,公共设施,公共厕所,公共厕所,宝桥街与顺桥路交叉口东北50米,北京市,北京市,密云区,116.8168762,40.36356971
公共厕所,公共设施,公共厕所,公共厕所,果园西路与902县道交叉口西150米,北京市,北京市,密云区,116.8186321,40.36693693
公共厕所,公共设施,公共厕所,公共厕所,新南路与果园西路交叉口西150米,北京市,北京市,密云区,116.8188005,40.36658635
公共厕所,公共设施,公共厕所,公共厕所,兴云路与果园中街交叉口南50米,北京市,北京市,密云区,116.8152363,40.36992566
公共厕所,公共设施,公共厕所,公共厕所,宝桥南巷与通林街交叉口西北100米,北京市,北京市,密云区,116.8173392,40.36236295
公共厕所,公共设施,公共厕所,公共厕所,园林路与通林街交叉口西150米,北京市,北京市,密云区,116.8197718,40.36288132
北京瑞海姆田园度假村(鼓楼大街)-洗手间,公共设施,公共厕所,公共厕所,西大桥路2号(奥林匹克公园西侧路南),北京市,北京市,密云区,116.8275902,40.36673372
公共厕所,公共设施,公共厕所,公共厕所,农机路与滨河路交叉口北150米,北京市,北京市,密云区,116.8310178,40.36540348
公共厕所,公共设施,公共厕所,公共厕所,西滨河路东150米,北京市,北京市,密云区,116.829826,40.37037071
公共厕所,公共设施,公共厕所,公共厕所,石桥胡同与长安街交叉口东北50米,北京市,北京市,密云区,116.8385809,40.37082242
公共厕所,公共设施,公共厕所,公共厕所,石桥胡同与长安街交叉口东北50米,北京市,北京市,密云区,116.8386299,40.37104644
公共厕所,公共设施,公共厕所,公共厕所,新南路84号附近,北京市,北京市,密云区,116.8453937,40.36858981
公共厕所,公共设施,公共厕所,公共厕所,长安村附近,北京市,北京市,密云区,116.8414277,40.36360466
公共厕所,公共设施,公共厕所,公共厕所,南河路与阳光街交叉口东南100米,北京市,北京市,密云区,116.8416161,40.36289021
公共厕所,公共设施,公共厕所,公共厕所,水源路北50米,北京市,北京市,密云区,116.8477573,40.36190577
公共厕所,公共设施,公共厕所,公共厕所,阳光街36号附近,北京市,北京市,密云区,116.8532267,40.36690973
公共厕所,公共设施,公共厕所,公共厕所,华远市场北门,北京市,北京市,密云区,116.8516776,40.36660348
公共厕所,公共设施,公共厕所,公共厕所,阳光街24号附近,北京市,北京市,密云区,116.8513401,40.36622308
公共厕所,公共设施,公共厕所,公共厕所,京密路与新东路交叉口东150米,北京市,北京市,密云区,116.8539843,40.37105754
公共厕所,公共设施,公共厕所,公共厕所,东门大街新中街路口附近,北京市,北京市,密云区,116.8493867,40.36269613
公共厕所,公共设施,公共厕所,公共厕所,新南路62号,北京市,北京市,密云区,116.8522809,40.37064012
公共厕所,公共设施,公共厕所,公共厕所,京密路与新东路交叉口东南100米,北京市,北京市,密云区,116.8536408,40.37104703
公共厕所,公共设施,公共厕所,公共厕所,水源路附近,北京市,北京市,密云区,116.8652247,40.36944699
公共厕所,公共设施,公共厕所,公共厕所,,北京市,北京市,密云区,116.9759696,40.36876707
公共厕所,公共设施,公共厕所,公共厕所,,北京市,北京市,密云区,116.9848225,40.36350835
公共厕所,公共设施,公共厕所,公共厕所,,北京市,北京市,密云区,116.9913325,40.36441827
公共厕所,公共设施,公共厕所,公共厕所,豆各庄村文化活动中心,北京市,北京市,密云区,116.9972953,40.3623787
公共厕所,公共设施,公共厕所,公共厕所,矿区路西200米,北京市,北京市,密云区,117.0014658,40.36545405
停车区-公共厕所,公共设施,公共厕所,公共厕所,G6京藏高速附近,北京市,北京市,延庆区,115.8908109,40.35758693
服务区公共厕所,公共设施,公共厕所,公共厕所,服务区与G6京藏高速交叉口东100米,北京市,北京市,延庆区,115.8910682,40.3572021
公共厕所,公共设施,公共厕所,公共厕所,万香苑附近,北京市,北京市,延庆区,115.9498624,40.35979613
公共厕所,公共设施,公共厕所,公共厕所,西残路与216省道交叉口北50米,北京市,北京市,延庆区,115.9650147,40.35964118
八达岭野生动物世界-公共厕所,公共设施,公共厕所,公共厕所,G6京藏高速附近,北京市,北京市,延庆区,115.985832,40.35707867
公共厕所,公共设施,公共厕所,公共厕所,216省道东100米,北京市,北京市,延庆区,115.9935807,40.36041407
八达岭长城-公共厕所,公共设施,公共厕所,公共厕所,216省道东100米,北京市,北京市,延庆区,115.993487,40.36098718
八达岭长城-公共厕所,公共设施,公共厕所,公共厕所,八达岭景区内中国长城博物馆附近,北京市,北京市,延庆区,116.0027425,40.35685129
肯德基(八达岭店)洗手间,公共设施,公共厕所,公共厕所,八达岭步行街西侧,北京市,北京市,延庆区,116.0031732,40.35527347
八达岭长城-公共厕所,公共设施,公共厕所,公共厕所,G6京藏高速58号出口八达岭长城内,北京市,北京市,延庆区,116.0012995,40.35631882
八达岭长城-公共厕所,公共设施,公共厕所,公共厕所,G6京藏高速58号出口八达岭长城内,北京市,北京市,延庆区,116.0078825,40.3601179
八达岭长城-公共厕所,公共设施,公共厕所,公共厕所,G6京藏高速58号出口八达岭长城内,北京市,北京市,延庆区,116.0109314,40.35188439
公共厕所,公共设施,公共厕所,公共厕所,上黑路与昌赤路交叉口东北150米,北京市,北京市,昌平区,116.2411815,40.35379051
公共厕所,公共设施,公共厕所,公共厕所,怀长路附近,北京市,北京市,昌平区,116.2962502,40.35345298
公共厕所,公共设施,公共厕所,公共厕所,怀长路南50米,北京市,北京市,昌平区,116.3008898,40.35428878
公共厕所,公共设施,公共厕所,公共厕所,怀长路南50米,北京市,北京市,昌平区,116.3007082,40.35408216
公共厕所,公共设施,公共厕所,公共厕所,安四路西50米,北京市,北京市,昌平区,116.3534527,40.35282737
公共厕所,公共设施,公共厕所,公共厕所,怀长路北150米,北京市,北京市,怀柔区,116.4328999,40.35784872
公共厕所,公共设施,公共厕所,公共厕所,怀长路北150米,北京市,北京市,怀柔区,116.435708,40.35849518
公共厕所,公共设施,公共厕所,公共厕所,,北京市,北京市,怀柔区,116.4446287,40.35303766
公共厕所,公共设施,公共厕所,公共厕所,怀长路北100米,北京市,北京市,怀柔区,116.4582142,40.35864986
公共厕所,公共设施,公共厕所,公共厕所,,北京市,北京市,怀柔区,116.4622905,40.35975184
公共厕所,公共设施,公共厕所,公共厕所,口头村附近,北京市,北京市,怀柔区,116.5669314,40.35689497
公共厕所,公共设施,公共厕所,公共厕所,凯口路东50米,北京市,北京市,怀柔区,116.5700567,40.35956438
公共厕所,公共设施,公共厕所,公共厕所,红西路附近,北京市,北京市,怀柔区,116.587047,40.35857757
红螺湖公园-公共厕所,公共设施,公共厕所,公共厕所,中刘路与红螺路交叉口东北100米,北京市,北京市,怀柔区,116.6175525,40.35681955
公共厕所,公共设施,公共厕所,公共厕所,红螺路西50米,北京市,北京市,怀柔区,116.6364256,40.36063929
公厕,公共设施,公共厕所,公共厕所,京加路附近,北京市,北京市,怀柔区,116.6550372,40.35812142
公共厕所,公共设施,公共厕所,公共厕所,,北京市,北京市,怀柔区,116.663499,40.3514593
公共厕所,公共设施,公共厕所,公共厕所,西统路南50米,北京市,北京市,密云区,116.7543747,40.35698092
公共厕所,公共设施,公共厕所,公共厕所,京密路北100米,北京市,北京市,密云区,116.7848873,40.35220973
公共厕所,公共设施,公共厕所,公共厕所,京密路北50米,北京市,北京市,密云区,116.785386,40.35186651
优速瑞丰物流,生活服务,物流速递,物流速递|公共设施,明珠花园甲2-106,北京市,北京市,密云区,116.786873,40.35159567
公共厕所,公共设施,公共厕所,公共厕所,京密路与西大桥路交叉口东150米,北京市,北京市,密云区,116.794104,40.35547734
公共厕所,公共设施,公共厕所,公共厕所,京密路与西大桥路交叉口北100米,北京市,北京市,密云区,116.7930583,40.35588858
公共厕所,公共设施,公共厕所,公共厕所,兴源街与水源路交叉口东北100米,北京市,北京市,密云区,116.796098,40.35616832
公共厕所,公共设施,公共厕所,公共厕所,康宝路与西祥路交叉口西南50米,北京市,北京市,密云区,116.8003821,40.35623139
公共厕所,公共设施,公共厕所,公共厕所,兴盛南路与康宝路交叉口东北50米,北京市,北京市,密云区,116.807976,40.3600275
公共厕所,公共设施,公共厕所,公共厕所,恒通路南50米,北京市,北京市,密云区,116.8180219,40.35902924
公共厕所,公共设施,公共厕所,公共厕所,园林路与水源路交叉口东南100米,北京市,北京市,密云区,116.8218207,40.35545942
公共厕所,公共设施,公共厕所,公共厕所,园林路与水源路交叉口西南50米,北京市,北京市,密云区,116.8212876,40.35561238
公共厕所,公共设施,公共厕所,公共厕所,园林路附近,北京市,北京市,密云区,116.8203966,40.35803498
女洗手间,公共设施,公共厕所,公共厕所,顺密路与水源路交叉口密云万象汇F2,北京市,北京市,密云区,116.8284504,40.35422616
男洗手间,公共设施,公共厕所,公共厕所,顺密路与水源路交叉口密云万象汇F2,北京市,北京市,密云区,116.828683,40.3531949
公共厕所,公共设施,公共厕所,公共厕所,水源路南50米,北京市,北京市,密云区,116.8317284,40.35568877
公共厕所,公共设施,公共厕所,公共厕所,水源路南50米,北京市,北京市,密云区,116.8314208,40.35579318
公共厕所,公共设施,公共厕所,公共厕所,,北京市,北京市,密云区,116.8361089,40.35949856
无障碍洗手间,公共设施,公共厕所,公共厕所,顺密路与水源路交叉口密云万象汇F3,北京市,北京市,密云区,116.8295343,40.35517688
公共厕所,公共设施,公共厕所,公共厕所,顺密旧路附近,北京市,北京市,密云区,116.837332,40.36018154
公共厕所,公共设施,公共厕所,公共厕所,锥塔胡同附近,北京市,北京市,密云区,116.8380643,40.36041277
公共厕所,公共设施,公共厕所,公共厕所,滨河路与阳光街交叉口西南100米,北京市,北京市,密云区,116.8298753,40.36045091
公共厕所,公共设施,公共厕所,公共厕所,顺密旧路西150米,北京市,北京市,密云区,116.8386803,40.36067378
公共厕所,公共设施,公共厕所,公共厕所,水源路附近,北京市,北京市,密云区,116.8414033,40.35887808
公共厕所,公共设施,公共厕所,公共厕所,宁菜路南50米,北京市,北京市,密云区,116.8800198,40.35446515
公共厕所,公共设施,公共厕所,公共厕所,平安庄大街东150米,北京市,北京市,密云区,116.8958992,40.35498609
公共厕所,公共设施,公共厕所,公共厕所,宁蔡路西50米,北京市,北京市,密云区,116.9065569,40.35130849
公共厕所,公共设施,公共厕所,公共厕所,密三路南200米,北京市,北京市,密云区,116.9820993,40.36016859
公共厕所,公共设施,公共厕所,公共厕所,密兴路北150米,北京市,北京市,密云区,117.0111061,40.35947412
公共厕所,公共设施,公共厕所,公共厕所,塘子村附近,北京市,北京市,密云区,117.0088153,40.35955584
公共厕所,公共设施,公共厕所,公共厕所,顺海街北50米,北京市,北京市,密云区,117.0276129,40.35490574
公共厕所,公共设施,公共厕所,公共厕所,平程路与桃园路交叉口北200米,北京市,北京市,平谷区,117.1437959,40.36010418
公共厕所,公共设施,公共厕所,公共厕所,平关路北50米,北京市,北京市,平谷区,117.1794298,40.3537711
公共厕所,公共设施,公共厕所,公共厕所,北水峪路东50米,北京市,北京市,平谷区,117.2302995,40.35603379
八达岭滑雪场-公共厕所,公共设施,公共厕所,公共厕所,八达岭镇八达岭滑雪场八达岭滑雪场附近,北京市,北京市,延庆区,115.9493472,40.34808381
八达岭古长城自然风景区-公共厕所,公共设施,公共厕所,公共厕所,西残路西50米,北京市,北京市,延庆区,115.9808778,40.34209197
八达岭野生动物世界-公共厕所,公共设施,公共厕所,公共厕所,八达岭镇八达岭野生动物园内,北京市,北京市,延庆区,115.9980895,40.34907473
八达岭长城-公共厕所,公共设施,公共厕所,公共厕所,八达岭森林派出所附近,北京市,北京市,延庆区,116.0143638,40.34663197
北京十三陵双龙山森林公园-公共厕所,公共设施,公共厕所,公共厕所,长陵镇碓臼峪风景区双龙山庄附近,北京市,北京市,昌平区,116.1572238,40.34789533
公共厕所,公共设施,公共厕所,公共厕所,双龙山路与石梨路交叉口西北150米,北京市,北京市,昌平区,116.1861935,40.34669964
公共厕所,公共设施,公共厕所,公共厕所,双龙山路与石梨路交叉口西北50米,北京市,北京市,昌平区,116.1872192,40.34614054
公共厕所,公共设施,公共厕所,公共厕所,延寿镇石梨路华莹农家院南100米,北京市,北京市,昌平区,116.1867204,40.34247275
公共厕所,公共设施,公共厕所,公共厕所,下大路与昌赤路交叉口西50米,北京市,北京市,昌平区,116.2350382,40.34415314
公共厕所,公共设施,公共厕所,公共厕所,下大路与昌赤路交叉口西南50米,北京市,北京市,昌平区,116.2352954,40.34388829
公共厕所,公共设施,公共厕所,公共厕所,贤庄口桥(下大路南),北京市,北京市,昌平区,116.2328426,40.34287773
公共厕所,公共设施,公共厕所,公共厕所,怀长路九渡河镇局里村村委会,北京市,北京市,怀柔区,116.4161123,40.34706192
公共厕所,公共设施,公共厕所,公共厕所,局里路东50米,北京市,北京市,怀柔区,116.4192963,40.34771577
公共厕所,公共设施,公共厕所,公共厕所,657乡道与658乡道交叉口东100米,北京市,北京市,怀柔区,116.5182541,40.34537391
公共厕所,公共设施,公共厕所,公共厕所,657乡道北50米,北京市,北京市,怀柔区,116.5224808,40.34320895
北京人济建国酒店-洗手间,公共设施,公共厕所,公共厕所,桥梓镇北宅村800号北京人济建国酒店,北京市,北京市,怀柔区,116.5519639,40.34650483
公共厕所,公共设施,公共厕所,公共厕所,台关路西100米,北京市,北京市,怀柔区,116.5678047,40.34697686
公共厕所,公共设施,公共厕所,公共厕所,台关路北50米,北京市,北京市,怀柔区,116.5660219,40.3438728
公共厕所,公共设施,公共厕所,公共厕所,台关路与红西路交叉口东150米,北京市,北京市,怀柔区,116.5861917,40.34410868
公共厕所,公共设施,公共厕所,公共厕所,台关路与红西路交叉口西南200米,北京市,北京市,怀柔区,116.5834754,40.34337307
公共厕所,公共设施,公共厕所,公共厕所,台关路与红西路交叉口东100米,北京市,北京市,怀柔区,116.5858827,40.3441066
公共厕所,公共设施,公共厕所,公共厕所,台关路东50米,北京市,北京市,怀柔区,116.6002512,40.34215526
公共厕所,公共设施,公共厕所,公共厕所,怀柔镇小东庄,北京市,北京市,怀柔区,116.6100663,40.35004235
公共厕所,公共设施,公共厕所,公共厕所,京加路与雁栖湖联络线交叉口北100米,北京市,北京市,怀柔区,116.6450103,40.35096085
公共厕所,公共设施,公共厕所,公共厕所,雁栖镇乐园大街陈各庄幼儿园东南50米,北京市,北京市,怀柔区,116.6582966,40.34503715
公共厕所,公共设施,公共厕所,公共厕所,乐园大街130附近,北京市,北京市,怀柔区,116.6685332,40.34641009
公共厕所,公共设施,公共厕所,公共厕所,北房镇宰相庄小学西北350米,北京市,北京市,怀柔区,116.6971443,40.34688977
公共厕所,公共设施,公共厕所,公共厕所,中高路北房镇宰相庄小学东北500米,北京市,北京市,怀柔区,116.7068104,40.34610611
公共厕所,公共设施,公共厕所,公共厕所,定顺街与祥和街交叉口西南50米,北京市,北京市,密云区,116.7785367,40.34538162
公共厕所,公共设施,公共厕所,公共厕所,花都街56号附近,北京市,北京市,密云区,116.784106,40.34670829
公共厕所,公共设施,公共厕所,公共厕所,富民路东100米,北京市,北京市,密云区,116.7858753,40.34657775
公共厕所,公共设施,公共厕所,公共厕所,富民路143号附近,北京市,北京市,密云区,116.7841489,40.34800597
公共厕所,公共设施,公共厕所,公共厕所,庄河路与庄禾屯东大街交叉口西150米,北京市,北京市,密云区,116.7811726,40.3452289
公共厕所,公共设施,公共厕所,公共厕所,图腾街与永宁街交叉口东北50米,北京市,北京市,密云区,116.7804737,40.34616675
公共厕所,公共设施,公共厕所,公共厕所,图腾街与永宁街交叉口西100米,北京市,北京市,密云区,116.7795907,40.34608368
公共厕所,公共设施,公共厕所,公共厕所,庄禾屯东大街27号附近,北京市,北京市,密云区,116.7838673,40.34190236
公共厕所,公共设施,公共厕所,公共厕所,庄禾屯东大街268号附近,北京市,北京市,密云区,116.7831004,40.34153645
公共厕所,公共设施,公共厕所,公共厕所,富民路232号附近,北京市,北京市,密云区,116.7883812,40.35005329
公共厕所,公共设施,公共厕所,公共厕所,汇通街14号附近,北京市,北京市,密云区,116.7921363,40.34497438
公共厕所,公共设施,公共厕所,公共厕所,右堤路西50米,北京市,北京市,密云区,116.7979785,40.34499869
公共厕所,公共设施,公共厕所,公共厕所,强云路与永全街交叉口东50米,北京市,北京市,密云区,116.7988314,40.34924087
公共厕所,公共设施,公共厕所,公共厕所,兴盛南路与左堤路交叉口东100米,北京市,北京市,密云区,116.8107008,40.34562472
公共厕所,公共设施,公共厕所,公共厕所,滨河路与顺密路交叉口东北100米,北京市,北京市,密云区,116.8281069,40.34532215
公共厕所,公共设施,公共厕所,公共厕所,河东路与西顺街交叉口东150米,北京市,北京市,密云区,116.8493346,40.34700977
公共厕所,公共设施,公共厕所,公共厕所,陈各庄村老年人活动中心,北京市,北京市,密云区,116.8640782,40.34868298
公共厕所,公共设施,公共厕所,公共厕所,幸福路南50米,北京市,北京市,密云区,116.8648098,40.34922369
公共厕所,公共设施,公共厕所,公共厕所,宁蔡路西50米,北京市,北京市,密云区,116.9109618,40.34430894
平谷桃花海-公共厕所,公共设施,公共厕所,公共厕所,南山环路与平关路交叉口东南200米,北京市,北京市,平谷区,117.1468054,40.34234762
公共厕所,公共设施,公共厕所,公共厕所,五里庙路与平关路交叉口西150米,北京市,北京市,平谷区,117.1619732,40.35009691
八达岭国家森林公园-公共厕所,公共设施,公共厕所,公共厕所,水关路与999县道交叉口北200米,北京市,北京市,延庆区,116.031704,40.33582439
八达岭国家森林公园-公共厕所,公共设施,公共厕所,公共厕所,999县道与G6京藏高速出口交叉口西北50米,北京市,北京市,延庆区,116.0319515,40.33425921
八达岭国家森林公园-公共厕所,公共设施,公共厕所,公共厕所,水关路与999县道交叉口西100米,北京市,北京市,延庆区,116.0302602,40.33414645
长城脚下的公社-洗手间,公共设施,公共厕所,公共厕所,G6京藏高速公路53号长城脚下的公社,北京市,北京市,延庆区,116.0489528,40.33891679
公共厕所,公共设施,公共厕所,公共厕所,石梨路北50米,北京市,北京市,昌平区,116.1944267,40.33463755
北京石油阳光会议中心-洗手间,公共设施,公共厕所,公共厕所,锥石口村北,北京市,北京市,昌平区,116.2065029,40.33112265
公共厕所,公共设施,公共厕所,公共厕所,鹿鸣苑附近,北京市,北京市,昌平区,116.2909487,40.33295945
公共厕所,公共设施,公共厕所,公共厕所,安四路与慈悲峪村村路交叉口西北50米,北京市,北京市,昌平区,116.3444093,40.34016984
公共厕所,公共设施,公共厕所,公共厕所,九渡河四渡河村村委会(四渡河路)附近,北京市,北京市,怀柔区,116.4748212,40.33868811
公共厕所,公共设施,公共厕所,公共厕所,桥梓镇怀长路嘉合小镇东350米,北京市,北京市,怀柔区,116.5040567,40.33719068
公共厕所,公共设施,公共厕所,公共厕所,657乡道西200米,北京市,北京市,怀柔区,116.5023814,40.33785555
公共厕所,公共设施,公共厕所,公共厕所,台关路北50米,北京市,北京市,怀柔区,116.5545592,40.33700089
公共厕所,公共设施,公共厕所,公共厕所,台关路南50米,北京市,北京市,怀柔区,116.5518167,40.33710926
公共厕所,公共设施,公共厕所,公共厕所,台关路南50米,北京市,北京市,怀柔区,116.5579746,40.33652232
公共厕所,公共设施,公共厕所,公共厕所,台关路南50米,北京市,北京市,怀柔区,116.5495028,40.33706316
公共厕所,公共设施,公共厕所,公共厕所,兴隆庄村附近,北京市,北京市,怀柔区,116.5727904,40.33479607
公共厕所,公共设施,公共厕所,公共厕所,郭卧路西50米,北京市,北京市,怀柔区,116.5755787,40.3345853
公共厕所,公共设施,公共厕所,公共厕所,,北京市,北京市,怀柔区,116.5719169,40.33224103
公共厕所,公共设施,公共厕所,公共厕所,郭卧路西50米,北京市,北京市,怀柔区,116.5797527,40.33808292
公共厕所,公共设施,公共厕所,公共厕所,郭家坞村附近,北京市,北京市,怀柔区,116.6058666,40.33819664
北京东方普罗旺斯薰衣草庄园-公共厕所,公共设施,公共厕所,公共厕所,怀柔镇郭卧路东方普罗旺斯薰衣草庄园,北京市,北京市,怀柔区,116.6073546,40.34127983
公共厕所,公共设施,公共厕所,公共厕所,青春路北环岛向西500米(慕田峪方向)东方普罗旺斯薰衣草庄园内,北京市,北京市,怀柔区,116.6130058,40.33789944
公共厕所(暂停营业),公共设施,公共厕所,公共厕所,青春路88号附近,北京市,北京市,怀柔区,116.6247893,40.33418074
公共厕所,公共设施,公共厕所,公共厕所,北大街与北斜街交叉口西南50米,北京市,北京市,怀柔区,116.6306132,40.33441476
公共厕所,公共设施,公共厕所,公共厕所,富乐大街1号楼附近,北京市,北京市,怀柔区,116.6371164,40.34057013
公共厕所,公共设施,公共厕所,公共厕所,开放路111号附近,北京市,北京市,怀柔区,116.6381022,40.33138611
公共厕所,公共设施,公共厕所,公共厕所,,北京市,北京市,怀柔区,116.6965395,40.33365347
公共厕所,公共设施,公共厕所,公共厕所,中新街与统仓路交叉口西北50米,北京市,北京市,密云区,116.7400424,40.34070423
公共厕所,公共设施,公共厕所,公共厕所,王各庄西口北200米,北京市,北京市,密云区,116.7510735,40.33663683
公共厕所,公共设施,公共厕所,公共厕所,十里堡镇北京枫林园建筑工程有限公司统军庄附近,北京市,北京市,密云区,116.7518375,40.33614417
公共厕所,公共设施,公共厕所,公共厕所,京密路与西统路交叉口东150米,北京市,北京市,密云区,116.7520376,40.33486058
公共厕所,公共设施,公共厕所,公共厕所,康乐街与文明街交叉口西北100米,北京市,北京市,密云区,116.7640512,40.34028714
公共厕所,公共设施,公共厕所,公共厕所,科技路东100米,北京市,北京市,密云区,116.8035762,40.33606874
公共厕所,公共设施,公共厕所,公共厕所,左堤路东200米,北京市,北京市,密云区,116.801336,40.33859516
公共厕所,公共设施,公共厕所,公共厕所,G45大广高速西100米,北京市,北京市,密云区,116.8147133,40.33805925
公共厕所,公共设施,公共厕所,公共厕所,东套里街606乡附近,北京市,北京市,密云区,116.8463593,40.33636901
公共厕所,公共设施,公共厕所,公共厕所,601乡道西50米,北京市,北京市,密云区,116.8478261,40.34049323
公共厕所,公共设施,公共厕所,公共厕所,南山滑雪滑水度假村附近,北京市,北京市,密云区,116.8554448,40.33508942
公共厕所,公共设施,公共厕所,公共厕所,密平路附近,北京市,北京市,密云区,116.9643091,40.33463911
公共厕所,公共设施,公共厕所,公共厕所,西牛角峪路西50米,北京市,北京市,平谷区,117.0433264,40.33137064
洗手间被锁门,公共设施,公共厕所,公共厕所,上下营路与平关路交叉口南50米,北京市,北京市,平谷区,117.1270341,40.33636574
平谷桃花海-公共厕所,公共设施,公共厕所,公共厕所,关张路西50米,北京市,北京市,平谷区,117.208821,40.33267738
公共厕所,公共设施,公共厕所,公共厕所,京银路南100米,北京市,北京市,昌平区,116.1526734,40.32210519
公共厕所,公共设施,公共厕所,公共厕所,石梨路北50米,北京市,北京市,昌平区,116.2151218,40.3228327
公共厕所,公共设施,公共厕所,公共厕所,,北京市,北京市,昌平区,116.3303669,40.32745397
公共厕所,公共设施,公共厕所,公共厕所,台关路东50米,北京市,北京市,怀柔区,116.556615,40.33008904
公共厕所,公共设施,公共厕所,公共厕所,郭卧路北50米,北京市,北京市,怀柔区,116.5779677,40.33073594
公共厕所,公共设施,公共厕所,公共厕所,东庄路东50米,北京市,北京市,怀柔区,116.5858872,40.32325937
公共厕所,公共设施,公共厕所,公共厕所,东庄路南50米,北京市,北京市,怀柔区,116.5821145,40.32264026
公共厕所,公共设施,公共厕所,公共厕所,滨湖南街12号附近,北京市,北京市,怀柔区,116.6255127,40.3268768
公共厕所,公共设施,公共厕所,公共厕所,北斜街附近,北京市,北京市,怀柔区,116.6244187,40.32888966
公共厕所,公共设施,公共厕所,公共厕所,北园东街与滨湖南街交叉口西150米,北京市,北京市,怀柔区,116.6274901,40.32396496
公共厕所,公共设施,公共厕所,公共厕所,府前街东150米,北京市,北京市,怀柔区,116.6225122,40.32983275
公共厕所,公共设施,公共厕所,公共厕所,北斜街268号附近,北京市,北京市,怀柔区,116.6274335,40.32958053
公共厕所,公共设施,公共厕所,公共厕所,迎宾北路23号附近,北京市,北京市,怀柔区,116.6313217,40.32581708
公共厕所,公共设施,公共厕所,公共厕所,迎宾北路与迎宾路交叉口西北50米,北京市,北京市,怀柔区,116.631415,40.321851
公共厕所,公共设施,公共厕所,公共厕所,潘各长街北50米,北京市,北京市,怀柔区,116.6309499,40.33079227
公共厕所,公共设施,公共厕所,公共厕所,礼贤街与迎宾路交叉口西50米,北京市,北京市,怀柔区,116.6315048,40.32151695
公共厕所,公共设施,公共厕所,公共厕所,开放路5号附近,北京市,北京市,怀柔区,116.6390141,40.33068481
公共厕所,公共设施,公共厕所,公共厕所,于家园一号路与泉河路交叉口西150米,北京市,北京市,怀柔区,116.6428576,40.32923275
公共厕所,公共设施,公共厕所,公共厕所,开放路54号附近,北京市,北京市,怀柔区,116.6394214,40.3282628
公共厕所,公共设施,公共厕所,公共厕所,中葛路南50米,北京市,北京市,怀柔区,116.6535031,40.32849582
公共厕所,公共设施,公共厕所,公共厕所,会都路附近,北京市,北京市,怀柔区,116.6505669,40.32342961
公共厕所,公共设施,公共厕所,公共厕所,京密路南100米,北京市,北京市,怀柔区,116.6611693,40.32201103
公共厕所,公共设施,公共厕所,公共厕所,幸福大街南150米,北京市,北京市,怀柔区,116.6852958,40.32404299
公共厕所,公共设施,公共厕所,公共厕所,中高路与幸福大街交叉口西南50米,北京市,北京市,怀柔区,116.6890038,40.32469433
公共厕所,公共设施,公共厕所,公共厕所,中高路与幸福大街交叉口西南100米,北京市,北京市,怀柔区,116.6889859,40.32442843
公共厕所,公共设施,公共厕所,公共厕所,中高路与永昌街交叉口东150米,北京市,北京市,怀柔区,116.6902756,40.32348148
公共厕所,公共设施,公共厕所,公共厕所,中高路与永昌街交叉口东南100米,北京市,北京市,怀柔区,116.6891906,40.32281751
公共厕所,公共设施,公共厕所,公共厕所,京密路北150米,北京市,北京市,怀柔区,116.7107037,40.32818726
公共厕所,公共设施,公共厕所,公共厕所,怀密路北50米,北京市,北京市,怀柔区,116.7264185,40.32931216
公共厕所,公共设施,公共厕所,公共厕所,怀密路北房镇梨园庄村村民委员会,北京市,北京市,怀柔区,116.7295744,40.33011699
公共厕所,公共设施,公共厕所,公共厕所,科技路附近,北京市,北京市,密云区,116.7884049,40.32896929
公共厕所,公共设施,公共厕所,公共厕所,富强街与顺密路交叉口西南200米,北京市,北京市,密云区,116.8157048,40.32541956
公共厕所,公共设施,公共厕所,公共厕所,富强街与顺密路交叉口西南200米河南寨镇芦古庄村党支部附近,北京市,北京市,密云区,116.8155556,40.32503038
公共厕所,公共设施,公共厕所,公共厕所,富强街与顺密路交叉口东北100米,北京市,北京市,密云区,116.8180491,40.32673856
公共厕所,公共设施,公共厕所,公共厕所,上镇路与平关路交叉口西南200米,北京市,北京市,平谷区,117.1104065,40.32263207
平谷桃花海-公共厕所,公共设施,公共厕所,公共厕所,平程路东50米,北京市,北京市,平谷区,117.1319477,40.32547049
平谷桃花海-公共厕所,公共设施,公共厕所,公共厕所,张家台南路与胡关路交叉口西南50米,北京市,北京市,平谷区,117.2140998,40.32767062
中国玻璃台-公共厕所,公共设施,公共厕所,公共厕所,镇罗营镇胡关路(玻璃台16号小宁农家院对面)玻璃台客运站附近,北京市,北京市,平谷区,117.2235774,40.32592439
中国玻璃台-公共厕所,公共设施,公共厕所,公共厕所,镇罗营镇玻璃台村303号(近东指壶)中国玻璃台附近,北京市,北京市,平谷区,117.2280047,40.32831956
首都医科大学附属北京胸科医院公共厕所,公共设施,公共厕所,公共厕所,,北京市,北京市,平谷区,117.2403006,40.32657011
公共厕所,公共设施,公共厕所,公共厕所,泰燕路西200米,北京市,北京市,昌平区,116.1943054,40.31123654
公共厕所,公共设施,公共厕所,公共厕所,泰燕路北50米,北京市,北京市,昌平区,116.2079845,40.31821193
公共厕所,公共设施,公共厕所,公共厕所,昌赤路与石梨路交叉口南150米,北京市,北京市,昌平区,116.2173338,40.3199776
公共厕所,公共设施,公共厕所,公共厕所,昌赤路与石梨路交叉口南150米,北京市,北京市,昌平区,116.2177614,40.319982
公共厕所,公共设施,公共厕所,公共厕所,昌赤路西100米,北京市,北京市,昌平区,116.2251657,40.31166504
公共厕所,公共设施,公共厕所,公共厕所,,北京市,北京市,昌平区,116.3188535,40.31231401
银山塔林-公共厕所,公共设施,公共厕所,公共厕所,西湖村铁壁银山(暂停营业)附近,北京市,北京市,昌平区,116.3218827,40.31824266
公共厕所,公共设施,公共厕所,公共厕所,银山路西150米,北京市,北京市,昌平区,116.3205995,40.31186277
公共厕所,公共设施,公共厕所,公共厕所,东凤山村附近,北京市,北京市,怀柔区,116.5338756,40.31961706
公共厕所,公共设施,公共厕所,公共厕所,台关路西50米,北京市,北京市,怀柔区,116.5589535,40.31841263
公共厕所,公共设施,公共厕所,公共厕所,前岐路与台关路交叉口南50米,北京市,北京市,怀柔区,116.5607839,40.31536898
公共厕所,公共设施,公共厕所,公共厕所,东庄路东50米,北京市,北京市,怀柔区,116.5691718,40.31883103
公共厕所,公共设施,公共厕所,公共厕所,府东一条10号附近,北京市,北京市,怀柔区,116.6274593,40.3151843
卫生间(京北大世界),公共设施,公共厕所,公共厕所,府前街14号京北大世界F2层,北京市,北京市,怀柔区,116.6255173,40.31425011
卫生间(京北大世界),公共设施,公共厕所,公共厕所,府前街14号京北大世界F4层,北京市,北京市,怀柔区,116.6268686,40.31423733
公共厕所,公共设施,公共厕所,公共厕所,府前西街1号附近,北京市,北京市,怀柔区,116.6206755,40.3135422
公共厕所,公共设施,公共厕所,公共厕所,青春路青春路9院1号附近,北京市,北京市,怀柔区,116.6244816,40.32050282
公共厕所,公共设施,公共厕所,公共厕所,商业街与迎宾路交叉口西南150米,北京市,北京市,怀柔区,116.6304661,40.31317562
公共厕所,公共设施,公共厕所,公共厕所,府前东街50号附近,北京市,北京市,怀柔区,116.6422188,40.3161623
公共厕所,公共设施,公共厕所,公共厕所,开放路附近,北京市,北京市,怀柔区,116.6399162,40.31189127
公共厕所,公共设施,公共厕所,公共厕所,东方大街与开放路交叉口东南100米,北京市,北京市,怀柔区,116.6393905,40.31200511
公共厕所,公共设施,公共厕所,公共厕所,怀柔镇张各长村西路,北京市,北京市,怀柔区,116.6502859,40.31307681
公共厕所,公共设施,公共厕所,公共厕所,中葛路与京密路交叉口西南200米,北京市,北京市,怀柔区,116.6573085,40.32054678
公共厕所,公共设施,公共厕所,公共厕所,会都路附近,北京市,北京市,怀柔区,116.6515036,40.32100753
公共厕所,公共设施,公共厕所,公共厕所,怀柔镇王化村南35号附近,北京市,北京市,怀柔区,116.6631406,40.31489109
公共厕所,公共设施,公共厕所,公共厕所,富密路西50米,北京市,北京市,怀柔区,116.6602004,40.31971549
公共厕所,公共设施,公共厕所,公共厕所,恒利街与规划一路交叉口南50米,北京市,北京市,怀柔区,116.7048242,40.31842538
公共厕所,公共设施,公共厕所,公共厕所,恒利街南50米,北京市,北京市,怀柔区,116.7142692,40.31773496
公共厕所,公共设施,公共厕所,公共厕所,新苇路与郑家庄支线交叉口东南50米,北京市,北京市,怀柔区,116.7322722,40.31612333
公共厕所,公共设施,公共厕所,公共厕所,团结村附近,北京市,北京市,密云区,116.7836663,40.31651999
公共厕所,公共设施,公共厕所,公共厕所,荆平路东100米,北京市,北京市,密云区,116.7833549,40.31657456
公共厕所,公共设施,公共厕所,公共厕所,密三路西200米,北京市,北京市,密云区,116.9572771,40.32072622
公共厕所,公共设施,公共厕所,公共厕所,密三路与石史路交叉口北100米,北京市,北京市,密云区,116.9605653,40.31911622
公共厕所,公共设施,公共厕所,公共厕所,张家台路与李家峪路交叉口西100米,北京市,北京市,平谷区,117.022155,40.31850045
公共厕所,公共设施,公共厕所,公共厕所,李家峪路北50米,北京市,北京市,平谷区,117.0311558,40.31148878
公共厕所,公共设施,公共厕所,公共厕所,后西路西峪路路口附近,北京市,北京市,平谷区,117.0819013,40.31615378
平谷桃花海-公共厕所,公共设施,公共厕所,公共厕所,上季路与平程路交叉口南100米,北京市,北京市,平谷区,117.1324658,40.31473706
平谷桃花海-公共厕所,公共设施,公共厕所,公共厕所,平程路镇罗营镇东四道岭村村委会西,北京市,北京市,平谷区,117.1339892,40.32018889
公共厕所,公共设施,公共厕所,公共厕所,外石路与032县道交叉口北50米,北京市,北京市,延庆区,115.9481257,40.30409133
公共厕所,公共设施,公共厕所,公共厕所,G6京藏高速东150米,北京市,北京市,昌平区,116.0525366,40.30456135
公共厕所,公共设施,公共厕所,公共厕所,泰燕路西150米,北京市,北京市,昌平区,116.1943606,40.31072875
公共厕所,公共设施,公共厕所,公共厕所,昌赤路与裕陵路交叉口西北100米,北京市,北京市,昌平区,116.2305692,40.30636646
公共厕所,公共设施,公共厕所,公共厕所,昌赤路北50米,北京市,北京市,昌平区,116.2292715,40.30976297
公共厕所,公共设施,公共厕所,公共厕所,黄泉寺路西100米,北京市,北京市,昌平区,116.2403757,40.3097885
公共厕所,公共设施,公共厕所,公共厕所,怀长路东50米,北京市,北京市,昌平区,116.257823,40.3097907
公共厕所,公共设施,公共厕所,公共厕所,银山路东50米,北京市,北京市,昌平区,116.3243531,40.30968009
公共厕所,公共设施,公共厕所,公共厕所,银山路南50米,北京市,北京市,昌平区,116.3223018,40.30966804
公共厕所,公共设施,公共厕所,公共厕所,银山路1号附近,北京市,北京市,昌平区,116.3226011,40.30968646
公共厕所,公共设施,公共厕所,公共厕所,银山路与015县道交叉口南200米,北京市,北京市,昌平区,116.3224165,40.31017369
公共厕所,公共设施,公共厕所,公共厕所,安四路与银山路交叉口南100米,北京市,北京市,昌平区,116.3305573,40.30523733
公共厕所,公共设施,公共厕所,公共厕所,安四路附近,北京市,北京市,昌平区,116.3367051,40.30809014
公共厕所,公共设施,公共厕所,公共厕所,安四路东50米,北京市,北京市,昌平区,116.3345096,40.31097048
公共厕所,公共设施,公共厕所,公共厕所,大道山庄(西门)附近,北京市,北京市,昌平区,116.3455953,40.30558297
公共厕所,公共设施,公共厕所,公共厕所,桃下路大杨山国家森林公园,北京市,北京市,昌平区,116.4197177,40.31083323
公共厕所,公共设施,公共厕所,公共厕所,南华大街与富密路交叉口西北200米,北京市,北京市,怀柔区,116.6180914,40.30182795
公共厕所,公共设施,公共厕所,公共厕所,南关街西150米,北京市,北京市,怀柔区,116.6256013,40.30470139
公共厕所,公共设施,公共厕所,公共厕所,南华大街与龙山东路交叉口东南50米,北京市,北京市,怀柔区,116.6215769,40.30558714
公共厕所,公共设施,公共厕所,公共厕所,南关街与桥庙路交叉口南150米,北京市,北京市,怀柔区,116.6270473,40.3054233
公共厕所,公共设施,公共厕所,公共厕所,怀柔地税局附近,北京市,北京市,怀柔区,116.6253304,40.30862777
公共厕所,公共设施,公共厕所,公共厕所,青春路134号附近,北京市,北京市,怀柔区,116.6248663,40.30866035
公共厕所,公共设施,公共厕所,公共厕所,南关街东150米,北京市,北京市,怀柔区,116.6286891,40.30369148
公共厕所,公共设施,公共厕所,公共厕所,金源宝地市场C区,北京市,北京市,怀柔区,116.6285746,40.3099481
北京望怀华庭酒店有限责任公司-洗手间,公共设施,公共厕所,公共厕所,迎宾环岛东行88米路北(望怀大厦内),北京市,北京市,怀柔区,116.6363503,40.30854389
公共厕所,公共设施,公共厕所,公共厕所,葛各庄路与迎宾南路交叉口北100米,北京市,北京市,怀柔区,116.6362284,40.30144982
公共厕所,公共设施,公共厕所,公共厕所,南华市场路与唐自口路交叉口西100米,北京市,北京市,怀柔区,116.6408409,40.30376874
公共厕所,公共设施,公共厕所,公共厕所,三号路与怀耿路交叉口南100米,北京市,北京市,怀柔区,116.6525836,40.30504758
公共厕所,公共设施,公共厕所,公共厕所,唐自口路北50米,北京市,北京市,怀柔区,116.6545863,40.30322629
公共厕所,公共设施,公共厕所,公共厕所,,北京市,北京市,怀柔区,116.6548886,40.31005304
公共厕所,公共设施,公共厕所,公共厕所,怀柔镇京密高速公路张各长村文化广场,北京市,北京市,怀柔区,116.6519328,40.31011253
公共厕所,公共设施,公共厕所,公共厕所,张各长路南200米,北京市,北京市,怀柔区,116.6519228,40.31048146
公共厕所,公共设施,公共厕所,公共厕所,开发区北路南50米,北京市,北京市,怀柔区,116.6776129,40.30189667
公共厕所,公共设施,公共厕所,公共厕所,荆平路与605乡道交叉口西150米中共莲花瓣村党支部委员会附近,北京市,北京市,密云区,116.7664679,40.30564016
公共厕所,公共设施,公共厕所,公共厕所,顺密路附近,北京市,北京市,密云区,116.7988363,40.30239443
公共厕所,公共设施,公共厕所,公共厕所,河东路东50米,北京市,北京市,密云区,116.8745627,40.30569437
公共厕所,公共设施,公共厕所,公共厕所,密三路西50米,北京市,北京市,密云区,116.9617617,40.31031434
公共厕所,公共设施,公共厕所,公共厕所,后西路东50米,北京市,北京市,平谷区,117.0603302,40.30887769
公共厕所,公共设施,公共厕所,公共厕所,泉水峪路南50米,北京市,北京市,平谷区,117.0816457,40.30118663
中信金陵酒店-洗手间,公共设施,公共厕所,公共厕所,大华山镇西峪甲1号(近西峪水库),北京市,北京市,平谷区,117.0952639,40.30978043
平谷桃花海-公共厕所,公共设施,公共厕所,公共厕所,平程路与老泉口北路交叉口东南50米,北京市,北京市,平谷区,117.1250477,40.30792871
居庸关-公共厕所,公共设施,公共厕所,公共厕所,居庸关村二一六省道居庸关长城内,北京市,北京市,昌平区,116.0663808,40.29202029
公共厕所,公共设施,公共厕所,公共厕所,京银路与德胜口路交叉口东南150米,北京市,北京市,昌平区,116.1908611,40.29432913
十三陵-定陵-公共厕所,公共设施,公共厕所,公共厕所,十三陵景区定陵内,北京市,北京市,昌平区,116.2154047,40.29594669
十三陵-定陵-公共厕所,公共设施,公共厕所,公共厕所,十三陵景区定陵内,北京市,北京市,昌平区,116.2182634,40.29461572
十三陵-定陵-公共厕所,公共设施,公共厕所,公共厕所,十三陵景区定陵内,北京市,北京市,昌平区,116.2183066,40.29385494
十三陵-定陵-公共厕所,公共设施,公共厕所,公共厕所,十三陵特区环陵路定陵内,北京市,北京市,昌平区,116.2235771,40.2931904
十三陵-定陵-公共厕所,公共设施,公共厕所,公共厕所,十三陵特区环陵路定陵内,北京市,北京市,昌平区,116.2230675,40.29270913
公共厕所,公共设施,公共厕所,公共厕所,献陵路西50米,北京市,北京市,昌平区,116.2324069,40.29793131
十三陵-长陵-公共厕所,公共设施,公共厕所,公共厕所,明十三陵长陵内,北京市,北京市,昌平区,116.2430405,40.29593003
公共厕所,公共设施,公共厕所,公共厕所,环陵路东50米,北京市,北京市,昌平区,116.2460985,40.29410731
公共厕所,公共设施,公共厕所,公共厕所,昌赤路与献陵路交叉口东150米,北京市,北京市,昌平区,116.2417389,40.29722967
十三陵-长陵-公共厕所,公共设施,公共厕所,公共厕所,十三陵景区长陵内,北京市,北京市,昌平区,116.24234,40.29786755
公共厕所,公共设施,公共厕所,公共厕所,长陵镇明十三陵-长陵内,北京市,北京市,昌平区,116.2418378,40.29806648
十三陵-长陵-公共厕所,公共设施,公共厕所,公共厕所,明十三陵长陵内,北京市,北京市,昌平区,116.2403744,40.29643375
公共厕所,公共设施,公共厕所,公共厕所,环陵路东50米,北京市,北京市,昌平区,116.2487404,40.29669129
公共厕所,公共设施,公共厕所,公共厕所,,北京市,北京市,怀柔区,116.530645,40.29444351
山立庄村西公共厕所,公共设施,公共厕所,公共厕所,山立庄163桥梓镇山立庄村村民委员会附近,北京市,北京市,怀柔区,116.5563685,40.29785187
山立庄村东公共厕所,公共设施,公共厕所,公共厕所,,北京市,北京市,怀柔区,116.560182,40.29844233
公共厕所,公共设施,公共厕所,公共厕所,桥平路东50米,北京市,北京市,怀柔区,116.5721907,40.29538864
公共厕所,公共设施,公共厕所,公共厕所,桥平路东50米,北京市,北京市,怀柔区,116.5720135,40.29559044
公共厕所,公共设施,公共厕所,公共厕所,后桥梓村附近,北京市,北京市,怀柔区,116.5717777,40.29211004
唐韵山庄酒店-洗手间,公共设施,公共厕所,公共厕所,庙城镇宽沟8号,北京市,北京市,怀柔区,116.5944968,40.29939091
公共厕所,公共设施,公共厕所,公共厕所,怀昌路东200米,北京市,北京市,怀柔区,116.6040319,40.29406903
公共厕所,公共设施,公共厕所,公共厕所,,北京市,北京市,怀柔区,116.6070606,40.29545292
公共厕所,公共设施,公共厕所,公共厕所,,北京市,北京市,怀柔区,116.6053699,40.29178282
公共厕所,公共设施,公共厕所,公共厕所,,北京市,北京市,怀柔区,116.6029042,40.2919231
公共厕所,公共设施,公共厕所,公共厕所,富密路与红螺东路交叉口西100米,北京市,北京市,怀柔区,116.6153526,40.29549222
公共厕所,公共设施,公共厕所,公共厕所,南华大街与怀长路交叉口西150米,北京市,北京市,怀柔区,116.6165942,40.29890719
公共厕所,公共设施,公共厕所,公共厕所,,北京市,北京市,怀柔区,116.6093609,40.29559029
公共厕所,公共设施,公共厕所,公共厕所,怀长路与012县道交叉口西北150米,北京市,北京市,怀柔区,116.6256666,40.29346998
公共厕所,公共设施,公共厕所,公共厕所,南华大街与212县道交叉口东南200米,北京市,北京市,怀柔区,116.6204098,40.29884112
公共厕所,公共设施,公共厕所,公共厕所,怀丰立交与迎宾南路交叉口北150米,北京市,北京市,怀柔区,116.636963,40.29907522
公共厕所,公共设施,公共厕所,公共厕所,京密高速与葛各庄路交叉口西南200米,北京市,北京市,怀柔区,116.6386928,40.29898645
公共厕所,公共设施,公共厕所,公共厕所,怀长路南50米,北京市,北京市,怀柔区,116.6346294,40.29184958
公共厕所,公共设施,公共厕所,公共厕所,葛各庄路与迎宾南路交叉口北100米,北京市,北京市,怀柔区,116.6362065,40.30116892
公共厕所,公共设施,公共厕所,公共厕所,迎宾南路,北京市,北京市,怀柔区,116.6378985,40.3008283
公共厕所,公共设施,公共厕所,公共厕所,怀耿路北150米滨河公园附近,北京市,北京市,怀柔区,116.6428647,40.29634709
公共厕所,公共设施,公共厕所,公共厕所,怀耿路南150米,北京市,北京市,怀柔区,116.6437367,40.29394315
公共厕所,公共设施,公共厕所,公共厕所,怀耿路北100米,北京市,北京市,怀柔区,116.6486395,40.29588101
公共厕所,公共设施,公共厕所,公共厕所,,北京市,北京市,怀柔区,116.6535719,40.29713265
公共厕所,公共设施,公共厕所,公共厕所,葛各庄路南50米,北京市,北京市,怀柔区,116.6558981,40.29978566
公共厕所,公共设施,公共厕所,公共厕所,葛各庄路南50米,北京市,北京市,怀柔区,116.6501669,40.29965334
公共厕所,公共设施,公共厕所,公共厕所,,北京市,北京市,怀柔区,116.6530869,40.29162184
公共厕所,公共设施,公共厕所,公共厕所,怀杨路与滨河路交叉口南200米,北京市,北京市,怀柔区,116.6640462,40.29762161
公共厕所,公共设施,公共厕所,公共厕所,中高路与开发区路交叉口西100米,北京市,北京市,怀柔区,116.6791049,40.30006433
公共厕所,公共设施,公共厕所,公共厕所,中高路与北晨路交叉口东100米,北京市,北京市,怀柔区,116.6807218,40.2969051
公共厕所,公共设施,公共厕所,公共厕所,,北京市,北京市,怀柔区,116.6844931,40.29979356
公共厕所,公共设施,公共厕所,公共厕所,大小路北50米,北京市,北京市,怀柔区,116.7190031,40.30060547
公共厕所,公共设施,公共厕所,公共厕所,大小路北50米,北京市,北京市,怀柔区,116.7224378,40.29990264
公共厕所,公共设施,公共厕所,公共厕所,,北京市,北京市,怀柔区,116.7328538,40.29916728
公共厕所,公共设施,公共厕所,公共厕所,如意街西100米,北京市,北京市,密云区,116.7587454,40.29333193
公共厕所,公共设施,公共厕所,公共厕所,602乡道西50米,北京市,北京市,密云区,116.7572842,40.30001261
公共厕所,公共设施,公共厕所,公共厕所,北正路与顺密路交叉口东北150米,北京市,北京市,密云区,116.7958571,40.29724978
公共厕所,公共设施,公共厕所,公共厕所,河东路南100米,北京市,北京市,密云区,116.9653791,40.29221802
公共厕所,公共设施,公共厕所,公共厕所,,北京市,北京市,密云区,116.9771261,40.29459011
公共厕所,公共设施,公共厕所,公共厕所,后西路东50米,北京市,北京市,平谷区,117.0398922,40.300395
平谷桃花海-公共厕所,公共设施,公共厕所,公共厕所,泉水峪路126号附近,北京市,北京市,平谷区,117.0772338,40.29839876
公共厕所,公共设施,公共厕所,公共厕所,泉水峪路126号附近,北京市,北京市,平谷区,117.0776842,40.29845246
平谷桃花海-公共厕所,公共设施,公共厕所,公共厕所,华西路与泉水浴北路交叉口北100米,北京市,北京市,平谷区,117.0916859,40.30001159
平谷桃花海-公共厕所,公共设施,公共厕所,公共厕所,熊儿寨平谷桃花海-老泉公园附近,北京市,北京市,平谷区,117.1270283,40.2978847
北京市四座楼市自然保护区-公共厕所,公共设施,公共厕所,公共厕所,熊南路与花峪西路交叉口东100米,北京市,北京市,平谷区,117.142785,40.29436924
公共厕所,公共设施,公共厕所,公共厕所,G6京藏高速西100米羊台子村村委会附近,北京市,北京市,昌平区,116.0176471,40.28583927
居庸关-公共厕所,公共设施,公共厕所,公共厕所,216省道西50米,北京市,北京市,昌平区,116.0665389,40.28986061
公共厕所,公共设施,公共厕所,公共厕所,居庸关村二一六省道居庸关长城内,北京市,北京市,昌平区,116.0600617,40.28952601
公共厕所,公共设施,公共厕所,公共厕所,南口镇居庸关村二一六省道居庸关长城内,北京市,北京市,昌平区,116.0713795,40.28350003
公共厕所,公共设施,公共厕所,公共厕所,昭陵路与环陵路交叉口东北150米,北京市,北京市,昌平区,116.2138431,40.28785196
公共厕所,公共设施,公共厕所,公共厕所,十三陵特区昭陵路昭陵内,北京市,北京市,昌平区,116.213797,40.28814184
公共厕所,公共设施,公共厕所,公共厕所,延寿镇昭陵定陵机场路御馨园西450米,北京市,北京市,昌平区,116.2261758,40.28862522
公共厕所,公共设施,公共厕所,公共厕所,献陵路与环陵路交叉口南200米,北京市,北京市,昌平区,116.2275064,40.2883291
公共厕所,公共设施,公共厕所,公共厕所,昭陵路南50米,北京市,北京市,昌平区,116.2199308,40.28763579
公共厕所,公共设施,公共厕所,公共厕所,延寿镇定陵机场路红梅翠竹院南150米,北京市,北京市,昌平区,116.229018,40.28832394
公共厕所,公共设施,公共厕所,公共厕所,七昭路西50米,北京市,北京市,昌平区,116.2268795,40.28178918
公共厕所,公共设施,公共厕所,公共厕所,定陵机场路与昭陵路交叉口西100米,北京市,北京市,昌平区,116.232182,40.28827246
公共厕所,公共设施,公共厕所,公共厕所,古石桥附近,北京市,北京市,昌平区,116.2298018,40.28822637
公共厕所,公共设施,公共厕所,公共厕所,七昭路与河滩东路交叉口北100米,北京市,北京市,昌平区,116.2310956,40.28334709
公共厕所,公共设施,公共厕所,公共厕所,延寿镇环陵路十三陵永陵西南200米,北京市,北京市,昌平区,116.2471627,40.2852542
公共厕所,公共设施,公共厕所,公共厕所,德陵路西50米,北京市,北京市,昌平区,116.2535657,40.28330193
公共厕所,公共设施,公共厕所,公共厕所,德陵路与环陵路交叉口东50米,北京市,北京市,昌平区,116.24987,40.28448584
公共厕所,公共设施,公共厕所,公共厕所,环陵路北50米,北京市,北京市,昌平区,116.2628841,40.28771974
公共厕所,公共设施,公共厕所,公共厕所,环陵路南50米,北京市,北京市,昌平区,116.2688004,40.28660709
公共厕所,公共设施,公共厕所,公共厕所,,北京市,北京市,昌平区,116.2760286,40.28637856
公共厕所,公共设施,公共厕所,公共厕所,安四路南150米,北京市,北京市,昌平区,116.3503314,40.28543786
公共厕所,公共设施,公共厕所,公共厕所,安四路西150米,北京市,北京市,昌平区,116.3568246,40.28388726
公共厕所,公共设施,公共厕所,公共厕所,安四路与桃下路交叉口西150米,北京市,北京市,昌平区,116.3576053,40.2835992
公共厕所,公共设施,公共厕所,公共厕所,安四路东50米,北京市,北京市,昌平区,116.3569866,40.28185747
公共厕所,公共设施,公共厕所,公共厕所,桃下路西50米,北京市,北京市,昌平区,116.3578021,40.28982751
公共厕所,公共设施,公共厕所,公共厕所,桃下路南50米,北京市,北京市,昌平区,116.3603817,40.29076371
公共厕所,公共设施,公共厕所,公共厕所,怀长路与桥平路交叉口东南200米,北京市,北京市,怀柔区,116.5740131,40.28862471
公共厕所,公共设施,公共厕所,公共厕所,怀长路与桥平路交叉口东南150米,北京市,北京市,怀柔区,116.573907,40.28888657
公共厕所,公共设施,公共厕所,公共厕所,怀长路北50米,北京市,北京市,怀柔区,116.5749456,40.29044901
公共厕所,公共设施,公共厕所,公共厕所,,北京市,北京市,怀柔区,116.6067933,40.28423066
公共厕所,公共设施,公共厕所,公共厕所,庙城镇附近,北京市,北京市,怀柔区,116.6169551,40.28761945
公共厕所,公共设施,公共厕所,公共厕所,富密路西150米,北京市,北京市,怀柔区,116.6102312,40.28444319
公共厕所,公共设施,公共厕所,公共厕所,京密路与庙高路交叉口西南150米,北京市,北京市,怀柔区,116.635056,40.28676509
公共厕所,公共设施,公共厕所,公共厕所,庙高路东200米,北京市,北京市,怀柔区,116.6488629,40.28850532
公共厕所,公共设施,公共厕所,公共厕所,庙高路东150米,北京市,北京市,怀柔区,116.6535931,40.2872369
公共厕所,公共设施,公共厕所,公共厕所,,北京市,北京市,怀柔区,116.6567434,40.28646616
公共厕所,公共设施,公共厕所,公共厕所,,北京市,北京市,怀柔区,116.6517235,40.28525082
公共厕所,公共设施,公共厕所,公共厕所,,北京市,北京市,怀柔区,116.6561842,40.28455564
公共厕所,公共设施,公共厕所,公共厕所,,北京市,北京市,怀柔区,116.6558815,40.28847433
公共厕所,公共设施,公共厕所,公共厕所,庙高路北50米,北京市,北京市,怀柔区,116.651075,40.28727456
公共厕所,公共设施,公共厕所,公共厕所,庙高路北50米,北京市,北京市,怀柔区,116.6497307,40.28732401
公共厕所,公共设施,公共厕所,公共厕所,怀昌联线附近,北京市,北京市,怀柔区,116.6520889,40.28961316
公共厕所,公共设施,公共厕所,公共厕所,,北京市,北京市,怀柔区,116.6515871,40.28308156
公共厕所,公共设施,公共厕所,公共厕所,,北京市,北京市,怀柔区,116.6503488,40.2889855
公共厕所,公共设施,公共厕所,公共厕所,,北京市,北京市,怀柔区,116.6562652,40.2906801
公共厕所,公共设施,公共厕所,公共厕所,庙高路北京宏金运达租赁有限公司东,北京市,北京市,怀柔区,116.6493742,40.28302862
公共厕所,公共设施,公共厕所,公共厕所,227省道西200米,北京市,北京市,怀柔区,116.6660549,40.28551254
公共厕所,公共设施,公共厕所,公共厕所,凤翔大街与和平街交叉口东南50米,北京市,北京市,怀柔区,116.6729213,40.28544838
公共厕所,公共设施,公共厕所,公共厕所,和平街与和平路交叉口北200米,北京市,北京市,怀柔区,116.6784604,40.28668965
公共厕所,公共设施,公共厕所,公共厕所,和平街与和平路交叉口北200米,北京市,北京市,怀柔区,116.6787656,40.2865841
公共厕所,公共设施,公共厕所,公共厕所,中高路与怀耿路交叉口西100米,北京市,北京市,怀柔区,116.6781719,40.28905765
北京益田影人花园酒店-洗手间,公共设施,公共厕所,公共厕所,杨宋镇怀耿路122号中影基地东侧,北京市,北京市,怀柔区,116.6699522,40.28971109
公共厕所,公共设施,公共厕所,公共厕所,怀耿路北50米,北京市,北京市,怀柔区,116.684997,40.28922713
公共厕所,公共设施,公共厕所,公共厕所,怀耿路杨宋庄村活动中心东南200米,北京市,北京市,怀柔区,116.6807228,40.28905992
