名称,大类,中类,小类,地址,省,市,区,WGS84_经度,WGS84_纬度
官帽山村,商务住宅,商务住宅相关,商务住宅相关,庄喇路附近,北京市,北京市,怀柔区,116.5850146,40.89557545
北沙滩1号院甲20-7号,商务住宅,住宅区,住宅区,,北京市,北京市,怀柔区,116.7649446,40.82709903
怀柔・长哨营・赵家湾都市型农业产业园,商务住宅,产业园区,产业园区,京加路北50米,北京市,北京市,怀柔区,116.7458114,40.79592104
泰和人家山景四合院别墅,商务住宅,住宅区,住宅区,长哨营满族乡,北京市,北京市,怀柔区,116.7402956,40.79376502
怀柔・长哨营・老西沟都市型农业产业园,商务住宅,产业园区,产业园区,京加路北50米,北京市,北京市,怀柔区,116.7220069,40.7843205
上马沟,商务住宅,住宅区,住宅区,,北京市,北京市,延庆区,116.4829737,40.75174252
北京繁星小院联排别墅,商务住宅,住宅区,住宅区,庄户沟门村,北京市,北京市,怀柔区,116.6236766,40.73183836
东帽湾村文化活动中心,商务住宅,住宅区,社区中心,东兴街北50米东帽湾村村委会附近,北京市,北京市,怀柔区,116.6184957,40.72639835
老道沟,商务住宅,住宅区,住宅区,宝碾公路西100米,北京市,北京市,怀柔区,116.5554725,40.7181525
千家店学校温馨小筑,商务住宅,住宅区,宿舍,东囤路南50米,北京市,北京市,延庆区,116.3388266,40.69091595
东店村38号院,商务住宅,商务住宅相关,商务住宅相关,东囤路与千沙公路交叉口北150米,北京市,北京市,延庆区,116.3422527,40.69427447
鑫鑫鑫家园,商务住宅,住宅区,住宅区,龙湾村50号,北京市,北京市,延庆区,116.3912653,40.6942406
宝山福地1期,商务住宅,住宅区,住宅小区,,北京市,北京市,怀柔区,116.6071102,40.69995425
古北口中学学生宿舍区,商务住宅,住宅区,宿舍,101国道密云区古北口中学附近,北京市,北京市,密云区,117.1580376,40.69150019
古北水镇青山明月居,商务住宅,商务住宅相关,商务住宅相关,河西村西大街四条6号,北京市,北京市,密云区,117.1446751,40.68670662
南菜园小区,商务住宅,住宅区,住宅小区,西横街与101国道交叉口东南100米,北京市,北京市,密云区,117.1571817,40.68652507
长城秀山雅居,商务住宅,住宅区,住宅区,古北口镇古北口民俗文化旅游村,北京市,北京市,密云区,117.1570542,40.68792786
密云区古北口镇教师公寓,商务住宅,住宅区,宿舍,东横街与西横街交叉口南50米,北京市,北京市,密云区,117.1583548,40.68678106
明德苑,商务住宅,住宅区,住宅区,古北口村西队主街20号,北京市,北京市,密云区,117.1645862,40.68398761
南上坡10号院,商务住宅,住宅区,住宅区,东队南北街西100米,北京市,北京市,密云区,117.1659758,40.68395823
雅安居,商务住宅,商务住宅相关,商务住宅相关,,北京市,北京市,密云区,117.1620963,40.68420081
古北口镇古北口村文化大院,商务住宅,住宅区,社区中心,古北口村西队主街19号,北京市,北京市,密云区,117.1637385,40.68423386
东队新村,商务住宅,住宅区,住宅区,古北口村,北京市,北京市,密云区,117.1725557,40.6820678
狼虎哨村高家大院,商务住宅,商务住宅相关,商务住宅相关,琉璃庙镇狼虎哨村30号,北京市,北京市,怀柔区,116.6889546,40.67134279
怀柔狼虎哨名俗村10号院,商务住宅,楼宇,商务写字楼,白河湾怀柔区琉璃庙镇狼虎哨村民委员会,北京市,北京市,怀柔区,116.6916805,40.67148208
古北口镇潮关村文化大院,商务住宅,住宅区,社区中心,古北口镇潮关村,北京市,北京市,密云区,117.1276063,40.6780834
库房楼,商务住宅,住宅区,住宅区,,北京市,北京市,密云区,117.2279418,40.678366
小黄木厂村,商务住宅,商务住宅相关,商务住宅相关,一五六乡道,北京市,北京市,怀柔区,116.5699646,40.66494316
北京白河湾12号院,商务住宅,商务住宅相关,商务住宅相关,琉璃庙镇白河北村12号近白河湾漂流,北京市,北京市,怀柔区,116.6774534,40.66286227
51号院,商务住宅,住宅区,住宅区,,北京市,北京市,怀柔区,116.6776538,40.66260707
30号院,商务住宅,住宅区,住宅区,,北京市,北京市,怀柔区,116.6781085,40.66256924
21号院,商务住宅,住宅区,住宅区,,北京市,北京市,怀柔区,116.6779321,40.66244765
白河北27号院,商务住宅,商务住宅相关,商务住宅相关,白河北村,北京市,北京市,怀柔区,116.6769707,40.66290515
北京白河湾23号院,商务住宅,商务住宅相关,商务住宅相关,琉璃庙镇白河北村23号院,北京市,北京市,怀柔区,116.6769727,40.66291214
24号院,商务住宅,住宅区,住宅区,,北京市,北京市,怀柔区,116.6784347,40.6623208
26号院,商务住宅,住宅区,住宅区,,北京市,北京市,怀柔区,116.6787827,40.66232415
北京天河芝美白河湾3号院,商务住宅,商务住宅相关,商务住宅相关,白河北村3号院,北京市,北京市,怀柔区,116.6779261,40.66211389
北京白河湾32号院,商务住宅,商务住宅相关,商务住宅相关,白河北村32号院,北京市,北京市,怀柔区,116.6779848,40.66297021
19号院,商务住宅,商务住宅相关,商务住宅相关,琉璃庙镇白河湾新村19号院,北京市,北京市,怀柔区,116.6776479,40.66239522
20号院,商务住宅,商务住宅相关,商务住宅相关,,北京市,北京市,怀柔区,116.6778194,40.66237092
13号院,商务住宅,商务住宅相关,商务住宅相关,,北京市,北京市,怀柔区,116.6782632,40.66221119
14号院,商务住宅,商务住宅相关,商务住宅相关,,北京市,北京市,怀柔区,116.6784397,40.66214591
16号院,商务住宅,商务住宅相关,商务住宅相关,,北京市,北京市,怀柔区,116.6787827,40.66213328
北京白河湾8号院,商务住宅,商务住宅相关,商务住宅相关,琉璃庙镇白河北村8号院,北京市,北京市,怀柔区,116.6784537,40.66155528
白河湾民俗村53号院,商务住宅,楼宇,商务写字楼,白河湾村,北京市,北京市,怀柔区,116.6910591,40.67095747
北京望得见的花园小院四合院,商务住宅,住宅区,住宅区,头道沟村,北京市,北京市,密云区,117.3450094,40.66290409
狼道峪,商务住宅,住宅区,住宅区,三一二市道,北京市,北京市,密云区,117.4264811,40.66169394
湖畔越越,商务住宅,商务住宅相关,商务住宅相关,前安岭村,北京市,北京市,怀柔区,116.6581506,40.6564125
八宝堂民俗院11号院,商务住宅,商务住宅相关,商务住宅相关,琉璃庙镇八宝堂村,北京市,北京市,怀柔区,116.6744642,40.65284456
八宝堂民俗院10号院,商务住宅,商务住宅相关,商务住宅相关,琉璃庙镇八宝堂村10号,北京市,北京市,怀柔区,116.6761793,40.65259149
北京白河湾青石岭村66号院,商务住宅,商务住宅相关,商务住宅相关,青石岭村66号院,北京市,北京市,怀柔区,116.6960857,40.65290433
谷中馨居,商务住宅,商务住宅相关,商务住宅相关,古北口镇沙岭,北京市,北京市,密云区,117.2050399,40.65261569
北京诗境家园,商务住宅,住宅区,住宅区,司马台沙岭村73-1古北水镇外,北京市,北京市,密云区,117.2107249,40.65478817
北京庭安居民俗院29-4号,商务住宅,商务住宅相关,商务住宅相关,古北口镇司马台新村小岭29-4号(古北水镇外),北京市,北京市,密云区,117.2271484,40.65751662
北京司马台诗境家园,商务住宅,住宅区,住宅区,司马台沙岭村73-1古北水镇外,北京市,北京市,密云区,117.2368823,40.65651626
庭院小筑,商务住宅,商务住宅相关,商务住宅相关,司马台村沙岭73-2,北京市,北京市,密云区,117.2367883,40.65651025
司马台山水城,商务住宅,商务住宅相关,商务住宅相关,二区干二路沙岭63-1,北京市,北京市,密云区,117.2371513,40.65592671
八骏居,商务住宅,商务住宅相关,商务住宅相关,沿河景观路7-4号,北京市,北京市,密云区,117.2385741,40.65513451
北京沙岭别墅,商务住宅,住宅区,别墅,古北镇沙岭新村22-2号,北京市,北京市,密云区,117.241372,40.6571355
和顺家园,商务住宅,住宅区,住宅小区,古北水镇景区司马台新村蔡家窝铺4-2,北京市,北京市,密云区,117.2437206,40.65290833
北京古北水镇源著得利复式公寓二区干一路分店,商务住宅,住宅区,住宅区,司马台村沙岭41-2司马台民俗村,北京市,北京市,密云区,117.2412061,40.65674874
常富居,商务住宅,商务住宅相关,商务住宅相关,古北水镇民俗村沙岭40号别墅,北京市,北京市,密云区,117.23953,40.65422225
亿亨亿墅,商务住宅,住宅区,别墅|住宿服务,司马台新村沙岭41-1号民俗188号,北京市,北京市,密云区,117.2398079,40.65433421
北京桥香居民俗古北水镇复式公寓二区干一路分店,商务住宅,住宅区,住宅区,古北水镇司马台民俗村沙岭,北京市,北京市,密云区,117.2399806,40.65602512
沙岭别墅27号,商务住宅,商务住宅相关,商务住宅相关,司马台长城沙岭别墅27-4,北京市,北京市,密云区,117.2410053,40.65610715
北京独栋山景别墅,商务住宅,住宅区,住宅区,曹家路塔沟1号,北京市,北京市,密云区,117.4101777,40.65476817
西湾子村,商务住宅,商务住宅相关,商务住宅相关,西湾子村村委会,北京市,北京市,怀柔区,116.6306465,40.64246095
唯乐途芬芳庭院,商务住宅,商务住宅相关,商务住宅相关,双文铺村33号,北京市,北京市,怀柔区,116.6640268,40.6482606
双文铺村53号院,商务住宅,商务住宅相关,商务住宅相关,双文铺村,北京市,北京市,怀柔区,116.6628281,40.64946912
北京白河湾徐春平民俗37号院,商务住宅,商务住宅相关,商务住宅相关,琉璃庙镇双文铺村37号,北京市,北京市,怀柔区,116.6646011,40.64891107
长青农家园,商务住宅,住宅区,住宅区,古北口镇汤河村北大街63号内1号,北京市,北京市,密云区,117.203769,40.64781117
北京亚华四合院,商务住宅,商务住宅相关,商务住宅相关,汤河村,北京市,北京市,密云区,117.2056664,40.64689624
北京司马台新村龙祥人家,商务住宅,商务住宅相关,商务住宅相关,宋庄宋庄古北口镇小岭村18-1,北京市,北京市,密云区,117.2043316,40.64846948
北京水镇5号别苑,商务住宅,商务住宅相关,商务住宅相关,"古北口镇汤河村东街5号,近104县道",北京市,北京市,密云区,117.203098,40.64880062
员工宿舍,商务住宅,住宅区,宿舍,古北口镇古北水镇景区内,北京市,北京市,密云区,117.2583801,40.64640908
北京优悠度假逸墅,商务住宅,住宅区,别墅,古北水镇龙湖长城原着一号院(近古北水镇售票大厅景区入口),北京市,北京市,密云区,117.2615272,40.64593339
龙湖长城源著,商务住宅,住宅区,住宅小区,司水路,北京市,北京市,密云区,117.2634674,40.64703226
北京闲来小筑叠拼别墅,商务住宅,住宅区,住宅区,古北口镇司马台村,北京市,北京市,密云区,117.2620276,40.6456882
北京在水一方79复式,商务住宅,住宅区,住宅区,古北口镇长城源著小区北京东临・别树一阁度假公寓长城源著店,北京市,北京市,密云区,117.2620605,40.64546832
北京清新家园复式公寓,商务住宅,住宅区,住宅区,京承高速司马台长城出口向北2公里古北水镇内龙湖长城源著17号楼,北京市,北京市,密云区,117.2618129,40.64544151
北京古北水镇安然小舍复式,商务住宅,住宅区,住宅区,京承高速司马台长城出口向北2公里(古北水镇内)龙湖长城源著,北京市,北京市,密云区,117.2619746,40.64576718
北京凤阁别墅,商务住宅,住宅区,住宅区,古北口镇古北水镇龙湖别墅15号楼111室,北京市,北京市,密云区,117.2641752,40.64792113
北京依山居洋房复式,商务住宅,商务住宅相关,商务住宅相关,古北口镇司马台村1号院,北京市,北京市,密云区,117.2620435,40.64572416
北京古北水镇北美风情复式墅质洋房复式,商务住宅,住宅区,住宅区,司马台村,北京市,北京市,密云区,117.2620895,40.64554425
北京古北水镇希腊艺术观景公寓(源著),商务住宅,住宅区,住宅区,京承高速司马台长城出口向北2公里龙湖长城源著,北京市,北京市,密云区,117.2618129,40.64544151
北京古北水镇清幽阁亲子复式公寓分店,商务住宅,住宅区,住宅区,京承高速司马台长城出口向北2公里(古北水镇内)龙湖长城源著,北京市,北京市,密云区,117.2618129,40.64544151
北京远方的家-司马台古北水镇复式洋房普通公寓,商务住宅,住宅区,住宅区,京承高速司马台长城出口向北2公里(古北水镇内)龙湖长城源著,北京市,北京市,密云区,117.2618129,40.64544151
古北水镇莉然小舍双露台别墅,商务住宅,商务住宅相关,商务住宅相关,古北水镇,北京市,北京市,密云区,117.2638816,40.64804728
北京水镇Paradise复式公寓龙湖长城源著店,商务住宅,商务住宅相关,商务住宅相关,"北口镇司马台村1号院龙湖长城源著1-106,司马台长城",北京市,北京市,密云区,117.2618129,40.64544151
古北水镇龙湖山狼部落叠拼别墅,商务住宅,商务住宅相关,商务住宅相关,司水路附近,北京市,北京市,密云区,117.2638237,40.64838011
新城子乡社区,商务住宅,住宅区,住宅小区,445村道与554县道交叉口西南150米,北京市,北京市,密云区,117.3303239,40.64277203
乡野别墅,商务住宅,商务住宅相关,商务住宅相关,雾灵山国家森林公园西门,北京市,北京市,密云区,117.4180655,40.64823493
花园12号,商务住宅,住宅区,住宅区,251乡道北50米,北京市,北京市,密云区,117.4779374,40.64810184
花园10号,商务住宅,住宅区,住宅区,251乡道北50米,北京市,北京市,密云区,117.4782706,40.6482537
雾灵涧栖木墅,商务住宅,住宅区,别墅,,北京市,北京市,密云区,117.4854556,40.64850558
花园民俗村,商务住宅,商务住宅相关,商务住宅相关,花园村,北京市,北京市,密云区,117.4792632,40.64885718
松树楼,商务住宅,住宅区,住宅区,茨沟路,北京市,北京市,延庆区,116.1926595,40.63801511
合堂村文化娱乐中心,商务住宅,住宅区,社区中心,四合堂村委会附近,北京市,北京市,密云区,116.7402617,40.64018564
北京密云灵岫花园,商务住宅,商务住宅相关,商务住宅相关,新城子乡遥桥峪(253乡道雾灵湖西侧),北京市,北京市,密云区,117.3757061,40.63850172
雾灵山红色家园,商务住宅,住宅区,住宅区,雾灵山森灵公园北门,北京市,北京市,密云区,117.4264833,40.63880697
西杨树洼,商务住宅,住宅区,住宅区,桃条沟路,北京市,北京市,延庆区,116.5219372,40.62850231
东杨树洼,商务住宅,住宅区,住宅区,桃条沟路,北京市,北京市,延庆区,116.5312591,40.62852512
北京王利敏民俗6号院,商务住宅,商务住宅相关,商务住宅相关,琉璃庙双文铺村6号,北京市,北京市,怀柔区,116.6473243,40.62781108
半城子一小区48号,商务住宅,住宅区,住宅小区,后半路西100米,北京市,北京市,密云区,117.0335508,40.62310417
半城子三小区7号,商务住宅,住宅区,住宅小区,后半路北100米,北京市,北京市,密云区,117.0301885,40.62496528
半城子三小区3号,商务住宅,住宅区,住宅小区,后半路北100米,北京市,北京市,密云区,117.030056,40.62495962
半城子一小区83号,商务住宅,住宅区,住宅小区,后半路半城子村附近,北京市,北京市,密云区,117.0342622,40.6227127
半城子一小区46号,商务住宅,住宅区,住宅小区,后半路西150米,北京市,北京市,密云区,117.0341865,40.62224318
半城子一小区7号,商务住宅,住宅区,住宅区,后半路与黄下路交叉口西100米,北京市,北京市,密云区,117.0352935,40.6213651
半城子一小区61号,商务住宅,商务住宅相关,商务住宅相关,后半路与黄下路交叉口西北200米,北京市,北京市,密云区,117.0345293,40.62215941
北杨树台,商务住宅,住宅区,住宅区,三一零市道,北京市,北京市,密云区,116.6945719,40.61839684
团山子一小区1号,商务住宅,住宅区,住宅小区,,北京市,北京市,密云区,117.0228519,40.61132591
司马台密红小院公寓,商务住宅,商务住宅相关,商务住宅相关,太师屯镇马场村39号,北京市,北京市,密云区,117.2584036,40.62045363
山水艺墅,商务住宅,商务住宅相关,商务住宅相关,琉辛路西50米,北京市,北京市,密云区,116.7844465,40.60266339
白河涧别墅,商务住宅,住宅区,别墅,密溪路滨河大桥北800米,北京市,北京市,密云区,117.0854487,40.60989415
北边,商务住宅,住宅区,住宅区,,北京市,北京市,密云区,117.3658545,40.60350646
芸茵园,商务住宅,商务住宅相关,商务住宅相关,太师屯镇后南台村,北京市,北京市,密云区,117.1690115,40.59674514
五指山汽车露营基地,商务住宅,商务住宅相关,商务住宅相关,香龙路刘斌堡村北2000米,北京市,北京市,延庆区,116.199123,40.58290863
江米城,商务住宅,住宅区,住宅区,二五七乡道,北京市,北京市,密云区,117.2703616,40.58701338
南东洼,商务住宅,住宅区,住宅区,二五七乡道,北京市,北京市,密云区,117.2889638,40.58177069
新庄堡村1区,商务住宅,住宅区,住宅小区,香刘公路北100米,北京市,北京市,延庆区,116.173558,40.573324
信英家园,商务住宅,住宅区,住宅区,珍珠山水人家41号,北京市,北京市,延庆区,116.4558791,40.57364541
北京云蒙山吉祥家园,商务住宅,住宅区,住宅区,后山铺村南树林48号,北京市,北京市,怀柔区,116.678466,40.57318297
石匣水土保持科技示范园区,商务住宅,商务住宅相关,商务住宅相关,芹菜岭村委会北185米,北京市,北京市,密云区,117.0708154,40.5782799
文化大院,商务住宅,住宅区,住宅小区,桑园村松曹路密云区桑园小学附近,北京市,北京市,密云区,117.1457579,40.5767613
北京市延庆区香营乡温馨家园,商务住宅,住宅区,住宅区,S212(昌赤路),北京市,北京市,延庆区,116.138265,40.56994265
龙悦山庄,商务住宅,商务住宅相关,商务住宅相关,,北京市,北京市,延庆区,116.4365084,40.56193234
云居不老苑,商务住宅,住宅区,住宅区,小漕村2号,北京市,北京市,密云区,117.1030391,40.57064202
北京龙庆峡金定府农家别墅,商务住宅,住宅区,住宅区,旧县镇古城村界碑石一号,北京市,北京市,延庆区,116.0238729,40.55471567
吉祥花园,商务住宅,住宅区,住宅小区,大吉祥村公交车站对面,北京市,北京市,延庆区,116.3446884,40.55797584
林香家园(珍珠泉村店),商务住宅,住宅区,住宅区,珍珠泉村222号,北京市,北京市,延庆区,116.4191377,40.55808226
延庆区有机农业示范区,商务住宅,产业园区,产业园区,旧县镇米粮屯旧小路绿富隆观光园,北京市,北京市,延庆区,116.0586537,40.54807102
建雄小区,商务住宅,住宅区,住宅小区,旧县镇1巷,北京市,北京市,延庆区,116.0790987,40.54937513
义宾北区甲1-5号,商务住宅,商务住宅相关,商务住宅相关,城南街15号附近,北京市,北京市,延庆区,116.0872254,40.5486553
桃园新区,商务住宅,住宅区,住宅小区,密关路东50米,北京市,北京市,密云区,116.8163682,40.54425468
富贵园,商务住宅,住宅区,住宅小区,密关路石城镇成人学校南侧,北京市,北京市,密云区,116.8155245,40.54462792
同心家园,商务住宅,住宅区,住宅小区,石塘路村203号,北京市,北京市,密云区,116.8157922,40.54344504
清凉谷黑龙潭旭日家园,商务住宅,住宅区,住宅区,石城镇北石城村54号,北京市,北京市,密云区,116.8122559,40.54818198
工业园路,商务住宅,产业园区,产业园区,工业园路北50米,北京市,北京市,密云区,117.1157637,40.5428854
北山小区,商务住宅,住宅区,住宅小区,太师屯镇,北京市,北京市,密云区,117.1221508,40.5439876
转洼,商务住宅,住宅区,住宅区,,北京市,北京市,密云区,117.186923,40.54122064
龙城馨苑,商务住宅,住宅区,住宅小区,旧县镇龙庆峡古城民俗村北外大街26号附近,北京市,北京市,延庆区,116.0136788,40.54092852
旧县古城旅游民俗村123号院,商务住宅,住宅区,住宅区,古城村,北京市,北京市,延庆区,116.0164379,40.54062878
旧县古城旅游民俗村150号院,商务住宅,商务住宅相关,商务住宅相关,旧县古城旅游民俗村,北京市,北京市,延庆区,116.0167211,40.5400113
旧县古城旅游民俗村83号院,商务住宅,商务住宅相关,商务住宅相关,古城村,北京市,北京市,延庆区,116.0169483,40.5403165
太师府别墅,商务住宅,住宅区,住宅区,太师屯镇滨河路9号院,北京市,北京市,密云区,117.1149972,40.53520273
正阳小区,商务住宅,住宅区,住宅小区,永安街密云区第二医院南100米,北京市,北京市,密云区,117.1236928,40.53342099
永安家园,商务住宅,住宅区,住宅小区,密云京密路南太师屯镇中心街,北京市,北京市,密云区,117.1196621,40.53981001
大坡南峪,商务住宅,住宅区,住宅区,,北京市,北京市,密云区,117.1799068,40.53920447
龙聚山庄北区,商务住宅,住宅区,住宅小区,,北京市,北京市,延庆区,115.9580392,40.52299428
龙聚山庄中区,商务住宅,住宅区,住宅小区,靳家堡,北京市,北京市,延庆区,115.9552381,40.52128512
山水闲庭,商务住宅,商务住宅相关,商务住宅相关,龙庆峡上郝庄新村别墅区1号楼底商,北京市,北京市,延庆区,116.0187177,40.52501446
夏都湾,商务住宅,住宅区,住宅小区,上郝庄村,北京市,北京市,延庆区,116.0210166,40.52435142
缙阳小区,商务住宅,住宅区,住宅小区,永宁镇政府北60米(昌赤路西),北京市,北京市,延庆区,116.1567369,40.52928953
孔化营东区8号,商务住宅,住宅区,住宅区,滨河北路与盛西路交叉口东北50米,北京市,北京市,延庆区,116.1535587,40.52372657
北街社区,商务住宅,住宅区,住宅小区,永宁镇拱辰街11号,北京市,北京市,延庆区,116.1585895,40.52668528
拖拉机站小区,商务住宅,住宅区,住宅小区,昌赤路,北京市,北京市,延庆区,116.1654268,40.52794437
燕羽山庄,商务住宅,住宅区,住宅区,永宁镇拱辰街40号,北京市,北京市,延庆区,116.1598041,40.52586495
安阔国际,商务住宅,商务住宅相关,商务住宅相关,拱辰街50号附近,北京市,北京市,延庆区,116.1595464,40.52557762
北关新区,商务住宅,住宅区,住宅区,延琉路与昌赤路交叉口北150米,北京市,北京市,延庆区,116.1605547,40.5294685
四海敌楼,商务住宅,商务住宅相关,商务住宅相关,延琉路西200米,北京市,北京市,延庆区,116.4086718,40.52373316
舒彤院,商务住宅,商务住宅相关,商务住宅相关,密关路东100米,北京市,北京市,密云区,116.8112233,40.5220927
东莱园,商务住宅,住宅区,住宅区,,北京市,北京市,密云区,116.9884656,40.52512603
温馨同行家园,商务住宅,住宅区,住宅区,002县道北100米,北京市,北京市,密云区,117.0983587,40.52532265
龙聚山庄一期,商务住宅,住宅区,住宅小区,县城正北6.5公里处,北京市,北京市,延庆区,115.8952865,40.51231799
靳家堡1区,商务住宅,住宅区,住宅小区,京银路与018县道交叉口西100米,北京市,北京市,延庆区,115.9324832,40.5176269
龙聚山庄,商务住宅,住宅区,别墅,靳家堡,北京市,北京市,延庆区,115.9555523,40.52095651
龙聚山庄东南区,商务住宅,住宅区,住宅小区,张山营镇龙聚山庄,北京市,北京市,延庆区,115.9592373,40.51933407
养殖小区路,商务住宅,住宅区,住宅区,养殖小区路西50米,北京市,北京市,延庆区,116.0573247,40.51833747
龙湾露营公园木屋别墅D型,商务住宅,住宅区,别墅,,北京市,北京市,延庆区,116.0859235,40.51582762
龙湾露营公园木屋别墅B型,商务住宅,住宅区,别墅,旧县镇东龙湾村南200米,北京市,北京市,延庆区,116.0925736,40.51526107
露营公园二居木屋别墅,商务住宅,住宅区,住宅区,中街二巷与中街六巷交叉口西100米,北京市,北京市,延庆区,116.0932272,40.51305619
隆庆山庄,商务住宅,住宅区,住宅区,旧县镇上磨团山路,北京市,北京市,延庆区,116.1015324,40.51398961
新华营2区291号,商务住宅,商务住宅相关,商务住宅相关,延琉路北150米,北京市,北京市,延庆区,116.1193071,40.51895638
新华营2区271号,商务住宅,商务住宅相关,商务住宅相关,,北京市,北京市,延庆区,116.1197368,40.51971646
三里墩(招呼站),商务住宅,商务住宅相关,商务住宅相关,S323(延琉路),北京市,北京市,延庆区,116.1339691,40.51978381
碧森低碳农业技术及循环经济示范园,商务住宅,产业园区,产业园区,永宁镇昌赤路华都食品公司向南300米路东,北京市,北京市,延庆区,116.1846882,40.51351075
五座楼塔楼,商务住宅,商务住宅相关,商务住宅相关,,北京市,北京市,密云区,116.7837369,40.51531253
太师屯壹号院,商务住宅,住宅区,住宅区,101国道白龙潭2.7公里青龙阁南1公里,北京市,北京市,密云区,117.0847534,40.51438437
涿鹿温馨家园,商务住宅,商务住宅相关,商务住宅相关,下坂泉东一巷附近,北京市,北京市,延庆区,115.8919513,40.50512123
金蜗牛龙湾(建设中),商务住宅,商务住宅相关,商务住宅相关,旧县镇金牛湖畔近东龙湾村,北京市,北京市,延庆区,116.0858053,40.50960872
龙湾露营公园复式木屋别墅3号,商务住宅,住宅区,别墅,旧县镇东龙湾村南200米,北京市,北京市,延庆区,116.0938317,40.50465433
北京龙湾国际露营公园木屋别墅E型3号,商务住宅,商务住宅相关,商务住宅相关,旧县镇东龙湾村南200米(龙湾国际露营公园内),北京市,北京市,延庆区,116.0914214,40.50531096
北京南山健源农业生态产业园,商务住宅,产业园区,产业园区,永宁镇盛世营村东南1400米,北京市,北京市,延庆区,116.1536636,40.50433136
桑树峪,商务住宅,住宅区,住宅区,零一五县道,北京市,北京市,延庆区,116.2993769,40.50184796
石门山集装箱住宿区,商务住宅,住宅区,住宅区,怀北镇椴树岭村峪道河自然村1号,北京市,北京市,怀柔区,116.6607019,40.51068305
云水花溪,商务住宅,商务住宅相关,商务住宅相关,梨树沟村(近五座楼森林公园),北京市,北京市,密云区,116.8108153,40.50808892
四合颐园,商务住宅,商务住宅相关,商务住宅相关,沙太路附近,北京市,北京市,密云区,117.1736959,40.50476159
花园领地,商务住宅,住宅区,住宅区,新辰路20号,北京市,北京市,延庆区,116.0126709,40.49664565
金隅天坛延庆生产基地,商务住宅,产业园区,产业园区,,北京市,北京市,延庆区,116.0506096,40.49208345
南庄南沟,商务住宅,住宅区,住宅区,,北京市,北京市,密云区,117.1559069,40.49736305
建东小区甲3号,商务住宅,住宅区,住宅区,延庆镇孟庄村建东小区甲3号,北京市,北京市,延庆区,115.9644343,40.48663213
老仁庄新村,商务住宅,住宅区,住宅小区,香苑街与014县道交汇处西南150米,北京市,北京市,延庆区,115.9759229,40.48618198
王致和腐乳生产基地,商务住宅,产业园区,产业园区,八峪路西100米,北京市,北京市,延庆区,116.0332506,40.48310561
天成家园,商务住宅,住宅区,住宅小区,沈家营镇延琉路与八峪路交汇处,北京市,北京市,延庆区,116.0360224,40.48226139
沈馨佳苑,商务住宅,住宅区,住宅小区,001县道与八峪路交汇处东侧,北京市,北京市,延庆区,116.0403638,40.48883553
沈家营村2区8号,商务住宅,商务住宅相关,商务住宅相关,,北京市,北京市,延庆区,116.0462831,40.48516987
宝林寺2区,商务住宅,住宅区,住宅小区,宝林寺二区26号楼(滨河南路南),北京市,北京市,延庆区,116.0941025,40.48452384
恒安西嫩田园综合体,商务住宅,商务住宅相关,商务住宅相关,永四路附近,北京市,北京市,延庆区,116.1649068,40.48524615
恒安养老帮扶社区,商务住宅,商务住宅相关,商务住宅相关,永四路附近,北京市,北京市,延庆区,116.1615365,40.48360061
玫瑰苑,商务住宅,住宅区,别墅,环支路附近,北京市,北京市,密云区,116.82051,40.49018541
辉煌・云上,商务住宅,住宅区,住宅区,张山营镇古龙路66号,北京市,北京市,延庆区,115.8067156,40.47488845
云上的VILLA,商务住宅,住宅区,住宅区,松山风景区辉煌国际度假区,北京市,北京市,延庆区,115.8067226,40.47488847
欲全楼,商务住宅,商务住宅相关,商务住宅相关,北辛堡村,北京市,北京市,延庆区,115.8210758,40.47710684
温泉馨苑,商务住宅,住宅区,住宅小区,延庆镇,北京市,北京市,延庆区,115.9671992,40.47592046
东方假日温泉别墅,商务住宅,住宅区,住宅区,儒林街道医孟路温泉小区,北京市,北京市,延庆区,115.9627308,40.4754018
观澜国际,住宿服务,宾馆酒店,宾馆酒店|商务住宅,妫水北街33号,北京市,北京市,延庆区,115.9690369,40.47234494
八达岭温泉度假村温泉别墅,商务住宅,住宅区,别墅,八达岭镇,北京市,北京市,延庆区,115.9665794,40.47335031
北京金隅,商务住宅,住宅区,住宅小区,妫水北街35号附近,北京市,北京市,延庆区,115.9696548,40.47355767
观澜国际,住宿服务,宾馆酒店,宾馆酒店|商务住宅,妫水北街33号,北京市,北京市,延庆区,115.9690369,40.47234494
世爵华府,商务住宅,住宅区,住宅小区,妫水北街2号(八达岭温泉度假村对面),北京市,北京市,延庆区,115.9712009,40.47377921
火车站小区,商务住宅,住宅区,住宅小区,延庆镇,北京市,北京市,延庆区,115.9913818,40.47328243
八中学生公寓,商务住宅,住宅区,宿舍,延琉路与河广路交叉口西150米,北京市,北京市,延庆区,116.002831,40.47403125
广安家园,商务住宅,商务住宅相关,商务住宅相关,延琉路东50米,北京市,北京市,延庆区,116.0023777,40.47318
连家营2区,商务住宅,住宅区,住宅小区,滨河北路西200米,北京市,北京市,延庆区,116.0550447,40.47681781
北白岩文化活动中心,商务住宅,住宅区,社区中心,北白岩正街154号附近,北京市,北京市,密云区,116.8059381,40.47930768
东方神韵文化科技产业园,商务住宅,产业园区,产业园区,溪翁庄镇七孔桥西往南200米,北京市,北京市,密云区,116.8238693,40.47563834
溪水花园1区,商务住宅,住宅区,住宅小区,313省道南100米,北京市,北京市,密云区,116.8366064,40.4726571
碧水花园,商务住宅,住宅区,住宅小区,密关路西50米,北京市,北京市,密云区,116.8328787,40.47230352
云乡小镇TOWN街,商务住宅,住宅区,住宅区,752乡道北50米,北京市,北京市,密云区,116.8385521,40.47123019
水库管理处家属宿舍楼,商务住宅,住宅区,宿舍,溪翁庄镇,北京市,北京市,密云区,116.8371751,40.47586968
溪水花园商住小区,商务住宅,住宅区,住宅小区,313省道南100米,北京市,北京市,密云区,116.8362157,40.47278534
京溪小区,商务住宅,住宅区,住宅小区,溪翁庄,北京市,北京市,密云区,116.8485005,40.47188469
麓秀佳园,商务住宅,住宅区,住宅小区,溪翁庄密云水库南线183号,北京市,北京市,密云区,116.8396798,40.4736361
机床研究所家属院,商务住宅,住宅区,住宅区,313省道187号附近,北京市,北京市,密云区,116.8404539,40.47493787
辉煌国际度假区联排区,商务住宅,住宅区,住宅小区,古龙路,北京市,北京市,延庆区,115.8045364,40.46823754
辉煌假日联排别墅区,商务住宅,商务住宅相关,商务住宅相关,胡家营路附近,北京市,北京市,延庆区,115.8059441,40.46212967
辉煌国际花园1区,商务住宅,住宅区,住宅区,张山营镇辉煌国际会议度假区,北京市,北京市,延庆区,115.8113561,40.46457636
北关丁,商务住宅,住宅区,住宅小区,西顺城街附近,北京市,北京市,延庆区,115.9589414,40.46205953
悦安居小区,商务住宅,住宅区,住宅小区,延庆镇新白庙路1号院,北京市,北京市,延庆区,115.9506635,40.46207869
北关小区,商务住宅,住宅区,住宅小区,延庆镇,北京市,北京市,延庆区,115.961789,40.46382538
格兰山水,商务住宅,住宅区,住宅小区,延庆镇孟家庄路61号院,北京市,北京市,延庆区,115.9674807,40.46536634
温泉西里,商务住宅,住宅区,住宅小区,北街与高塔路交叉口东南,北京市,北京市,延庆区,115.9649487,40.46326518
温泉南区东里,商务住宅,住宅区,住宅小区,延庆镇,北京市,北京市,延庆区,115.9688859,40.4681842
庆园街82号院,商务住宅,住宅区,住宅小区,玉皇阁大街,北京市,北京市,延庆区,115.964977,40.46811899
尚书苑,商务住宅,住宅区,住宅小区,延庆镇,北京市,北京市,延庆区,115.9729023,40.46713128
川北小区,商务住宅,住宅区,住宅小区,延庆镇,北京市,北京市,延庆区,115.9755522,40.46254861
高塔小区,商务住宅,住宅区,住宅小区,"延庆高塔路北,延庆一中东侧",北京市,北京市,延庆区,115.9727166,40.46929986
胜芳园小区,商务住宅,住宅区,住宅小区,妫水北街与高塔路交叉口,北京市,北京市,延庆区,115.9697668,40.46277508
芳园小区,商务住宅,住宅区,住宅小区,高塔路30号附近,北京市,北京市,延庆区,115.9699691,40.46370411
天润・和丽嘉苑(建设中),商务住宅,住宅区,住宅小区,恒安中街与恒安中街三巷交叉口东50米,北京市,北京市,延庆区,115.9774662,40.4673849
会展公寓(庆园街),商务住宅,住宅区,住宅小区,庆园街南100米,北京市,北京市,延庆区,115.9759997,40.47037489
高塔,商务住宅,住宅区,住宅小区,尚书苑小区8号楼,北京市,北京市,延庆区,115.9733213,40.46430831
恒安小区北区,商务住宅,住宅区,住宅小区,庆园街,北京市,北京市,延庆区,115.9752513,40.46935952
北京八达岭国际会展中心办公楼,商务住宅,楼宇,商务写字楼,庆园街65号,北京市,北京市,延庆区,115.9724363,40.47108088
恒安小区-南区,商务住宅,住宅区,住宅区,延庆镇,北京市,北京市,延庆区,115.9763727,40.46827472
南康城售楼中心,商务住宅,商务住宅相关,商务住宅相关,高塔路267号附近,北京市,北京市,延庆区,115.9691237,40.46423026
川北西社区,商务住宅,住宅区,住宅小区,延庆镇,北京市,北京市,延庆区,115.9716889,40.46143822
川北东社区,商务住宅,住宅区,住宅小区,东外大街42号附近,北京市,北京市,延庆区,115.9786939,40.46138988
恒安搭把手社区青年汇,商务住宅,住宅区,社区中心,新城街96号附近,北京市,北京市,延庆区,115.9778784,40.4705523
辰龙庄园,商务住宅,住宅区,住宅小区,妫水北街与庆园街交叉口交汇处西北角,北京市,北京市,延庆区,115.9697528,40.47089458
圣世苑温泉大酒店B座,商务住宅,楼宇,商住两用楼宇,东外大街69号,北京市,北京市,延庆区,115.9834953,40.46388148
香苑小区,商务住宅,住宅区,住宅小区,延庆镇,北京市,北京市,延庆区,115.9871991,40.46773161
新兴小区西区,商务住宅,住宅区,住宅小区,延庆镇,北京市,北京市,延庆区,115.9810132,40.46838595
石河营小区,商务住宅,住宅区,住宅小区,东外大街9号,北京市,北京市,延庆区,115.9864593,40.46218026
北兴东社区,商务住宅,住宅区,住宅小区,高塔路北50米,北京市,北京市,延庆区,115.987804,40.46716202
房产社区,商务住宅,住宅区,住宅小区,恒安中街三巷与新城街交叉口东150米,北京市,北京市,延庆区,115.9801382,40.46781681
新兴小区东区,商务住宅,住宅区,住宅小区,延庆镇,北京市,北京市,延庆区,115.9849265,40.47100605
新兴西社区,商务住宅,住宅区,住宅小区,恒安中街三巷与新城街交叉口东南50米,北京市,北京市,延庆区,115.9790778,40.46736316
良友写字楼,商务住宅,楼宇,商务写字楼,延庆镇东外大街61号,北京市,北京市,延庆区,115.9873331,40.46365498
北京移动延庆新综合楼,商务住宅,商务住宅相关,商务住宅相关,高塔路北100米,北京市,北京市,延庆区,115.9814998,40.46618346
延庆新兴小区,商务住宅,住宅区,住宅小区,庆园路919路公交总站西侧,北京市,北京市,延庆区,115.9810052,40.46822405
私人住宅(石河营9号楼2),商务住宅,住宅区,住宅区,区新村二排7号,北京市,北京市,延庆区,115.9878605,40.46237493
利用中心,商务住宅,商务住宅相关,商务住宅相关,香苑街6号,北京市,北京市,延庆区,115.9831457,40.4703497
川北小区-东区,商务住宅,住宅区,住宅区,新城街与高塔路交叉口南100米,北京市,北京市,延庆区,115.9793882,40.46411865
北京博苑,商务住宅,商务住宅相关,商务住宅相关,师范路3号附近,北京市,北京市,延庆区,115.9824303,40.46123882
泰安小区,商务住宅,住宅区,住宅小区,延庆镇,北京市,北京市,延庆区,115.9962489,40.46554798
兴运嘉园,商务住宅,住宅区,住宅小区,东外大街49号院,北京市,北京市,延庆区,115.9931068,40.46602436
双路小区,商务住宅,住宅区,住宅小区,延庆镇京张公路日上市场旁,北京市,北京市,延庆区,115.9965502,40.46313411
兴运大厦,商务住宅,楼宇,商务写字楼,东外大街与延琉路交叉口北100米,北京市,北京市,延庆区,115.9919818,40.46540506
东外大街49号院,商务住宅,住宅区,住宅区,东外大街49号,北京市,北京市,延庆区,115.9925508,40.46543631
石河营东街20号楼,商务住宅,住宅区,住宅小区,石河营东街20,北京市,北京市,延庆区,115.9907256,40.46212831
山水融城,商务住宅,商务住宅相关,商务住宅相关,龙庆南路与龙庆路交叉口北200米,北京市,北京市,延庆区,115.994627,40.46224736
悦溪镇(溪镇),商务住宅,住宅区,住宅区,密云水库溪翁庄镇白河风景区,北京市,北京市,密云区,116.828235,40.46450938
彼岸香醍,商务住宅,住宅区,住宅小区,县溪翁庄镇密西路18号,北京市,北京市,密云区,116.8346067,40.46593046
华亚琉森湖庄园,商务住宅,住宅区,住宅小区,溪翁庄镇密云区溪翁庄镇,北京市,北京市,密云区,116.8350054,40.46598716
琉森湖别墅,商务住宅,住宅区,住宅区,密关路东150米,北京市,北京市,密云区,116.8356526,40.46569545
溪水花园8区,商务住宅,住宅区,住宅小区,溪翁庄,北京市,北京市,密云区,116.8384383,40.46775851
溪水花园,商务住宅,住宅区,住宅区,密关路,北京市,北京市,密云区,116.8367023,40.46756851
溪翁庄村文化活动站,商务住宅,住宅区,社区中心,溪翁庄镇,北京市,北京市,密云区,116.8323359,40.47081019
彼岸香醍东区,商务住宅,住宅区,别墅,,北京市,北京市,密云区,116.8400444,40.46571623
彼岸香醍7区C区,商务住宅,住宅区,住宅区,密关路,北京市,北京市,密云区,116.8395445,40.46591427
碧水花园别墅,商务住宅,住宅区,住宅区,溪翁镇密云水库主坝南500米处,北京市,北京市,密云区,116.8936479,40.46162909
九溪云居,商务住宅,商务住宅相关,商务住宅相关,,北京市,北京市,密云区,116.9099624,40.4614466
永安小区(北街),商务住宅,住宅区,住宅小区,延庆镇,北京市,北京市,延庆区,115.9640371,40.45827478
温馨家园,商务住宅,住宅区,住宅小区,南街与苏子街交叉口西北50米,北京市,北京市,延庆区,115.9641639,40.45660315
儒林苑小区,商务住宅,住宅区,住宅小区,"城中心位置,紧邻市政府",北京市,北京市,延庆区,115.9658589,40.45581089
康安小区(延康路),商务住宅,住宅区,住宅小区,延庆镇,北京市,北京市,延庆区,115.9623455,40.45475379
育新楼,商务住宅,楼宇,商务写字楼,妫川广场西侧东顺城街(凯斯饭店旁),北京市,北京市,延庆区,115.969029,40.45664178
石河营东街小区,商务住宅,住宅区,住宅小区,延庆延庆县红十字会门诊以南约200米,北京市,北京市,延庆区,115.9637301,40.45719706
儒林街道办事处-慈善爱心家园,商务住宅,住宅区,住宅区,南街与苏子街交叉口西北50米,北京市,北京市,延庆区,115.9641639,40.45660315
中国工商银行延庆支行机关大楼,商务住宅,商务住宅相关,商务住宅相关,东街,北京市,北京市,延庆区,115.9661348,40.45748043
夏都心园,商务住宅,住宅区,住宅区,下湾子与南顺城街交叉口东南100米,北京市,北京市,延庆区,115.9679756,40.45411878
延庆经济技术开发区,商务住宅,产业园区,产业园区,镇南菜园百莲路75号,北京市,北京市,延庆区,115.9754191,40.45127378
工业大厦(建业胡同),商务住宅,楼宇,商务写字楼,东外大街95号,北京市,北京市,延庆区,115.9747611,40.46037984
东关小区(湖北东路),商务住宅,住宅区,住宅小区,延庆镇,北京市,北京市,延庆区,115.9749827,40.45713858
东外小区,商务住宅,住宅区,住宅小区,延庆镇,北京市,北京市,延庆区,115.9743526,40.45840687
金宸,商务住宅,楼宇,商务写字楼,延庆镇东外大街89号,北京市,北京市,延庆区,115.9766737,40.46108296
香水园街道文化活动室,商务住宅,住宅区,社区中心,妫水北街70,北京市,北京市,延庆区,115.9742882,40.45567321
医药商贸大楼,商务住宅,楼宇,商务写字楼,东外大街99-8医药商贸大楼,北京市,北京市,延庆区,115.9731424,40.45962784
延庆大厦,商务住宅,楼宇,商务写字楼,妫水北街29号,北京市,北京市,延庆区,115.9713032,40.46085457
东关新区,商务住宅,住宅区,住宅区,建业胡同与湖北东路交叉口北100米,北京市,北京市,延庆区,115.9749449,40.4571157
金锣湾商业中心A座,商务住宅,楼宇,商务写字楼,妫水北街39号,北京市,北京市,延庆区,115.9704989,40.45967835
金锣湾商业中心F座,商务住宅,楼宇,商务写字楼,高塔路沃尔玛(延庆区医院东南50米),北京市,北京市,延庆区,115.9690633,40.46089187
金锣湾商业中心B座,商务住宅,商务住宅相关,商务住宅相关,妫水北街39号,北京市,北京市,延庆区,115.9698758,40.4601539
湖北小区(建业胡同),商务住宅,住宅区,住宅小区,延庆镇东街29号,北京市,北京市,延庆区,115.9870419,40.45808125
小营,商务住宅,住宅区,住宅小区,延庆小营一号楼,北京市,北京市,延庆区,115.9829867,40.45880419
石河营东社区,商务住宅,住宅区,住宅小区,延庆镇,北京市,北京市,延庆区,115.9914842,40.46028379
杨户庄新民居,商务住宅,商务住宅相关,商务住宅相关,司连路与陈杨路交叉口东100米,北京市,北京市,延庆区,116.0364602,40.45288323
大榛峪野长城46号院,商务住宅,商务住宅相关,商务住宅相关,渤海镇响水湖景区大榛峪村46号,北京市,北京市,怀柔区,116.4447842,40.45344699
铭翠楼,商务住宅,住宅区,住宅区,近郊怀柔慕田峪长城西响水湖自然风景区,北京市,北京市,怀柔区,116.4556359,40.46090909
马架子,商务住宅,住宅区,住宅区,雁栖镇西栅子村附近,北京市,北京市,怀柔区,116.517192,40.46100654
文冠山庄,商务住宅,住宅区,住宅区,西田各庄镇密西路小水峪火车站西南,北京市,北京市,密云区,116.7158233,40.45118937
万科・弗农小镇(建设中),商务住宅,住宅区,别墅,密云水库风景区南岸(密关路西侧),北京市,北京市,密云区,116.8252188,40.46029858
北京市密云区金叵罗养殖小区,商务住宅,商务住宅相关,商务住宅相关,金溪路南100米,北京市,北京市,密云区,116.8459446,40.45546165
走马庄村1区164号,商务住宅,商务住宅相关,商务住宅相关,,北京市,北京市,密云区,116.8484901,40.45880037
北井小院3号院,商务住宅,商务住宅相关,商务住宅相关,金叵罗前街北111号,北京市,北京市,密云区,116.8536533,40.45433223
石马峪村老年活动中心,商务住宅,住宅区,社区中心,石坝公路西150米,北京市,北京市,密云区,116.8968782,40.45264694
原乡梦得惜诺2期(建设中),商务住宅,住宅区,住宅小区,方家冲,北京市,北京市,延庆区,115.7753902,40.44885401
北京马铃薯产业高科技园区,商务住宅,产业园区,产业园区,延庆镇延农路,北京市,北京市,延庆区,115.9081902,40.45088934
延庆生态农业科技园区,商务住宅,产业园区,产业园区,延农公路北50米,北京市,北京市,延庆区,115.9109143,40.45125049
南菜园北2区,商务住宅,住宅区,住宅小区,菜园中街北侧,北京市,北京市,延庆区,115.9673804,40.44664854
振兴北社区,商务住宅,住宅区,住宅小区,百莲路24号附近,北京市,北京市,延庆区,115.9683206,40.44507258
南菜园二区-北区,商务住宅,住宅区,住宅区,汇川街东150米,北京市,北京市,延庆区,115.9673804,40.4467365
西湖园小区,商务住宅,住宅区,住宅小区,延康路与环湖南路交叉口西100米,北京市,北京市,延庆区,115.9597647,40.44944075
舜泽园,商务住宅,住宅区,住宅小区,延庆菜园南街与百莲路交叉点西北角,北京市,北京市,延庆区,115.9704795,40.44776741
悦泽苑,商务住宅,住宅区,住宅小区,延庆东关村湖南西路南侧百莲路东,北京市,北京市,延庆区,115.9730281,40.44977132
颍泽洲小区,商务住宅,住宅区,住宅小区,妫水南街菜园南街,北京市,北京市,延庆区,115.9740688,40.44844487
国润家园,商务住宅,住宅区,住宅小区,延庆延庆镇百莲路98号院,北京市,北京市,延庆区,115.9739938,40.44259349
颍泽州商厦,商务住宅,楼宇,商务写字楼,南菜园颍泽洲小区3区沿街商业综合楼,北京市,北京市,延庆区,115.9761221,40.44815502
颖泽湖,商务住宅,住宅区,住宅小区,菜园南街21号附近,北京市,北京市,延庆区,115.9762151,40.44627553
湖南小区(甲),商务住宅,住宅区,住宅小区,延庆镇,北京市,北京市,延庆区,115.9783773,40.45058539
妫水南街35号院,商务住宅,住宅区,住宅区,妫水南街18号,北京市,北京市,延庆区,115.9767943,40.44486241
颖泽洲3区,商务住宅,住宅区,住宅区,功德巷与妫水南街交叉口西150米,北京市,北京市,延庆区,115.9753327,40.44828627
白各庄新村4期,商务住宅,商务住宅相关,商务住宅相关,百莲路46号附近,北京市,北京市,延庆区,115.9718256,40.4448168
坎家园售楼中心,商务住宅,商务住宅相关,商务住宅相关,菜园南街与菜园南街一巷交叉口东50米,北京市,北京市,延庆区,115.9765639,40.4462895
金秋家园售楼中心,商务住宅,商务住宅相关,商务住宅相关,延庆镇颖泽州小区南门,北京市,北京市,延庆区,115.9765639,40.4462895
延庆二中宿舍楼,商务住宅,住宅区,宿舍,延庆镇菜园南街19号,北京市,北京市,延庆区,115.9741798,40.44610651
延庆区经济技术开发区生物医药科技园,商务住宅,产业园区,产业园区,妫水南街与菜园南街交叉口东50米,北京市,北京市,延庆区,115.9778427,40.44628475
南菜园,商务住宅,住宅区,住宅小区,林带路与迎泉街交叉口北150米,北京市,北京市,延庆区,115.969517,40.44386273
妫水南街24号院,商务住宅,住宅区,住宅区,妫水南街与菜园南街交叉口西北100米,北京市,北京市,延庆区,115.9769436,40.44664324
延庆颖泽洲住宅小区销售,商务住宅,住宅区,住宅区,妫水南街18号院附近,北京市,北京市,延庆区,115.9775574,40.44776198
莲花街小区,商务住宅,住宅区,住宅小区,莲花街北50米,北京市,北京市,延庆区,115.9775013,40.45012216
振兴南社区-青年汇,商务住宅,商务住宅相关,商务住宅相关,百泉街道振兴南社区甲2-9号,北京市,北京市,延庆区,115.9701342,40.44337819
妫水南街18号院,商务住宅,住宅区,住宅区,妫水南街与育仁巷交叉口东北100米,北京市,北京市,延庆区,115.9779721,40.44748987
妫水南街26号院,商务住宅,住宅区,住宅区,妫水南街与菜园南街交叉口东南100米,北京市,北京市,延庆区,115.9784557,40.44591709
长城服装产业园,商务住宅,产业园区,产业园区,妫水南街与药厂南街交叉口西南150米,北京市,北京市,延庆区,115.9771805,40.44127574
莲花苑社区,商务住宅,住宅区,住宅小区,延庆镇益祥北街,北京市,北京市,延庆区,115.9865783,40.44404251
湖南小区,商务住宅,住宅区,住宅小区,莲花街,北京市,北京市,延庆区,115.9800948,40.44857114
燕水佳园北区,商务住宅,住宅区,住宅小区,延庆镇南菜园,北京市,北京市,延庆区,115.9835998,40.44127664
新华家园(海川路辅路),商务住宅,住宅区,住宅小区,延庆镇莲花池村西,北京市,北京市,延庆区,115.9909687,40.44636221
水保科技示范园,商务住宅,产业园区,产业园区,,北京市,北京市,延庆区,116.063515,40.44442537
柳沟豆腐宴住宿门牌68,商务住宅,住宅区,住宅区,柳沟村二区68号,北京市,北京市,延庆区,116.0936461,40.44694616
柳沟豆腐宴8号院,商务住宅,住宅区,住宅区,井庄镇柳沟8号院(青龙峡、八达岭长城、永宁古镇),北京市,北京市,延庆区,116.0924977,40.44587155
柳沟村八号院,商务住宅,住宅区,住宅区,锦庄镇柳沟村,北京市,北京市,延庆区,116.0926258,40.44573261
闫和花5号院,商务住宅,商务住宅相关,商务住宅相关,柳沟民俗村1区36号,北京市,北京市,延庆区,116.0947792,40.44382654
北京凤凰城醉八轩13号院,商务住宅,住宅区,住宅区,柳沟村二区87户(近井庄),北京市,北京市,延庆区,116.0908658,40.44721503
柳沟81号院,商务住宅,住宅区,住宅区,柳果路与西北路交叉口西北100米,北京市,北京市,延庆区,116.0938797,40.44343462
鳞象科技园,商务住宅,产业园区,产业园区,庙上村(近黄花城水长城),北京市,北京市,怀柔区,116.3289603,40.45013872
68号院(诚天志长城会议中心),商务住宅,商务住宅相关,商务住宅相关,大榛峪村闫家68号院(响水湖、慕田峪、黄花城水长城),北京市,北京市,怀柔区,116.4384478,40.4476271
麓庭院,商务住宅,商务住宅相关,商务住宅相关,范崎路西200米,北京市,北京市,怀柔区,116.5757213,40.44348322
村居别墅,商务住宅,住宅区,别墅,神堂峪道西50米,北京市,北京市,怀柔区,116.6180821,40.4413791
山居别墅,商务住宅,住宅区,别墅,右岸溪谷附近,北京市,北京市,怀柔区,116.6171946,40.44161692
北京青龙峡旺旺家园,商务住宅,住宅区,住宅区,大水峪村192号,北京市,北京市,怀柔区,116.6934649,40.44553406
御柳苑,商务住宅,住宅区,住宅区,大水峪村111号,北京市,北京市,怀柔区,116.6921583,40.44503542
漫宜连锁-龙湖居,商务住宅,商务住宅相关,商务住宅相关,青龙峡景区南500米龙湖饭店旁(近青龙峡景区),北京市,北京市,怀柔区,116.6986828,40.44747902
大水峪村文化活动中心,商务住宅,住宅区,社区中心,环镇路西50米,北京市,北京市,怀柔区,116.6974365,40.44163732
龙湖山水,商务住宅,住宅区,住宅小区,近郊密西路,北京市,北京市,怀柔区,116.7055192,40.44724531
三合湖景,商务住宅,住宅区,住宅小区,山水四合院附近,北京市,北京市,怀柔区,116.7053825,40.44724249
大水峪村觅园,商务住宅,商务住宅相关,商务住宅相关,青龙峡景区大水峪村南,北京市,北京市,怀柔区,116.7004394,40.44116997
山水四合院,商务住宅,住宅区,别墅,怀北山水四合院,北京市,北京市,怀柔区,116.710881,40.44746342
溪龙湖四合上城,商务住宅,住宅区,住宅小区,西沙地村附近,北京市,北京市,密云区,116.7215198,40.44359015
水墨山色,商务住宅,住宅区,住宅区,西田各庄镇西沙地民俗生态旅游村,北京市,北京市,密云区,116.7199028,40.4478768
白鹭洲,商务住宅,住宅区,别墅,溪翁庄镇密溪路33号君山别墅,北京市,北京市,密云区,116.816236,40.44204543
鹭鸣苑,商务住宅,住宅区,别墅,白鹭洲附近,北京市,北京市,密云区,116.8155888,40.44166038
君山别墅,商务住宅,住宅区,别墅,密溪路33号,北京市,北京市,密云区,116.8216678,40.44614489
阳光城君山墅,商务住宅,住宅区,住宅区,密溪路33号(水库风景区内),北京市,北京市,密云区,116.8218652,40.44601631
远大・美域,商务住宅,住宅区,住宅小区,密关路36号院,北京市,北京市,密云区,116.8281743,40.44568222
金叵罗村凤凰台,商务住宅,商务住宅相关,商务住宅相关,,北京市,北京市,密云区,116.8551922,40.44781721
依临福地,商务住宅,商务住宅相关,商务住宅相关,穆家峪镇阁老峪村希望小镇10-2,北京市,北京市,密云区,116.9167507,40.44236015
北京一草一木青年旅独栋别墅,商务住宅,住宅区,住宅区,穆家峪镇阁老峪村穆石路与黑大路交叉口华润希望小镇,北京市,北京市,密云区,116.9107857,40.44184924
北京顺馨居别墅(希望小镇),商务住宅,商务住宅相关,商务住宅相关,华润希望小镇,北京市,北京市,密云区,116.9107857,40.44184924
密云一草一木青年别墅,商务住宅,住宅区,住宅区,密云密云穆家峪镇阁老峪村华润希望小镇7-1,北京市,北京市,密云区,116.9207389,40.44196316
锦绣阁,商务住宅,住宅区,住宅区,穆家峪镇华润希望小镇22-2号,北京市,北京市,密云区,116.919723,40.4419383
顺馨居,商务住宅,商务住宅相关,商务住宅相关,穆家峪镇阁老峪村105-2,北京市,北京市,密云区,116.9191771,40.44172297
北京密云智企旅游度假别墅公寓,商务住宅,住宅区,住宅区,穆家峪镇阁老峪村,北京市,北京市,密云区,116.9315815,40.44641553
上都首府家园,商务住宅,住宅区,住宅小区,妫水街(南菜园环岛西南侧),北京市,北京市,延庆区,115.9778467,40.43791713
融景美庐,商务住宅,楼宇,商住两用楼宇,妫水南街8号,北京市,北京市,延庆区,115.9776979,40.44065847
燕水佳园,商务住宅,住宅区,住宅区,县城南菜园环岛东,北京市,北京市,延庆区,115.982122,40.44002358
绿色食品工业园,商务住宅,产业园区,产业园区,双杏东路与妫川路交叉口东100米,北京市,北京市,延庆区,115.9797222,40.43171804
北京延庆经济技术开发区,商务住宅,产业园区,产业园区,经济技术开发区(双杏东街南),北京市,北京市,延庆区,115.9800432,40.4311933
梧桐苑,商务住宅,住宅区,住宅小区,田仙峪村,北京市,北京市,怀柔区,116.5290822,40.43873316
泰莲庭卧龙庄,商务住宅,住宅区,住宅小区,雁栖镇雁栖不夜谷,北京市,北京市,怀柔区,116.5818908,40.43349675
长城小筑,商务住宅,商务住宅相关,商务住宅相关,京加路与环镇路交叉口东北100米,北京市,北京市,怀柔区,116.6697423,40.43670063
西康各庄北区,商务住宅,住宅区,住宅小区,韩西路与707乡道交叉口东北100米,北京市,北京市,密云区,116.7350284,40.43451064
西庄户南区191号,商务住宅,商务住宅相关,商务住宅相关,,北京市,北京市,密云区,116.7296152,40.43272582
鹭栖苑,商务住宅,住宅区,别墅,西田各庄镇鹭栖苑(白鹭洲附近),北京市,北京市,密云区,116.8138227,40.43992282
华润希望小镇,地名地址信息,普通地名,村庄级地名|商务住宅,木家峪镇阁老峪村穆石路与黑大路交叉口,北京市,北京市,密云区,116.9207813,40.43831559
润泽园,商务住宅,商务住宅相关,商务住宅相关,穆家峪镇阁老峪村希望小镇103-1,北京市,北京市,密云区,116.9206095,40.43934137
希望小镇半盏时光休闲度假别墅,商务住宅,住宅区,住宅区,穆家峪希望小镇阁老峪村(近密云水库),北京市,北京市,密云区,116.9203469,40.44068612
下屯,商务住宅,住宅区,住宅区,延康路西150米,北京市,北京市,延庆区,115.9458384,40.42824529
幸苑公寓,商务住宅,住宅区,住宅小区,东杏园村委会(开发区路)对面,北京市,北京市,延庆区,115.9752748,40.42578743
大众家园,商务住宅,住宅区,住宅区,S216(八达岭路),北京市,北京市,延庆区,115.975846,40.42485213
刘家堡村多媒体文化活动中心,商务住宅,住宅区,社区中心,大小路东50米,北京市,北京市,延庆区,116.021262,40.42331077
睿康家园,商务住宅,商务住宅相关,商务住宅相关,京银路与610乡道交叉口东南200米,北京市,北京市,延庆区,116.0309876,40.43065943
箭扣7号院,商务住宅,商务住宅相关,商务住宅相关,沈家大院斜对面,北京市,北京市,怀柔区,116.5321979,40.42933451
望城园,商务住宅,商务住宅相关,商务住宅相关,辛营北沟村1号2号,北京市,北京市,怀柔区,116.5430792,40.42851818
怀柔泰莲庭,商务住宅,住宅区,住宅区,雁栖镇范崎路莲花池村188号附近,北京市,北京市,怀柔区,116.5831787,40.42928292
北京西唐山居,商务住宅,商务住宅相关,商务住宅相关,长园村和甲山庄(西唐山居),北京市,北京市,怀柔区,116.589501,40.42210416
怀柔神堂峪官地家园,商务住宅,住宅区,住宅区,官地村,北京市,北京市,怀柔区,116.6291599,40.42601449
驿云乡居神堂峪一号院,商务住宅,商务住宅相关,商务住宅相关,官地村h39路官地站东北45米,北京市,北京市,怀柔区,116.6278902,40.4289711
西田各庄治理区,商务住宅,商务住宅相关,商务住宅相关,,北京市,北京市,密云区,116.7836381,40.42694148
观唐(701乡道),商务住宅,住宅区,别墅,密关路与701乡道交叉口西北100米,北京市,北京市,密云区,116.8246319,40.42703906
西穆家峪,商务住宅,住宅区,住宅区,穆石路,北京市,北京市,密云区,116.9333834,40.42449432
梧桐公寓,商务住宅,商务住宅相关,商务住宅相关,地铁15号线后沙峪东800米,北京市,北京市,密云区,117.1964346,40.42653151
妫水人家,商务住宅,住宅区,住宅小区,下屯,北京市,北京市,延庆区,115.9266691,40.41936975
原乡墅,商务住宅,住宅区,住宅区,康庄镇小丰营村,北京市,北京市,延庆区,115.9224449,40.42003997
簸箕营小区,商务住宅,住宅区,住宅小区,岳簸路东150米,北京市,北京市,延庆区,115.9647209,40.41208529
博雅圆小区,商务住宅,商务住宅相关,商务住宅相关,火陈路东100米,北京市,北京市,延庆区,116.0040711,40.41747673
明智楼,商务住宅,楼宇,商务写字楼,祥元东路1号=北京科技职业学院八达岭校区,北京市,北京市,延庆区,116.0133809,40.41731527
思贤楼,商务住宅,楼宇,商务写字楼,爱迪生路与诺贝尔路交叉口西南200米,北京市,北京市,延庆区,116.0162839,40.41374228
尚德公寓,商务住宅,住宅区,住宅小区,李四光路与贝多芬路交叉口东南150米,北京市,北京市,延庆区,116.0135457,40.41393306
明仁楼,商务住宅,楼宇,商务写字楼,孔子东路与莎士比亚北路交叉口西北50米,北京市,北京市,延庆区,116.0143117,40.41813128
尚勤公寓,商务住宅,住宅区,住宅小区,李四光路与贝多芬路交叉口西南100米,北京市,北京市,延庆区,116.0118134,40.41423997
正心楼B座,商务住宅,楼宇,商务写字楼,李四光路与贝多芬路交叉口西50米,北京市,北京市,延庆区,116.0118941,40.41474455
冬奥西红园,商务住宅,商务住宅相关,商务住宅相关,京银路南100米,北京市,北京市,延庆区,116.058345,40.42038101
龙泉峪村多媒体文化活动中心,商务住宅,住宅区,社区中心,363乡道西100米,北京市,北京市,延庆区,116.2699564,40.41181503
明华楼,商务住宅,住宅区,住宅区,九渡河镇境内,北京市,北京市,怀柔区,116.2987688,40.41126243
玉石楼,商务住宅,住宅区,住宅区,渤海镇慕田峪长城风景区慕田峪长城国家级旅游景区内,北京市,北京市,怀柔区,116.5394832,40.41712191
长城之家,商务住宅,商务住宅相关,商务住宅相关,渤海镇慕田峪长城环岛东60米,北京市,北京市,怀柔区,116.543052,40.41339186
溪谷生态嘉园,商务住宅,住宅区,住宅区,神堂峪村27号,北京市,北京市,怀柔区,116.6335002,40.41834209
北京6号院,商务住宅,住宅区,住宅区,神堂峪村,北京市,北京市,怀柔区,116.6355575,40.41788809
中科院大学雁栖湖校区西区5号公寓,商务住宅,商务住宅相关,商务住宅相关,京加路西200米,北京市,北京市,怀柔区,116.6726129,40.41366302
中国科学院大学雁栖湖校区公寓,商务住宅,住宅区,宿舍,怀北镇怀北庄中国科学院大学雁栖湖校区,北京市,北京市,怀柔区,116.6713756,40.41297664
中国科学院大学雁栖湖校区3号公寓,商务住宅,住宅区,宿舍,怀北庄,北京市,北京市,怀柔区,116.6720378,40.41239958
中国科学院大学雁栖湖小区西c宿舍,商务住宅,住宅区,宿舍,G111(京加路),北京市,北京市,怀柔区,116.6722552,40.41218725
怀柔北火车站2区,商务住宅,住宅区,住宅小区,怀北镇怀柔北火车站二区,北京市,北京市,怀柔区,116.6870025,40.41593464
太子务2区153号,商务住宅,住宅区,住宅区,,北京市,北京市,密云区,116.7903034,40.41705968
北京首钢石灰石矿办公楼,商务住宅,楼宇,商务写字楼,太子务村,北京市,北京市,密云区,116.8005572,40.41260276
澜茵山别墅,商务住宅,住宅区,住宅区,京承高速16出口水库方向、白河公园300米路东,北京市,北京市,密云区,116.8363923,40.41532113
首创・澜茵山,商务住宅,住宅区,别墅,密溪路白河公园北侧300米路东,北京市,北京市,密云区,116.8429261,40.41221071
丽秀佳园,商务住宅,住宅区,住宅区,密云水库,北京市,北京市,密云区,116.8425013,40.41302868
澜茵山庄,商务住宅,住宅区,住宅小区,751乡道东100米,北京市,北京市,密云区,116.8448143,40.41128923
紫霞谷,商务住宅,住宅区,别墅,穆家峪镇优龙红酒庄园,北京市,北京市,密云区,116.9263612,40.41183679
紫霞谷,商务住宅,住宅区,住宅小区,穆家峪镇东2公里,北京市,北京市,密云区,116.9670106,40.41354514
至尊堡,商务住宅,住宅区,住宅区,穆家峪镇东2公里红酒庄园内,北京市,北京市,密云区,116.9616242,40.41136048
白领庄园,商务住宅,商务住宅相关,商务住宅相关,,北京市,北京市,密云区,116.9654216,40.41899146
雷克艾森别墅,商务住宅,住宅区,别墅,日月大道西200米,北京市,北京市,密云区,116.9653797,40.41164632
紫霞谷别墅,商务住宅,住宅区,别墅,穆家峪,北京市,北京市,密云区,116.9701871,40.42088851
沙河峪,商务住宅,住宅区,住宅区,,北京市,北京市,密云区,117.1336629,40.41526428
王家堡村,商务住宅,商务住宅相关,商务住宅相关,蒋家堡村西街四巷14号附近,北京市,北京市,延庆区,115.9221438,40.40748898
延庆经济技术开发区民营科技园,商务住宅,产业园区,产业园区,西新路东50米,北京市,北京市,延庆区,115.9648524,40.40541737
北京华坤生态农业科技示范园,商务住宅,产业园区,产业园区,大榆树镇新宝庄村,北京市,北京市,延庆区,115.9658364,40.40516878
南山里,商务住宅,商务住宅相关,商务住宅相关,,北京市,北京市,延庆区,115.9751494,40.40882416
小泥河,商务住宅,住宅区,住宅区,小泥河路北50米,北京市,北京市,延庆区,115.9887391,40.40253684
朱家大院,商务住宅,商务住宅相关,商务住宅相关,水长城景区石湖峪村(水长城景区),北京市,北京市,怀柔区,116.3151887,40.40673405
遇花园,商务住宅,住宅区,住宅区,353乡道北50米,北京市,北京市,怀柔区,116.3267077,40.41002373
兴隆城村社区服务站,商务住宅,住宅区,社区中心,怀黄公路西50米,北京市,北京市,怀柔区,116.4136645,40.40875564
星鹿苑,商务住宅,商务住宅相关,商务住宅相关,渤海镇沙峪村村委会向南400米处,北京市,北京市,怀柔区,116.4691862,40.40723933
山水云间,商务住宅,商务住宅相关,商务住宅相关,长园村北1500米(近范崎路),北京市,北京市,怀柔区,116.5989236,40.41125215
怀柔北火车站1区,商务住宅,住宅区,住宅小区,怀北,北京市,北京市,怀柔区,116.6831621,40.40736165
铁路社区,商务住宅,住宅区,住宅小区,京加路,北京市,北京市,怀柔区,116.6854777,40.40781333
怀柔北铁路小区,商务住宅,住宅区,住宅小区,怀北,北京市,北京市,怀柔区,116.6832338,40.4074215
国科大公寓,商务住宅,住宅区,住宅区,G111(京加线),北京市,北京市,怀柔区,116.6827049,40.40312401
北京铁路局怀柔北单身宿舍,商务住宅,住宅区,宿舍,怀北机务段,北京市,北京市,怀柔区,116.6847417,40.40770868
中国科学院大学雁栖湖校区6号公寓,商务住宅,商务住宅相关,商务住宅相关,,北京市,北京市,怀柔区,116.6826231,40.40308417
北京建筑段怀北单身公寓,商务住宅,住宅区,宿舍,怀柔北火车站一区41,北京市,北京市,怀柔区,116.6843797,40.40729548
海阔水岸花墅,商务住宅,住宅区,别墅,密溪路55号,北京市,北京市,密云区,116.838112,40.41057195
双龙集团南生活区家属楼,商务住宅,商务住宅相关,商务住宅相关,密关路与751乡道交叉口东南150米,北京市,北京市,密云区,116.8428236,40.40677053
密云领袖汇,商务住宅,住宅区,住宅小区,京密路北,北京市,北京市,密云区,116.9566114,40.40873031
红酒公寓,商务住宅,住宅区,住宅区,羊山村北,北京市,北京市,密云区,116.9608724,40.41017589
水岸人家,商务住宅,住宅区,住宅小区,穆家峪镇辛安庄密古路潮河,北京市,北京市,密云区,116.9691553,40.40767933
宁静鑫苑,商务住宅,商务住宅相关,商务住宅相关,G101(京沈线),北京市,北京市,密云区,116.9743325,40.40249543
军山职工生活区,商务住宅,商务住宅相关,商务住宅相关,康延路与延康路交叉口南50米,北京市,北京市,延庆区,115.9068385,40.39418269
水长城老北京四合院,商务住宅,住宅区,住宅小区,"黄花城安四路西侧,怀九河西岸",北京市,北京市,怀柔区,116.3456005,40.39624504
独栋木屋别墅,商务住宅,住宅区,住宅区,怀柔镇甘涧峪村内,北京市,北京市,怀柔区,116.5788094,40.39368296
国际会都,商务住宅,商务住宅相关,商务住宅相关,雁栖岛路口东南50米,北京市,北京市,怀柔区,116.655392,40.39914725
精品别墅,商务住宅,住宅区,别墅,雁栖湖景区,北京市,北京市,怀柔区,116.6592672,40.39789235
翠柳居,商务住宅,住宅区,住宅区,雁栖湖范崎路湖心岛凯宾斯基酒店别墅内,北京市,北京市,怀柔区,116.6593149,40.39952468
怀北镇怀北庄村民安置房,商务住宅,住宅区,住宅小区,京加路附近,北京市,北京市,怀柔区,116.6807716,40.39989069
北京南山中华文化孝道产业园,商务住宅,产业园区,产业园区,西密路路北,北京市,北京市,怀柔区,116.7017591,40.39628699
仓头3区,商务住宅,住宅区,住宅小区,统仓路与703乡道交叉口西北100米,北京市,北京市,密云区,116.7453539,40.39270449
密云环保工业园,商务住宅,产业园区,产业园区,西田各庄镇西田各庄村,北京市,北京市,密云区,116.7770856,40.39725531
61号院,商务住宅,住宅区,住宅区,唐庄火车站往北700米,北京市,北京市,密云区,116.810881,40.39430654
庄格里新,商务住宅,住宅区,住宅小区,密云镇,北京市,北京市,密云区,116.8279581,40.3965385
李各庄小区,商务住宅,住宅区,住宅小区,白云街西200米,北京市,北京市,密云区,116.8275505,40.39530318
华远・澜悦,商务住宅,住宅区,住宅小区,县白云街北侧(白河西),北京市,北京市,密云区,116.8358438,40.39639199
阳光水岸(白云街),商务住宅,住宅区,住宅小区,白云街南100米,北京市,北京市,密云区,116.8387511,40.39466977
清水湾小区,商务住宅,住宅区,住宅小区,白云北街与铁西路交叉口东北200米,北京市,北京市,密云区,116.8353906,40.39906623
北京城建上河湾・南区,商务住宅,住宅区,住宅小区,白云街附近,北京市,北京市,密云区,116.8390855,40.39634877
中铁十六局小区,商务住宅,住宅区,住宅小区,中铁十六局小区(新北路北440米),北京市,北京市,密云区,116.8361959,40.39203114
北京城建・上河湾北区,商务住宅,住宅区,住宅小区,京沈路与密关路交汇处西200米,北京市,北京市,密云区,116.8390421,40.39901575
新里格庄小区,商务住宅,住宅区,住宅小区,李各庄村,北京市,北京市,密云区,116.8319974,40.39883615
云秀花园,商务住宅,住宅区,住宅小区,白云街南100米,北京市,北京市,密云区,116.8451881,40.39384509
云北小区,商务住宅,住宅区,住宅小区,云秀路1号院,北京市,北京市,密云区,116.8456574,40.39811738
北京城建・上河湾,商务住宅,住宅区,住宅小区,"白云街北侧(滨河大桥向北1500米,白河西侧)",北京市,北京市,密云区,116.8396471,40.3996146
沙河东区,商务住宅,住宅区,住宅小区,站东路沙河火车站,北京市,北京市,密云区,116.8541336,40.39385016
燕语华庭,商务住宅,住宅区,住宅小区,密云沙河车站路12号,北京市,北京市,密云区,116.8535258,40.39320149
大国盛世,商务住宅,商务住宅相关,商务住宅相关,站西路与车站路交叉口西南150米,北京市,北京市,密云区,116.8521006,40.39468683
国际生态城,商务住宅,住宅区,住宅小区,密云檀营北街2号院(檀营街以东),北京市,北京市,密云区,116.8681996,40.39129709
水漳河谷,商务住宅,商务住宅相关,商务住宅相关,密沙路北100米,北京市,北京市,密云区,116.8713122,40.39725119
下新村,商务住宅,住宅区,住宅区,久黄路与王达路交叉口东200米,北京市,北京市,密云区,117.0499302,40.39310652
刁千营科技生态示范园,商务住宅,产业园区,产业园区,刁千营村北街二巷与延康路交叉口东南100米,北京市,北京市,延庆区,115.8977148,40.38320915
北京延庆康庄工业园,商务住宅,产业园区,产业园区,康祥路与217省道交叉口东北50米,北京市,北京市,延庆区,115.9045586,40.38668829
北京康庄镇农民就业产业基地,商务住宅,产业园区,产业园区,康祥路与217省道交叉口东北50米,北京市,北京市,延庆区,115.9052285,40.38764668
大浮坨社区,商务住宅,住宅区,住宅小区,大呼沱村,北京市,北京市,延庆区,115.9521407,40.38404408
逸境山水间,商务住宅,商务住宅相关,商务住宅相关,渤海镇八道河岭村继光书院东南500米,北京市,北京市,怀柔区,116.5135111,40.38750445
渡水山庄,商务住宅,住宅区,别墅,三渡河,北京市,北京市,怀柔区,116.5227239,40.38927314
栗香溪谷,商务住宅,商务住宅相关,商务住宅相关,六渡河村磨石峪13号,北京市,北京市,怀柔区,116.5229257,40.38820104
渤海镇公寓5区,商务住宅,住宅区,住宅小区,怀黄公路西100米,北京市,北京市,怀柔区,116.5552399,40.39028741
栗山小筑,商务住宅,商务住宅相关,商务住宅相关,三渡河乡花台子村38号,北京市,北京市,怀柔区,116.5509982,40.38392545
渤海新村,商务住宅,住宅区,住宅小区,怀黄公路东50米,北京市,北京市,怀柔区,116.5500494,40.3816965
雁栖半岛,商务住宅,住宅区,住宅小区,雁栖镇雁青路29号(雁栖湖西岸),北京市,北京市,怀柔区,116.648866,40.38282693
仓头7区71号,商务住宅,产业园区,产业园区,西恒河路南200米,北京市,北京市,密云区,116.7429473,40.3901344
云海绿洲,商务住宅,商务住宅相关,商务住宅相关,西统路西田各庄,北京市,北京市,密云区,116.7501557,40.39041787
韩各庄南区,商务住宅,住宅区,住宅小区,密西路东150米,北京市,北京市,密云区,116.7945682,40.39091865
嘉益园,商务住宅,住宅区,住宅小区,果园街道果园西路6号,北京市,北京市,密云区,116.8215766,40.38409485
新北路社区,商务住宅,住宅区,住宅小区,新北路31号,北京市,北京市,密云区,116.8259834,40.38848861
唐源云居,商务住宅,住宅区,住宅小区,季唐路2,北京市,北京市,密云区,116.8191582,40.38192406
北京液压件厂家属区,商务住宅,住宅区,宿舍|商务住宅,新北路31,北京市,北京市,密云区,116.8260546,40.38798191
密西花园,商务住宅,住宅区,住宅小区,新北路26号,北京市,北京市,密云区,116.834659,40.38512072
滨河园,商务住宅,住宅区,住宅小区,"滨河大桥西侧,党校路东",北京市,北京市,密云区,116.8390869,40.38565844
十六局家属院,商务住宅,住宅区,住宅小区,密云新北路北侧中铁十六局院内,北京市,北京市,密云区,116.8345905,40.38802362
滨河丽舍,商务住宅,住宅区,住宅小区,城后街29,北京市,北京市,密云区,116.8328089,40.38337794
大唐庄东区,商务住宅,住宅区,住宅小区,新北路,北京市,北京市,密云区,116.8308919,40.38623147
绿地・国际花都,商务住宅,住宅区,住宅小区,城后街32号院绿地,北京市,北京市,密云区,116.8308524,40.38180288
红星苑,商务住宅,住宅区,住宅小区,新北路27号,北京市,北京市,密云区,116.8358168,40.38784489
洪福苑,商务住宅,住宅区,别墅,新北路27号,北京市,北京市,密云区,116.836041,40.38953472
白河湾,商务住宅,住宅区,住宅区,"新北路27号,密云白河西岸",北京市,北京市,密云区,116.8361794,40.38823941
新景家园(城后街),商务住宅,住宅区,住宅小区,滨河大桥西400米,北京市,北京市,密云区,116.8337989,40.3814144
绿地花都嘉园小区,商务住宅,住宅区,住宅小区,新西路40,北京市,北京市,密云区,116.8306759,40.38365694
城后街29号院,商务住宅,住宅区,住宅区,城后街29号,北京市,北京市,密云区,116.8330052,40.38336031
润府,商务住宅,商务住宅相关,商务住宅相关,密西花园小区1期门脸房,北京市,北京市,密云区,116.8354111,40.38723936
绿地社区,商务住宅,住宅区,住宅小区,城后街32号绿地国际花都北区,北京市,北京市,密云区,116.8308283,40.38272153
正名苑(城后街),商务住宅,商务住宅相关,商务住宅相关,新北路26号密西花园48-10号(近民政局),北京市,北京市,密云区,116.8342897,40.38274685
新西路40号院,商务住宅,商务住宅相关,商务住宅相关,新西路40号,北京市,北京市,密云区,116.8308021,40.38375614
密云・国际花都-北区,商务住宅,住宅区,住宅区,近郊新西路41号,北京市,北京市,密云区,116.830173,40.38336911
沿湖小区,商务住宅,住宅区,住宅小区,新中街19号,北京市,北京市,密云区,116.844975,40.38466187
银河花园,商务住宅,住宅区,住宅小区,新北路21号,北京市,北京市,密云区,116.8396004,40.38895722
鸿泽园,商务住宅,住宅区,住宅小区,滨河路12号院,北京市,北京市,密云区,116.844663,40.38850705
北源里,商务住宅,住宅区,住宅小区,沿湖小区边上,北京市,北京市,密云区,116.8464587,40.38225013
彩虹园小区,商务住宅,住宅区,住宅小区,车站路53,北京市,北京市,密云区,116.848648,40.3904649
水墅林,商务住宅,住宅区,住宅区,滨河大桥西200米滨河公园西侧,北京市,北京市,密云区,116.8392301,40.38549875
沿湖美景,商务住宅,住宅区,住宅区,"新北路,沿湖小区北侧",北京市,北京市,密云区,116.8454095,40.38578322
城后街小区,商务住宅,住宅区,住宅小区,城后街与育才路交叉口北50米,北京市,北京市,密云区,116.8490707,40.38278417
滨河路12号院,商务住宅,住宅区,住宅区,"新北路北侧,滨河路12号",北京市,北京市,密云区,116.8447151,40.38783936
碧波庭(密云沿湖店),商务住宅,住宅区,住宅区,沿湖美景42号楼4单元底层,北京市,北京市,密云区,116.8462377,40.38711913
温馨家园(残疾人就业保障金扶持项目),商务住宅,住宅区,住宅小区,新中街附近,北京市,北京市,密云区,116.8448888,40.38488265
172文化创意产业基地,商务住宅,产业园区,产业园区,车站路172号,北京市,北京市,密云区,116.8477694,40.38491237
征球国际,商务住宅,商务住宅相关,商务住宅相关,百世城商业街3号附近,北京市,北京市,密云区,116.8485445,40.3855494
九树天成,商务住宅,商务住宅相关,商务住宅相关,新北路21号附近,北京市,北京市,密云区,116.8396165,40.3879426
宾阳北里,商务住宅,住宅区,住宅小区,密云沙河早市东口东侧,北京市,北京市,密云区,116.8546103,40.38509286
梧桐苑小区,商务住宅,住宅区,住宅小区,环新北路1号(东方环岛往北1公里),北京市,北京市,密云区,116.8533119,40.3901912
檀营小区,商务住宅,住宅区,住宅小区,"密云长城环岛北侧1.4公里,新北路北侧",北京市,北京市,密云区,116.855486,40.38874489
百合园(新北路),商务住宅,住宅区,住宅小区,新东路与新北路交叉口东北150米,北京市,北京市,密云区,116.8534103,40.38835798
久润花园,商务住宅,住宅区,住宅小区,新北路,北京市,北京市,密云区,116.857726,40.38857711
城后小区,商务住宅,住宅区,住宅小区,城后东街60号,北京市,北京市,密云区,116.850726,40.38401136
滨阳西里,商务住宅,住宅区,住宅小区,密云东源路南侧,北京市,北京市,密云区,116.8511199,40.38156578
车站路小区(新北路),商务住宅,住宅区,住宅小区,新北路16,北京市,北京市,密云区,116.8501458,40.38664957
财富铂鼎,商务住宅,楼宇,商务写字楼,沙河车站路57号,北京市,北京市,密云区,116.849177,40.38891127
檀宫秀府,商务住宅,住宅区,住宅区,密云新北路与新东路交叉口,北京市,北京市,密云区,116.8525591,40.38846266
宾阳小区(宾阳北里社区卫生服务站东北),商务住宅,住宅区,住宅小区,城后街与行宫街交叉口西北150米,北京市,北京市,密云区,116.855684,40.38353493
同逸苑,商务住宅,商务住宅相关,商务住宅相关,新东路40-112号附近,北京市,北京市,密云区,116.8527985,40.38740938
德康爱心家园,商务住宅,住宅区,住宅区,百世城商业街5-115号附近,北京市,北京市,密云区,116.849523,40.38534203
康诚健爱心家园,商务住宅,住宅区,住宅区,鼓楼街道车站路小区南50米,北京市,北京市,密云区,116.85016,40.38524406
融艺盛世,商务住宅,商务住宅相关,商务住宅相关,新北路南50米,北京市,北京市,密云区,116.8543938,40.38740076
碧桂园琅辉,商务住宅,商务住宅相关,商务住宅相关,檀西路65号附近,北京市,北京市,密云区,116.8588136,40.38644232
首创・禧悦府(建设中),商务住宅,商务住宅相关,商务住宅相关,城后街与新东路交汇处西北角,北京市,北京市,密云区,116.8516605,40.38307311
宾阳西里北区,商务住宅,住宅区,住宅区,东源路北150米,北京市,北京市,密云区,116.8509947,40.38128968
行宫・御东园,商务住宅,住宅区,住宅小区,行宫街48,北京市,北京市,密云区,116.8574939,40.38636154
恋日水岸售楼中心,商务住宅,商务住宅相关,商务住宅相关,车站路55-5号附近,北京市,北京市,密云区,116.8500081,40.39011117
府上任家,商务住宅,商务住宅相关,商务住宅相关,车站路彩虹园小区正门向北50米,北京市,北京市,密云区,116.8504897,40.39096463
鼓楼街道办事处车站南路社区,商务住宅,住宅区,社区中心,新东路与新北路交叉口南50米,北京市,北京市,密云区,116.8519554,40.38715319
北京密云区,商务住宅,商务住宅相关,商务住宅相关,区车站路55-8号,北京市,北京市,密云区,116.8500022,40.38986925
乐富信用卡精养基地,商务住宅,商务住宅相关,商务住宅相关,行宫街东50米,北京市,北京市,密云区,116.8566803,40.39086387
石桥小区,商务住宅,住宅区,住宅小区,密云穆家峪檀营街与旧密古路交叉口,北京市,北京市,密云区,116.8648705,40.38379689
石桥西区,商务住宅,住宅区,住宅小区,穆家峪,北京市,北京市,密云区,116.8615141,40.38307401
檀府家园,商务住宅,住宅区,住宅小区,檀营街东侧,北京市,北京市,密云区,116.865504,40.38484828
清鑫家园,商务住宅,住宅区,住宅小区,檀西路111-133号,北京市,北京市,密云区,116.8592776,40.38262323
檀营国际生态城南区,商务住宅,住宅区,住宅小区,檀营北街2号,北京市,北京市,密云区,116.8688474,40.38879063
阳光苑小区,商务住宅,住宅区,住宅小区,密云长城环岛西侧,北京市,北京市,密云区,116.8655364,40.38162339
檀营国际生态城北区,商务住宅,住宅区,住宅小区,檀营北街1号,北京市,北京市,密云区,116.8688421,40.3911878
首创悦欣汇(建设中),商务住宅,商务住宅相关,商务住宅相关,新北路与檀西路交叉口东150米,北京市,北京市,密云区,116.8612733,40.38770214
南曹营村多媒体文化活动中心,商务住宅,住宅区,社区中心,康庄镇南曹营村,北京市,北京市,延庆区,115.8803166,40.37495008
北京邮电大学世纪学院外国专家公寓,商务住宅,住宅区,宿舍,西官路北50米,北京市,北京市,延庆区,115.8851416,40.37369307
龙庆望都佳园,商务住宅,住宅区,住宅小区,延庆康庄镇三街村西官路北侧,北京市,北京市,延庆区,115.8923368,40.3757165
康庄三街,商务住宅,住宅区,住宅小区,兴隆商业街与康元路交叉口西100米,北京市,北京市,延庆区,115.8948676,40.37365738
泽丰苑,商务住宅,住宅区,住宅小区,康庄镇兴隆商业街162号,北京市,北京市,延庆区,115.8953759,40.37347745
四渡河村文化大院,商务住宅,住宅区,社区中心,渤三路西50米,北京市,北京市,怀柔区,116.5393476,40.37911498
钟磬山庄-办公楼,商务住宅,楼宇,商务写字楼,红螺路西50米,北京市,北京市,怀柔区,116.6174364,40.37569674
天恒别墅山Ⅱ,商务住宅,住宅区,住宅区,红螺胡景区,北京市,北京市,怀柔区,116.6170625,40.37161545
领秀雁栖翡翠花园(建设中),商务住宅,住宅区,住宅小区,雁栖河西侧,北京市,北京市,怀柔区,116.6681267,40.37488411
中关村怀柔园,商务住宅,产业园区,产业园区,京加路与杨雁路交叉口东50米,北京市,北京市,怀柔区,116.6749157,40.37126129
雁栖园小区,商务住宅,商务住宅相关,商务住宅相关,杨雁路与永乐大街交叉口东北100米,北京市,北京市,怀柔区,116.6786811,40.37155913
中国科学院电子学研究所怀柔园区,商务住宅,产业园区,产业园区|科教文化服务,雁栖东二路5号,北京市,北京市,怀柔区,116.6829779,40.37352759
科学城大气所未来园区,商务住宅,商务住宅相关,商务住宅相关,云西二街附近,北京市,北京市,密云区,116.742578,40.37865328
密云人保大楼,商务住宅,楼宇,商务写字楼,西统路(云谷公寓西侧),北京市,北京市,密云区,116.7501401,40.38007436
万利花园,商务住宅,住宅区,住宅小区,兴云路与密西路交叉口东南150米,北京市,北京市,密云区,116.8164496,40.37768541
中加荣园,商务住宅,住宅区,住宅小区,果园西路西侧紧邻密云一中,北京市,北京市,密云区,116.8118646,40.3722967
学府花园(兴云路),商务住宅,住宅区,住宅小区,兴云路26号,北京市,北京市,密云区,116.8170534,40.37218832
果园北街10号鹊巢公寓,商务住宅,住宅区,住宅区,果园北街10号,北京市,北京市,密云区,116.8189699,40.37372439
季庄小区,商务住宅,住宅区,住宅小区,西门外大街7-5号,北京市,北京市,密云区,116.8233558,40.37730943
果园新里北区,商务住宅,住宅区,住宅小区,密云镇密云新西路,北京市,北京市,密云区,116.8258499,40.37478791
康馨雅苑,商务住宅,住宅区,住宅小区,果园西路密云镇中心小学对面,北京市,北京市,密云区,116.8191229,40.37575802
果园新里中区,商务住宅,住宅区,住宅小区,果园街道,北京市,北京市,密云区,116.8266678,40.37188637
果园西里小区,商务住宅,住宅区,住宅小区,"密云季庄小学南侧,世纪联华西侧",北京市,北京市,密云区,116.8226802,40.371653
果园北里,商务住宅,住宅区,住宅区,密云云光环岛西侧,北京市,北京市,密云区,116.8240557,40.37309311
威霖大厦,商务住宅,楼宇,商务写字楼,果园新里北区综合楼,北京市,北京市,密云区,116.8250993,40.376364
福满苑,商务住宅,商务住宅相关,商务住宅相关,西门外大街14-8号底商,北京市,北京市,密云区,116.8223169,40.37640578
云江苑,商务住宅,住宅区,住宅小区,云光环岛西侧、紧邻密云档案馆,北京市,北京市,密云区,116.8279315,40.37730996
法院家属楼,商务住宅,住宅区,宿舍,新西路西100米,北京市,北京市,密云区,116.8281718,40.37868896
西门外大街16号院,商务住宅,住宅区,住宅小区,密云西门外大街16号,北京市,北京市,密云区,116.8212851,40.37575206
果园西苑16号院,商务住宅,住宅区,住宅区,西门外大街16号,北京市,北京市,密云区,116.8214973,40.37669315
溪苑小区,商务住宅,住宅区,住宅小区,密云云光环岛西侧果园西路16号,北京市,北京市,密云区,116.8212169,40.37630276
龙筑金融服务中心,商务住宅,商务住宅相关,商务住宅相关,季庄小区51号楼底商,北京市,北京市,密云区,116.8243186,40.3773972
时代金典,商务住宅,商务住宅相关,商务住宅相关,果园西路甲15-24,北京市,北京市,密云区,116.8234595,40.37320696
果园街道办事处果园西里社区,商务住宅,住宅区,社区中心,果园北街与果园西路交叉口东150米,北京市,北京市,密云区,116.8214707,40.37373307
财智国际中心,商务住宅,楼宇,商务写字楼,长安街1号,北京市,北京市,密云区,116.8370216,40.37465042
长安小区,商务住宅,住宅区,住宅小区,石桥胡同4号,北京市,北京市,密云区,116.8346806,40.37318869
101家属区,商务住宅,住宅区,住宅小区,滨河路,北京市,北京市,密云区,116.833826,40.37343206
鼓楼四合院,商务住宅,住宅区,住宅区,滨河路与鼓楼西大街交叉口东100米,北京市,北京市,密云区,116.8349528,40.37501859
机床所家属楼,商务住宅,住宅区,住宅区,南更大街与鼓楼西大街交叉口东北100米,北京市,北京市,密云区,116.8370286,40.37517627
双晟商厦,商务住宅,楼宇,商务写字楼,鼓楼西大街2-3号,北京市,北京市,密云区,116.8379102,40.37471398
大象花苑,商务住宅,住宅区,住宅区,长安街17号附近,北京市,北京市,密云区,116.8378314,40.37187576
爱康运营中心,商务住宅,商务住宅相关,商务住宅相关,康居南区15号,北京市,北京市,密云区,116.8291809,40.37699338
康居小区,商务住宅,住宅区,住宅小区,新西路东100米,北京市,北京市,密云区,116.8300752,40.37989008
左岸・首府通下水堵塞公司,商务住宅,商务住宅相关,商务住宅相关,政府对面长安小区西区,北京市,北京市,密云区,116.8347328,40.37242703
世纪家园,商务住宅,住宅区,住宅小区,密云镇世豪酒店北侧,北京市,北京市,密云区,116.8465763,40.37846857
粮贸大厦,商务住宅,楼宇,商务写字楼,鼓楼街道鼓楼东大街29号,北京市,北京市,密云区,116.8431501,40.37525991
富民新区,商务住宅,住宅区,住宅小区,密云鼓楼东大街,北京市,北京市,密云区,116.8440588,40.37399785
鼓楼西区,商务住宅,住宅区,住宅小区,医院北、二中西边,北京市,北京市,密云区,116.839284,40.37934489
密云鼓楼东区,商务住宅,住宅区,住宅小区,新中街与康复路交汇处,北京市,北京市,密云区,116.8432131,40.37662957
信远大厦(鼓楼东大街),商务住宅,楼宇,商务写字楼,鼓楼东大街27号,北京市,北京市,密云区,116.8444973,40.37563506
马道胡同,商务住宅,住宅区,住宅区,西单商场后面,北京市,北京市,密云区,116.8425673,40.37396433
隆源大厦,商务住宅,楼宇,商住两用楼宇,康复路与新中街交叉口西北100米,北京市,北京市,密云区,116.844478,40.37769435
三巨峰大厦,商务住宅,楼宇,商务写字楼,鼓楼北大街6号,北京市,北京市,密云区,116.84029,40.37719636
世豪公寓,商务住宅,住宅区,住宅小区,鼓楼东大街25号,北京市,北京市,密云区,116.8461669,40.37646056
正辰大厦,商务住宅,楼宇,商务写字楼,富民新区1-6号,北京市,北京市,密云区,116.844871,40.37474497
红云楼,商务住宅,楼宇,商务写字楼,鼓楼南大街4号,北京市,北京市,密云区,116.8404817,40.37420966
檀城家园,商务住宅,住宅区,住宅小区,东鱼市胡同与马道胡同交叉口西南100米,北京市,北京市,密云区,116.8429031,40.37225146
西源里,商务住宅,住宅区,住宅小区,新中街11号,北京市,北京市,密云区,116.8444806,40.38094429
白檀小区西区,商务住宅,住宅区,住宅小区,东鱼市胡同附近,北京市,北京市,密云区,116.8410189,40.37242317
鼓楼南区,商务住宅,住宅区,住宅区,隆源大厦1单元102号,北京市,北京市,密云区,116.8441746,40.3775339
白檀小区东区,商务住宅,住宅区,住宅小区,东斜街与新中街交叉口西北150米,北京市,北京市,密云区,116.8441012,40.37172066
白檀科晋社区,商务住宅,住宅区,住宅小区,鼓楼南大街9号,北京市,北京市,密云区,116.841078,40.37240128
花园小区(鼓楼东大街),商务住宅,住宅区,住宅小区,密云密云鼓楼东大街与新东路交叉路口西南角(密东广场南侧),北京市,北京市,密云区,116.8487825,40.37286296
古玩,商务住宅,住宅区,住宅小区,东鱼市胡同与通城胡同交叉口西北50米,北京市,北京市,密云区,116.8414275,40.37333958
鼎盛国际,商务住宅,商务住宅相关,商务住宅相关,鼓楼大街富民新区信远大厦对面1号,北京市,北京市,密云区,116.8442991,40.374774
东鱼市口胡同,商务住宅,住宅区,住宅区,密云红莲南路东侧,北京市,北京市,密云区,116.8423461,40.37324219
檀城住宅楼,商务住宅,住宅区,住宅小区,"101国道以北,新中街二小对面",北京市,北京市,密云区,116.8442253,40.37225469
天空时代,商务住宅,商务住宅相关,商务住宅相关,鼓楼东大街24号附近,北京市,北京市,密云区,116.8446667,40.37458968
密云二中家属楼,商务住宅,住宅区,住宅小区,密云二中,北京市,北京市,密云区,116.8405702,40.37966103
鼓楼南社区青年汇,商务住宅,商务住宅相关,商务住宅相关,康复路隆源大厦一单元102号,北京市,北京市,密云区,116.8450239,40.37761329
白檀小区10号院南区,商务住宅,住宅区,住宅区,光明街与鼓楼南大街交叉口东南50米,北京市,北京市,密云区,116.8400793,40.37265246
东斜街,商务住宅,住宅区,住宅小区,东斜街9号,北京市,北京市,密云区,116.8434381,40.37126168
水库管理处家属院,商务住宅,住宅区,住宅区,翁庄镇水库管理处家属院,北京市,北京市,密云区,116.8435571,40.38107169
鼓楼街道办事处鼓楼南社区,商务住宅,住宅区,社区中心,东门大街27号附近,北京市,北京市,密云区,116.8440013,40.37749962
上营小区,商务住宅,住宅区,住宅小区,"新中街,中医院以北约80米路东",北京市,北京市,密云区,116.8487103,40.38110315
东方云谷,商务住宅,商务住宅相关,商务住宅相关,通城胡同54号楼附近,北京市,北京市,密云区,116.8412093,40.37204162
英伦国际,商务住宅,商务住宅相关,商务住宅相关,新中街151号,北京市,北京市,密云区,116.8448665,40.37130507
德国城,商务住宅,商务住宅相关,商务住宅相关,鼓楼南大街13号全友家居底商,北京市,北京市,密云区,116.8395024,40.37152282
山水大厦,商务住宅,楼宇,商务写字楼,鼓楼东大街3号,北京市,北京市,密云区,116.858029,40.37561284
行宫东区,商务住宅,住宅区,住宅小区,檀西路与长城环岛交叉口西150米,北京市,北京市,密云区,116.8588089,40.37570088
东菜园小区,商务住宅,住宅区,住宅小区,行宫街与鼓楼东大街交叉口西南150米,北京市,北京市,密云区,116.8557142,40.37390514
吉祥家园,商务住宅,住宅区,住宅小区,檀西路135号院,北京市,北京市,密云区,116.8590356,40.38034666
华冠大厦,商务住宅,楼宇,商务写字楼,新南路46号,北京市,北京市,密云区,116.8579042,40.37282158
密东广场,商务住宅,住宅区,住宅小区,密云镇鼓楼东大街,北京市,北京市,密云区,116.8502984,40.37578441
宾阳里,商务住宅,住宅区,住宅小区,新东路,北京市,北京市,密云区,116.8546161,40.37916184
宾阳西里南区,商务住宅,住宅区,住宅小区,密云镇四条8号,北京市,北京市,密云区,116.8513816,40.37878311
鼓楼街道办事处宾阳社区,商务住宅,住宅区,住宅小区,新东路161号,北京市,北京市,密云区,116.8526063,40.37957371
安达家园,商务住宅,住宅区,住宅区,东门大街与新东路交叉口东150米,北京市,北京市,密云区,116.8542408,40.3773039
云湖生活小区,商务住宅,住宅区,住宅小区,东门外环新路2号,北京市,北京市,密云区,116.8576032,40.37746565
宾阳西里小区东区,商务住宅,住宅区,住宅区,新东路75号附近,北京市,北京市,密云区,116.8545941,40.37867097
光阳小区,商务住宅,住宅区,住宅小区,东鱼市胡同与新东路交叉口西北50米,北京市,北京市,密云区,116.8523677,40.37350333
矿山公司小区,商务住宅,住宅区,住宅小区,行宫街附近,北京市,北京市,密云区,116.8579748,40.37658145
尚品花苑,商务住宅,商务住宅相关,商务住宅相关,中国邮政储蓄银行南60米(东源路),北京市,北京市,密云区,116.8525461,40.3802404
行宫社区居民文体活动中心,商务住宅,住宅区,社区中心,东源路与行宫街交叉口东100米,北京市,北京市,密云区,116.8574657,40.3800706
宾阳社区文化活动中心,商务住宅,住宅区,社区中心,新东路157号附近,北京市,北京市,密云区,116.8527094,40.37960786
长城大厦(檀西路),商务住宅,楼宇,商务写字楼,新南路43号,北京市,北京市,密云区,116.8611106,40.37588886
行宫小区(行宫街),商务住宅,住宅区,住宅小区,穆家峪,北京市,北京市,密云区,116.8602762,40.37882881
后院密云定损中心,商务住宅,商务住宅相关,商务住宅相关,新南路37号,北京市,北京市,密云区,116.8633049,40.37591361
石桥新西区,商务住宅,住宅区,住宅区,城长城环岛北侧,北京市,北京市,密云区,116.860582,40.37572923
石桥西区-南区,商务住宅,住宅区,住宅区,旧密古路与檀西路交叉口东北200米,北京市,北京市,密云区,116.8611019,40.38118911
万都金港,商务住宅,商务住宅相关,商务住宅相关,新南路42-4号附近,北京市,北京市,密云区,116.8592807,40.37379913
保利花园北区,商务住宅,住宅区,住宅小区,阳光街385号,北京市,北京市,密云区,116.8602051,40.37170503
蔡家洼新村,商务住宅,住宅区,住宅小区,巨各庄镇蔡家洼村,北京市,北京市,密云区,116.8872972,40.37177241
潮白河畔生态美食园,商务住宅,产业园区,产业园区,巨各庄镇东白岩村西500米养老院旁边,北京市,北京市,密云区,116.8935903,40.37995812
中铁二十二局巨各庄制板场,商务住宅,商务住宅相关,商务住宅相关,鑫诚东路北50米,北京市,北京市,密云区,116.9208442,40.37522842
山涧别墅,商务住宅,商务住宅相关,商务住宅相关,密三路北100米,北京市,北京市,密云区,116.9309683,40.37469888
水峪村,商务住宅,商务住宅相关,商务住宅相关,密兴旧路与水辛路交叉口东北100米,北京市,北京市,密云区,116.9492284,40.37364798
农夫家园,商务住宅,住宅区,别墅,延庆康庄镇、京张高速康庄出口西北900米,北京市,北京市,延庆区,115.8984349,40.36819694
康恒兴商厦,商务住宅,楼宇,商务写字楼,兴隆商业街与兴隆街交叉口东南100米,北京市,北京市,延庆区,115.8961896,40.37106521
康庄小区(晨光南街),商务住宅,住宅区,住宅小区,延庆八达岭高速康庄出口1.5公里,北京市,北京市,延庆区,115.8997502,40.36915244
青砖府邸,商务住宅,住宅区,住宅区,西关路与康张路交叉口530米路南,北京市,北京市,延庆区,115.9002307,40.36607231
八达岭新能源谷,商务住宅,产业园区,产业园区,西官路与长城三路交叉口北150米,北京市,北京市,延庆区,115.9134267,40.36700637
合锐赛尔宿舍,商务住宅,住宅区,宿舍,长城二路附近,北京市,北京市,延庆区,115.9166566,40.36830614
中关村延庆园,商务住宅,商务住宅相关,商务住宅相关,康庄镇紫光东路1号中关村科技园区,北京市,北京市,延庆区,115.9263626,40.36235673
八达岭山庄,商务住宅,住宅区,别墅,阳光路8号,北京市,北京市,延庆区,115.9416499,40.36194004
营城子小区,商务住宅,住宅区,住宅小区,营城子桥与G6京藏高速交叉口东150米,北京市,北京市,延庆区,115.9510203,40.36155093
悦泽苑,商务住宅,住宅区,住宅区,东关村,北京市,北京市,延庆区,115.9677692,40.36798903
圣泉农家院饭庄10号院,商务住宅,住宅区,住宅区,近郊怀柔区红螺东路10号院(近圣泉寺)附近,北京市,北京市,怀柔区,116.5719742,40.36285113
红螺雅园,商务住宅,住宅区,住宅小区,西三村10号,北京市,北京市,怀柔区,116.5888318,40.36775201
27号院,商务住宅,住宅区,住宅区,西三村东峪27号,北京市,北京市,怀柔区,116.5860914,40.36280606
怀西庄园,商务住宅,商务住宅相关,商务住宅相关,怀黄公路与西甘路交叉口东南150米,北京市,北京市,怀柔区,116.5910672,40.36197298
湖光山舍,商务住宅,住宅区,住宅小区,红螺路16号院,北京市,北京市,怀柔区,116.6182951,40.3664398
滨湖别墅,商务住宅,住宅区,别墅,红螺路16号,北京市,北京市,怀柔区,116.6168923,40.36680015
中华坊,商务住宅,住宅区,住宅区,怀柔镇红螺山脚下,北京市,北京市,怀柔区,116.6191286,40.36678979
红螺路16号院,商务住宅,住宅区,住宅区,怀柔镇红螺寺路湖光山舍,北京市,北京市,怀柔区,116.6173915,40.36683263
山水墅,商务住宅,住宅区,别墅,范崎路与雁栖湖联络线交叉口东100米,北京市,北京市,怀柔区,116.6514653,40.36395027
鸿翔花园,商务住宅,住宅区,住宅小区,雁栖范崎路8号,北京市,北京市,怀柔区,116.6531827,40.36273847
周家胡同,商务住宅,住宅区,住宅小区,范各庄村路东50米,北京市,北京市,怀柔区,116.6588715,40.36459416
顶秀美泉小镇,商务住宅,住宅区,住宅小区,雁栖湖范各庄村京加路,北京市,北京市,怀柔区,116.6660813,40.36917888
北京雁栖工业开发区,商务住宅,产业园区,产业园区,雁栖镇范各庄,北京市,北京市,怀柔区,116.6603686,40.36209308
美泉公寓,商务住宅,住宅区,住宅小区,顶秀美泉小镇C区丙7丙8号楼,北京市,北京市,怀柔区,116.6676082,40.36710459
招商中心,商务住宅,商务住宅相关,商务住宅相关,顶秀美泉小镇丙6-101,北京市,北京市,怀柔区,116.6671715,40.36663858
雁舞园,商务住宅,住宅区,住宅小区,京加路附近,北京市,北京市,怀柔区,116.6665347,40.36395365
工业小区路,商务住宅,住宅区,住宅区,雁栖镇范各庄北京雁栖工业开发区附近,北京市,北京市,怀柔区,116.6606697,40.36199054
栖美园(雁栖河西二路),商务住宅,住宅区,住宅小区,雁栖大街51号,北京市,北京市,怀柔区,116.6700457,40.36350104
工业开发区,商务住宅,产业园区,产业园区,雁栖北二街2号,北京市,北京市,怀柔区,116.6871336,40.36574166
雁西园小区,商务住宅,住宅区,住宅小区,怀柔迎乡镇企业城,北京市,北京市,怀柔区,116.6799747,40.36118599
大北农科技园,商务住宅,产业园区,产业园区,雁栖经济开发区雁栖北三街8号,北京市,北京市,怀柔区,116.6905004,40.36762027
沿村南区,商务住宅,住宅区,住宅小区,统仓路西200米,北京市,北京市,密云区,116.7404936,40.36836284
沿村北区,商务住宅,住宅区,住宅小区,,北京市,北京市,密云区,116.7390794,40.36970766
沿村社区,商务住宅,住宅区,住宅小区,统仓路东50米,北京市,北京市,密云区,116.7428482,40.3683326
云西开发区,商务住宅,产业园区,产业园区,西统路北100米,北京市,北京市,密云区,116.7487462,40.36599763
靳各寨工业小区,商务住宅,住宅区,住宅小区,靳各寨工业小区独栋厂房,北京市,北京市,密云区,116.7811684,40.36257669
赏星悦木,商务住宅,住宅区,住宅小区,十里堡镇西大桥路53号,北京市,北京市,密云区,116.7990422,40.36120462
双井工业园,商务住宅,产业园区,产业园区,密沙路与新北路交叉口西150米,北京市,北京市,密云区,116.7955912,40.36421003
富帛家属院,商务住宅,住宅区,住宅小区,兴云西侧,北京市,北京市,密云区,116.8065166,40.36617598
中加福园,商务住宅,住宅区,住宅小区,兴盛北路13号院,北京市,北京市,密云区,116.8046319,40.36894278
海怡庄园,商务住宅,住宅区,住宅小区,大桥西街37号附近,北京市,北京市,密云区,116.8066993,40.36310127
安平公寓,商务住宅,商务住宅相关,商务住宅相关,双新街77号附近,北京市,北京市,密云区,116.8051732,40.36584071
海怡商贸园,商务住宅,住宅区,住宅区,"工业开发区对面,101国道北侧十里堡镇",北京市,北京市,密云区,116.8067234,40.36291437
兴云小区,商务住宅,住宅区,住宅小区,双燕街,北京市,北京市,密云区,116.8136094,40.36802526
长安金源大厦,商务住宅,楼宇,商务写字楼,兴云小区14号,北京市,北京市,密云区,116.8150554,40.36608654
招商大厦,商务住宅,楼宇,商务写字楼,西大桥路21号,北京市,北京市,密云区,116.8124807,40.36527005
互联网金融大厦,商务住宅,楼宇,商务写字楼,西大桥路21号,北京市,北京市,密云区,116.8125859,40.36528124
兴云乙区,商务住宅,住宅区,住宅小区,兴云路34号,北京市,北京市,密云区,116.8162714,40.36823812
西大桥路19号院,商务住宅,住宅区,住宅区,西大桥路19号,北京市,北京市,密云区,116.8130958,40.36538615
密云学府,商务住宅,住宅区,住宅区,兴云路30号,北京市,北京市,密云区,116.8152815,40.36904303
通用博园(建设中),商务住宅,住宅区,住宅小区,双燕街,北京市,北京市,密云区,116.8099636,40.36836748
中加荣园南区,商务住宅,住宅区,住宅小区,,北京市,北京市,密云区,116.8095065,40.37039501
密云区人民法院宿舍,商务住宅,住宅区,宿舍,通淋街附近,北京市,北京市,密云区,116.8184645,40.36171024
懿品府,商务住宅,住宅区,住宅小区,果园路9号院,北京市,北京市,密云区,116.8244435,40.36450955
果园西里南区,商务住宅,住宅区,住宅小区,果园路西200米,北京市,北京市,密云区,116.8228798,40.37001889
瑞海姆公寓,商务住宅,住宅区,住宅小区,农机路1号院,北京市,北京市,密云区,116.8265725,40.36504736
奥林公寓,商务住宅,住宅区,住宅小区,密云西大桥北侧滨河西路和京密路交叉口,北京市,北京市,密云区,116.8276961,40.36906918
同观涧桥山,商务住宅,住宅区,住宅小区,"农机路2号,瑞海姆田园度假村南侧",北京市,北京市,密云区,116.8275096,40.36230196
温馨家园,商务住宅,住宅区,住宅小区,果园南路与新南路交叉口西北200米,北京市,北京市,密云区,116.8236015,40.36796889
密云大学生公寓公共充电点,商务住宅,商务住宅相关,商务住宅相关,检查院东侧,北京市,北京市,密云区,116.8241938,40.36672139
果园西路38号院,商务住宅,住宅区,住宅小区,果园西路38号,北京市,北京市,密云区,116.8211326,40.36903694
漪莲轩,商务住宅,住宅区,住宅区,果园西路38号院6号楼1单元,北京市,北京市,密云区,116.8215956,40.36855795
果园西苑,商务住宅,住宅区,住宅区,"密云果园西路东,公园街南侧",北京市,北京市,密云区,116.8254117,40.36985768
首都经贸大学分校学生公寓,商务住宅,住宅区,宿舍,果园路4号,北京市,北京市,密云区,116.8253437,40.36853297
中加锦园,商务住宅,住宅区,住宅小区,密云镇果园街道园林路2号,北京市,北京市,密云区,116.8226621,40.36480513
果园新里,商务住宅,住宅区,住宅小区,新西路83号,北京市,北京市,密云区,116.8279514,40.3705082
首都经济贸易大学密云分校-女生公寓,商务住宅,住宅区,宿舍,西大桥路7号首都经济贸易大学密云分校,北京市,北京市,密云区,116.8231016,40.36770204
首都经济贸易大学密云分校女生宿舍,商务住宅,住宅区,宿舍,园林路与新南路交叉口北150米,北京市,北京市,密云区,116.8213111,40.36778467
菁英之家社区青年汇,商务住宅,商务住宅相关,商务住宅相关,园林路7号,北京市,北京市,密云区,116.8213257,40.36324811
溪水雅地,商务住宅,住宅区,住宅小区,顺路白河东侧,北京市,北京市,密云区,116.8327914,40.36303847
赏云轩嘉园,商务住宅,住宅区,住宅小区,滨河路50号院,北京市,北京市,密云区,116.8322221,40.36495183
长安小区东区,商务住宅,住宅区,住宅小区,鼓楼街道,北京市,北京市,密云区,116.8374289,40.37001264
长安小区南区,商务住宅,住宅区,住宅小区,光明街与清真胡同交叉口东南100米,北京市,北京市,密云区,116.8349343,40.37104384
开园小区,商务住宅,住宅区,住宅小区,阳光街附近,北京市,北京市,密云区,116.835735,40.36140831
密云滨河路小区,商务住宅,住宅区,住宅小区,滨河路南段奥林匹克公园东侧,北京市,北京市,密云区,116.8328677,40.36995043
檀州家园,商务住宅,住宅区,住宅小区,京密路以南,北京市,北京市,密云区,116.8365328,40.36657513
奥林匹克园,商务住宅,商务住宅相关,商务住宅相关,滨河路26号楼-a2号,北京市,北京市,密云区,116.8322065,40.3697203
鼎圣世家,商务住宅,商务住宅相关,商务住宅相关,阳光街北50米,北京市,北京市,密云区,116.8383194,40.36271851
锦添新居,商务住宅,商务住宅相关,商务住宅相关,阳光街785-10号附近,北京市,北京市,密云区,116.8335759,40.36224514
赏星悦目,商务住宅,楼宇,商务写字楼,石桥胡同与长安街交叉口西100米,北京市,北京市,密云区,116.8372976,40.37051325
宁静之都檀城西区,商务住宅,住宅区,住宅小区,密云北京市密云县新中街177号,北京市,北京市,密云区,116.8446327,40.36626528
檀城东区,商务住宅,住宅区,住宅小区,"华远市场北侧,101国道路南",北京市,北京市,密云区,116.8479428,40.36776324
承建大厦,商务住宅,楼宇,商务写字楼,新中街44号附近,北京市,北京市,密云区,116.8453635,40.36954146
檀城家园北区,商务住宅,住宅区,住宅小区,东斜街12号附近,北京市,北京市,密云区,116.8435795,40.36998833
金寓大厦,商务住宅,楼宇,商务写字楼,南河路与新南路交叉口西南50米,北京市,北京市,密云区,116.8399606,40.36825366
檀城家园东区,商务住宅,住宅区,住宅小区,东斜街12号附近,北京市,北京市,密云区,116.8435735,40.36998532
福城国际公寓,商务住宅,住宅区,住宅小区,京密路与顺密旧路交叉口东南200米,北京市,北京市,密云区,116.8413632,40.36701548
檀城公寓,商务住宅,商务住宅相关,商务住宅相关,新中街与阳光街交叉口西50米,北京市,北京市,密云区,116.8471549,40.36538272
通城胡同,商务住宅,住宅区,住宅区,密云红莲南路东侧通城胡同,北京市,北京市,密云区,116.8424785,40.3711171
华南印象,商务住宅,商务住宅相关,商务住宅相关,南门京客隆2层,北京市,北京市,密云区,116.8410864,40.36916333
金融街售楼中心,商务住宅,商务住宅相关,商务住宅相关,南河路与新南路交叉口东南150米,北京市,北京市,密云区,116.8400258,40.36739005
鼓楼街道办事处檀城西区社区,商务住宅,住宅区,社区中心,新中街179-11号附近,北京市,北京市,密云区,116.8463685,40.36673101
檀州家园社区文体活动服务站,商务住宅,住宅区,社区中心,南河路52号附近,北京市,北京市,密云区,116.8400573,40.36417411
阳光家园(花园路),商务住宅,住宅区,住宅小区,花园路16号,北京市,北京市,密云区,116.8520479,40.36839748
保利花园,商务住宅,住宅区,住宅小区,阳光街385号院,北京市,北京市,密云区,116.8584474,40.36808783
银河湾(阳光街),商务住宅,住宅区,住宅小区,密云阳光街389号院,北京市,北京市,密云区,116.856733,40.37026576
阳光苑小区,商务住宅,住宅区,住宅小区,阳光街,北京市,北京市,密云区,116.8536582,40.36807001
向阳西区社区,商务住宅,住宅区,住宅小区,花园路与阳光街交叉口东100米,北京市,北京市,密云区,116.8526028,40.36715871
文化旅游产业基地,商务住宅,产业园区,产业园区,水源路北50米,北京市,北京市,密云区,116.8522347,40.36365625
龙环汇丰密云财富中心,商务住宅,商务住宅相关,商务住宅相关,阳光街集家房地产西南50米(华远市场北),北京市,北京市,密云区,116.853293,40.36576019
新东小区,商务住宅,住宅区,住宅小区,新东路305号院,北京市,北京市,密云区,116.8533955,40.37020994
阳光街391号院,商务住宅,住宅区,住宅区,阳光街391号,北京市,北京市,密云区,116.8536111,40.36840383
密云花园路16号院,商务住宅,商务住宅相关,商务住宅相关,花园路16号院3号楼1单元1102,北京市,北京市,密云区,116.8518918,40.36729059
鼓楼街道办事处檀城东社区,商务住宅,住宅区,社区中心,新东路与阳光街交叉口西50米,北京市,北京市,密云区,116.8548748,40.36848766
柏林山水,商务住宅,住宅区,住宅小区,阳光街388,北京市,北京市,密云区,116.8617351,40.36958069
柏林花园,商务住宅,住宅区,住宅小区,阳光街388号院4,北京市,北京市,密云区,116.8595465,40.3700277
阳光社区文体活动服务站,商务住宅,住宅区,社区中心,阳光街375号附近,北京市,北京市,密云区,116.8614335,40.37118379
中铁二十二局沈客专九标三工区,商务住宅,产业园区,产业园区,丰各庄后街与自强西路交叉口西150米,北京市,北京市,密云区,116.9158374,40.37111087
青年公寓,商务住宅,商务住宅相关,商务住宅相关,矿区路西100米,北京市,北京市,密云区,117.0024913,40.36437928
阳光假日别墅,商务住宅,住宅区,别墅,,北京市,北京市,延庆区,115.9376004,40.35776907
依兰苑,商务住宅,住宅区,住宅区,八达岭镇阳光假日别墅,北京市,北京市,延庆区,115.9346446,40.35863706
凤葵苑,商务住宅,住宅区,住宅区,八达岭山庄,北京市,北京市,延庆区,115.9365563,40.35791892
金棕苑,商务住宅,住宅区,住宅区,八达岭镇阳光路8号阳光假日别墅,北京市,北京市,延庆区,115.9367707,40.35956703
绿椤苑,商务住宅,住宅区,住宅区,八达岭镇阳光路8号阳光假日别墅一期,北京市,北京市,延庆区,115.9391104,40.35841705
北京长城阳光峪马术俱乐部宿舍1号楼,商务住宅,住宅区,宿舍,八达岭镇阳光假日别墅北京长城阳光峪马术俱乐部宿舍1,北京市,北京市,延庆区,115.9420747,40.356018
石佛寺新村,商务住宅,住宅区,住宅小区,,北京市,北京市,延庆区,115.9550151,40.36038477
万香苑,商务住宅,住宅区,住宅小区,八达岭镇营城子,北京市,北京市,延庆区,115.9510654,40.36039218
营城子小区2期,商务住宅,商务住宅相关,商务住宅相关,,北京市,北京市,延庆区,115.9536857,40.36019406
程家窑,商务住宅,住宅区,住宅小区,八达岭镇西拨子桥军都山酒家后侧200米,北京市,北京市,延庆区,115.9597133,40.35937329
清凉盛景,商务住宅,住宅区,别墅,八达岭高速58号,北京市,北京市,延庆区,115.9716989,40.35913674
岔道小区,商务住宅,住宅区,住宅小区,八达岭镇西拨子,北京市,北京市,延庆区,115.9733336,40.35976687
八达岭小区,商务住宅,住宅区,住宅小区,216省道南100米,北京市,北京市,延庆区,115.9702184,40.36097937
岔道口小区,商务住宅,住宅区,住宅小区,216省道南100米,北京市,北京市,延庆区,115.9827311,40.36061793
秋菊农家乐32号院,商务住宅,商务住宅相关,商务住宅相关,昌赤路西150米,北京市,北京市,昌平区,116.2412622,40.35601585
水岸庭院,商务住宅,住宅区,住宅小区,"九渡河镇团泉村,怀长路南侧",北京市,北京市,怀柔区,116.4380454,40.35821439
禾蓉居,商务住宅,住宅区,住宅小区,九渡河镇团泉村,北京市,北京市,怀柔区,116.4322422,40.35236532
溪谷风情,商务住宅,住宅区,住宅区,九渡河,北京市,北京市,怀柔区,116.4326151,40.35121025
自在溪谷,商务住宅,商务住宅相关,商务住宅相关,溪谷,北京市,北京市,怀柔区,116.4326021,40.35106628
圣泉公寓,商务住宅,住宅区,住宅小区,台关路西100米,北京市,北京市,怀柔区,116.5583206,40.35758369
天恒别墅山,商务住宅,住宅区,别墅,红螺路39号院,北京市,北京市,怀柔区,116.6139774,40.3546327
天恒・半山世家,商务住宅,住宅区,住宅区,红螺路39号院,北京市,北京市,怀柔区,116.6148761,40.35403305
红螺湖别墅,商务住宅,住宅区,别墅,红螺湖路8号-怀柔区红螺湖东南岸(红螺寺南2公里),北京市,北京市,怀柔区,116.6246723,40.35970844
红螺湖山地庄园别墅,商务住宅,住宅区,住宅区,刘各长445号(天地正缘工贸有限公司院内西侧),北京市,北京市,怀柔区,116.6286834,40.35771271
雁栖林语,商务住宅,住宅区,住宅小区,红螺路36号,北京市,北京市,怀柔区,116.6199175,40.3565021
红螺家园,商务住宅,住宅区,住宅小区,怀柔刘各长村西侧青春路96号院,北京市,北京市,怀柔区,116.625336,40.35159704
怀柔莱茵庄园别墅,商务住宅,商务住宅相关,商务住宅相关,中刘路北200米,北京市,北京市,怀柔区,116.6274139,40.35862617
红莲山庄,商务住宅,商务住宅相关,商务住宅相关,怀柔红螺湖水库东南岸,北京市,北京市,怀柔区,116.6251174,40.36008175
凤山小区,商务住宅,住宅区,住宅小区,下辛庄村南,北京市,北京市,怀柔区,116.6480624,40.35744948
新村,商务住宅,住宅区,住宅小区,雁栖经济开发区,北京市,北京市,怀柔区,116.6557697,40.35357442
雁鸣园,商务住宅,住宅区,住宅区,工业小区路与雁栖大街交叉口南50米,北京市,北京市,怀柔区,116.6617379,40.36048395
雁栖路6号院,商务住宅,住宅区,住宅小区,杨雁路东50米,北京市,北京市,怀柔区,116.6785023,40.35806168
奥星医药包装材料北京制造中心B区,商务住宅,产业园区,产业园区,雁栖大街22号附近,北京市,北京市,怀柔区,116.684289,40.36019443
水厂别墅,商务住宅,住宅区,别墅,雁栖东二路38号,北京市,北京市,怀柔区,116.6902967,40.35427473
工业开发区,商务住宅,产业园区,产业园区,雁栖大街4号,北京市,北京市,怀柔区,116.692173,40.36061465
明珠花园东区,商务住宅,住宅区,住宅小区,十里堡,北京市,北京市,密云区,116.7879174,40.35115929
采风南区,商务住宅,住宅区,住宅区,顺义彩虹桥南,北京市,北京市,密云区,116.7879592,40.35311477
彩俸北区,商务住宅,住宅区,住宅区,彩虹桥旁边,北京市,北京市,密云区,116.7879592,40.35311477
隆源工业园区,商务住宅,产业园区,产业园区,十里堡镇京密路,北京市,北京市,密云区,116.7891461,40.35190485
博世庄园,商务住宅,住宅区,住宅小区,西大桥路51号赏心悦目别墅东,北京市,北京市,密云区,116.8015635,40.36062906
绿神保科技大厦,商务住宅,楼宇,商务写字楼,康宝路南100米,北京市,北京市,密云区,116.8048737,40.35775568
众勤公寓,商务住宅,商务住宅相关,商务住宅相关,康宝路与西祥路交叉口西150米,北京市,北京市,密云区,116.799174,40.35685017
自修大学公寓,商务住宅,住宅区,宿舍,西祥路,北京市,北京市,密云区,116.799175,40.35685017
国锐・境界,商务住宅,住宅区,住宅小区,云腾路2,北京市,北京市,密云区,116.8136326,40.35154835
清华同方密云工业园,商务住宅,产业园区,产业园区,云腾路1号,北京市,北京市,密云区,116.8134379,40.35408324
清华同方住宿区,商务住宅,住宅区,住宅区,恒通路与远光街交叉口东南150米,北京市,北京市,密云区,116.8123283,40.3577141
密水居科技园,商务住宅,产业园区,产业园区,一期云腾路2号,北京市,北京市,密云区,116.8136094,40.35234008
第一产业集团北京密云物流园,商务住宅,产业园区,产业园区,经济开发区恒通路9号,北京市,北京市,密云区,116.8147708,40.35899021
密云区工业开发区,商务住宅,产业园区,产业园区,密云经济开发区兴盛南路8号,北京市,北京市,密云区,116.8112952,40.35166703
桃源公馆,商务住宅,住宅区,住宅小区,果园街道园林东路2号,北京市,北京市,密云区,116.8260821,40.36102769
果园街道办事处瑞和园社区,商务住宅,住宅区,住宅小区,涧桥山小区2号楼瑞和园社区居委会附近,北京市,北京市,密云区,116.8274487,40.36073033
创业公社(密云分部),商务住宅,产业园区,产业园区,顺密路绿地朗山国际健康产业园内,北京市,北京市,密云区,116.8280569,40.352323
蓝河湾,商务住宅,住宅区,住宅小区,滨河路太扬家园东侧,北京市,北京市,密云区,116.8344631,40.35843192
太扬家园,商务住宅,住宅区,住宅小区,顺路,北京市,北京市,密云区,116.8311859,40.35914672
华润・橡树湾,商务住宅,住宅区,住宅小区,密云镇滨河路水源路交叉口东南角,北京市,北京市,密云区,116.8333004,40.35431506
密云生态商务区,商务住宅,住宅区,住宅小区,水源路,北京市,北京市,密云区,116.8345505,40.35618476
中铁绿港,商务住宅,住宅区,住宅小区,太扬家园北侧,北京市,北京市,密云区,116.8320635,40.35956121
一街新村,商务住宅,住宅区,住宅区,阳光街南200米,北京市,北京市,密云区,116.8369011,40.36099452
东辰家属院,商务住宅,住宅区,住宅小区,水源路,北京市,北京市,密云区,116.8411229,40.35812482
密云县水源路南侧自住商品房,商务住宅,住宅区,住宅区,水源路南侧,北京市,北京市,密云区,116.843631,40.35909781
蔡家洼工业园,商务住宅,产业园区,产业园区,宁菜路与平安庄大街交叉口北150米,北京市,北京市,密云区,116.8912047,40.36079292
农业科技开发大楼,商务住宅,楼宇,商务写字楼,巨各庄,北京市,北京市,密云区,116.9020042,40.35694757
北京金顺鑫小区,商务住宅,住宅区,住宅小区,巨各庄路口西南200米,北京市,北京市,密云区,116.9887442,40.35841103
美澜苑,商务住宅,住宅区,住宅区,,北京市,北京市,延庆区,115.9332566,40.34575223
星晴苑,商务住宅,住宅区,住宅区,八达岭镇阳光假日,北京市,北京市,延庆区,115.933496,40.34743534
珍露苑,商务住宅,住宅区,住宅区,阳光路8号八达岭山庄,北京市,北京市,延庆区,115.9362864,40.34555407
绿野苑,商务住宅,住宅区,住宅区,八达岭镇阳光路8号,北京市,北京市,延庆区,115.9335816,40.34909272
凌澜苑,商务住宅,住宅区,住宅区,,北京市,北京市,延庆区,115.9348892,40.34295527
金阳苑,商务住宅,住宅区,住宅区,八达岭镇阳光假日别墅,北京市,北京市,延庆区,115.9372132,40.34934129
祥云苑,商务住宅,住宅区,住宅区,八达岭镇阳光路8号阳光假日别墅,北京市,北京市,延庆区,115.9340566,40.35078742
天和苑,商务住宅,商务住宅相关,商务住宅相关,,北京市,北京市,延庆区,115.9316747,40.34142106
小姑别墅,商务住宅,商务住宅相关,商务住宅相关,,北京市,北京市,延庆区,115.9393736,40.3451315
南园小区,商务住宅,住宅区,住宅小区,西残路与216省道交叉口西北200米,北京市,北京市,延庆区,115.9776107,40.35005434
东沟小区,商务住宅,住宅区,住宅小区,西残路与216省道交叉口西北150米,北京市,北京市,延庆区,115.9787141,40.34997311
一舍,商务住宅,商务住宅相关,商务住宅相关,石梨路西50米,北京市,北京市,昌平区,116.186868,40.3410864
溪谷风情8区4排,商务住宅,住宅区,住宅区,九渡河镇团泉村,北京市,北京市,怀柔区,116.4345665,40.35008377
溪谷风情8区10排,商务住宅,住宅区,住宅区,九渡河镇团泉村,北京市,北京市,怀柔区,116.432454,40.35005734
溪谷风情6区9排,商务住宅,住宅区,住宅区,九渡河镇团泉村,北京市,北京市,怀柔区,116.4322125,40.35001497
溪谷风情8区3排,商务住宅,住宅区,住宅区,九渡河镇团泉村,北京市,北京市,怀柔区,116.4345845,40.35035572
溪谷风情6区8排,商务住宅,住宅区,住宅区,九渡河镇团泉村,北京市,北京市,怀柔区,116.4322074,40.35029688
溪谷风情8区2排,商务住宅,住宅区,住宅区,九渡河镇团泉村,北京市,北京市,怀柔区,116.4346075,40.35054571
溪谷风情6区7排,商务住宅,住宅区,住宅区,九渡河镇团泉村,北京市,北京市,怀柔区,116.4322304,40.35056184
溪谷风情8区1排,商务住宅,住宅区,住宅区,九渡河镇团泉村,北京市,北京市,怀柔区,116.4345935,40.35077861
溪谷风情8区9排(1),商务住宅,住宅区,住宅区,九渡河镇团泉村,北京市,北京市,怀柔区,116.4324719,40.35083414
溪谷风情6区6排,商务住宅,住宅区,住宅区,九渡河镇团泉村,北京市,北京市,怀柔区,116.4322254,40.35079876
溪谷风情5区6排,商务住宅,住宅区,住宅区,九渡河镇团泉村,北京市,北京市,怀柔区,116.4309237,40.3505968
溪谷风情5区5排,商务住宅,住宅区,住宅区,九渡河镇团泉村,北京市,北京市,怀柔区,116.4309678,40.3508138
溪谷风情8区9排(2),商务住宅,住宅区,住宅区,九渡河镇团泉村,北京市,北京市,怀柔区,116.432495,40.35056325
溪谷风情8区12排,商务住宅,住宅区,住宅区,九渡河镇团泉村,北京市,北京市,怀柔区,116.4325041,40.34981749
溪谷风情8区11排,商务住宅,住宅区,住宅区,九渡河镇团泉村,北京市,北京市,怀柔区,116.43245,40.35001235
溪谷风情5区7排,商务住宅,住宅区,住宅区,九渡河镇团泉村,北京市,北京市,怀柔区,116.4309458,40.35043188
溪谷风情5区9排,商务住宅,住宅区,住宅区,九渡河镇团泉村,北京市,北京市,怀柔区,116.4296361,40.35094077
北京宽桥影视文化产业园,商务住宅,产业园区,产业园区,一渡河村,北京市,北京市,怀柔区,116.5064418,40.34362984
人济庄园,商务住宅,住宅区,别墅,桥梓镇北宅村,北京市,北京市,怀柔区,116.5571301,40.34422587
塞班假日,商务住宅,住宅区,别墅,青春路61号,北京市,北京市,怀柔区,116.6232351,40.34372998
富乐小区南里43号,商务住宅,住宅区,住宅区,怀柔镇富乐大街富乐小区南里43号,北京市,北京市,怀柔区,116.6364445,40.34459105
大中富乐社区,商务住宅,住宅区,住宅小区,富乐大街,北京市,北京市,怀柔区,116.6344295,40.34308863
富乐小区南里186号,商务住宅,住宅区,住宅区,怀柔镇红螺路富乐小区南里186号,北京市,北京市,怀柔区,116.6377782,40.34570559
雁来园,商务住宅,住宅区,住宅小区,,北京市,北京市,怀柔区,116.6483394,40.34359908
雁栖一品园,商务住宅,商务住宅相关,商务住宅相关,乐园大街,北京市,北京市,怀柔区,116.6488829,40.34387702
山湖花园,商务住宅,住宅区,住宅区,雁栖镇下辛庄山湖花园,北京市,北京市,怀柔区,116.6438096,40.34162466
艺汇家・中国国际手工村文化创意产业园区,商务住宅,产业园区,产业园区,大中富乐村东756号,北京市,北京市,怀柔区,116.6407434,40.3419378
育龙馨居,商务住宅,住宅区,住宅小区,乐园大街北100米,北京市,北京市,怀柔区,116.6546777,40.34618465
爱在小时代,商务住宅,商务住宅相关,商务住宅相关,中高路与雁栖中心路交叉口西100米,北京市,北京市,怀柔区,116.6518783,40.34750248
育龙铭居,商务住宅,住宅区,住宅小区,乐园大街16,北京市,北京市,怀柔区,116.6505101,40.34656727
雁来园北二街四号院,商务住宅,商务住宅相关,商务住宅相关,乐园大街南50米,北京市,北京市,怀柔区,116.6582468,40.3448293
陈各庄回迁小区设计中心,商务住宅,商务住宅相关,商务住宅相关,陈各庄幼儿园东北60米(中高路南),北京市,北京市,怀柔区,116.6588878,40.34622467
世嘉光织谷,商务住宅,住宅区,住宅区,怀柔陈各庄路口西乐园大街北侧,北京市,北京市,怀柔区,116.6513647,40.34758241
雁栖湖生态发展示范区环境整治定向安置房,商务住宅,住宅区,住宅区,雁栖镇八路附近,北京市,北京市,怀柔区,116.6496151,40.34238212
乐园西大街15号院,商务住宅,住宅区,住宅区,中高路北50米,北京市,北京市,怀柔区,116.6498318,40.34788113
北京光织谷直通高架上京承高速普通公寓,商务住宅,住宅区,住宅区,中高路附近世嘉光织谷西区,北京市,北京市,怀柔区,116.6499864,40.34806079
金枫儒苑,商务住宅,住宅区,住宅小区,杨雁路33号,北京市,北京市,怀柔区,116.6770733,40.34996278
瑞奥工业园,商务住宅,产业园区,产业园区,雁栖经济开发区雁东二路68号,北京市,北京市,怀柔区,116.6874051,40.34814153
宝山镇汽车产业工业园,商务住宅,产业园区,产业园区,雁栖南四街南50米,北京市,北京市,怀柔区,116.6843569,40.35101108
北京雁栖国际孵化园,商务住宅,产业园区,产业园区,杨雁路888,北京市,北京市,怀柔区,116.6797967,40.34164812
中国科学院北京怀柔科技产业园,商务住宅,产业园区,产业园区,雁栖经济开发区杨雁路88,北京市,北京市,怀柔区,116.6798246,40.34167606
十里堡镇社区,商务住宅,住宅区,住宅小区,河槽村,北京市,北京市,密云区,116.7716596,40.34293386
明珠花园,商务住宅,住宅区,住宅小区,十里堡河槽镇京密路,北京市,北京市,密云区,116.7847583,40.3503781
十里堡村文体活动中心,商务住宅,住宅区,社区中心,富民路西50米,北京市,北京市,密云区,116.7848198,40.34757101
庄禾屯村,商务住宅,商务住宅相关,商务住宅相关,永宁街96号附近,北京市,北京市,密云区,116.7818585,40.34484188
汉威大厦,商务住宅,商务住宅相关,商务住宅相关,富民路272号附近,北京市,北京市,密云区,116.7869895,40.34855073
北京牡丹电子部品公司职工公寓,商务住宅,住宅区,宿舍,十里堡镇,北京市,北京市,密云区,116.7827222,40.34734627
北航大学科技园,商务住宅,产业园区,产业园区,密云经济开发区兴源街12号,北京市,北京市,密云区,116.7970319,40.34574092
燕东科技园,商务住宅,产业园区,产业园区,清源路3号,北京市,北京市,密云区,116.793471,40.34733276
亚澜湾,商务住宅,住宅区,别墅,密云京承高速公路出口500米,北京市,北京市,密云区,116.8246366,40.35082307
绿地朗山国际健康产业园(建设中),商务住宅,产业园区,产业园区,滨河路与潮河交汇处河北岸路东侧,北京市,北京市,密云区,116.8268157,40.35108506
益田远洋万和风景,商务住宅,商务住宅相关,商务住宅相关,顺密路西100米,北京市,北京市,密云区,116.8257147,40.35097104
绿地朗山国际健康产业园1期,商务住宅,产业园区,产业园区,,北京市,北京市,密云区,116.8305158,40.34993126
绿地朗山国际健康产业园2期,商务住宅,产业园区,产业园区,,北京市,北京市,密云区,116.8298445,40.35082776
石佛寺村多媒体文化活动中心,商务住宅,住宅区,社区中心,八达岭镇石佛寺村,北京市,北京市,延庆区,116.0374725,40.33878581
公社别墅,商务住宅,商务住宅相关,商务住宅相关,,北京市,北京市,延庆区,116.0493842,40.33712648
碓臼峪别墅,商务住宅,住宅区,住宅区,昌平碓臼峪村,北京市,北京市,昌平区,116.1869572,40.34105356
嘉合小镇,商务住宅,住宅区,住宅区,桥梓镇一渡,北京市,北京市,怀柔区,116.4998327,40.33806894
怀柔北宅81号院,商务住宅,商务住宅相关,商务住宅相关,北宅村村西81号院,北京市,北京市,怀柔区,116.5398785,40.33470159
龙泉小区,商务住宅,住宅区,住宅小区,桥梓镇北宅村005县道,北京市,北京市,怀柔区,116.5563039,40.33439738
水岸逸阁,商务住宅,住宅区,住宅区,台关路龙泉小区西北发中旺商店向北50米,北京市,北京市,怀柔区,116.5507694,40.33782622
北宅新村,商务住宅,住宅区,住宅区,怀柔桥梓镇明星公园西南侧,北京市,北京市,怀柔区,116.5560876,40.33360326
人济山庄,商务住宅,住宅区,住宅区,台关路西100米,北京市,北京市,怀柔区,116.5592025,40.33824363
北京燕鹏工贸中心职工之家,商务住宅,住宅区,宿舍,台关路南100米,北京市,北京市,怀柔区,116.6086981,40.34108996
普罗旺斯,商务住宅,商务住宅相关,商务住宅相关,青春路北环岛向西500米,北京市,北京市,怀柔区,116.6183049,40.33566892
家天下,商务住宅,住宅区,住宅小区,富乐大街26号,北京市,北京市,怀柔区,116.6259503,40.33951874
乐红园,商务住宅,住宅区,住宅小区,红螺东路21号,北京市,北京市,怀柔区,116.628495,40.33966928
梅苑花园,商务住宅,住宅区,住宅小区,怀柔水库东岸,北京市,北京市,怀柔区,116.6235249,40.33232884
大地商务中心,商务住宅,楼宇,商务写字楼,梅苑8-2号,北京市,北京市,怀柔区,116.6241757,40.33226704
富乐公寓,商务住宅,住宅区,住宅小区,怀柔镇,北京市,北京市,怀柔区,116.6285603,40.33662904
富乐2区,商务住宅,住宅区,住宅小区,怀柔镇,北京市,北京市,怀柔区,116.6265903,40.33716456
新兴居小区,商务住宅,住宅区,住宅小区,青春路东,北京市,北京市,怀柔区,116.6259941,40.33277657
青春路55号院,商务住宅,住宅区,住宅小区,青春路55号,北京市,北京市,怀柔区,116.6236227,40.34120823
科普社区,商务住宅,住宅区,住宅小区,富乐北大街家天下儒园1号楼附近,北京市,北京市,怀柔区,116.6269891,40.34039812
信合商务楼,商务住宅,楼宇,商务写字楼,富乐大街26号,北京市,北京市,怀柔区,116.6249232,40.34030985
滨湖小区304号,商务住宅,住宅区,住宅小区,红螺寺路与青春路交叉口西南150米,北京市,北京市,怀柔区,116.6233197,40.33721873
慧友开发4区,商务住宅,住宅区,住宅区,北街与青春路交叉口东150米,北京市,北京市,怀柔区,116.6261217,40.33341023
富乐北里,商务住宅,住宅区,住宅小区,怀柔镇,北京市,北京市,怀柔区,116.6286127,40.3322062
富乐社区29号院,商务住宅,住宅区,住宅小区,怀柔镇富乐小区北里29号楼,北京市,北京市,怀柔区,116.6266527,40.33311261
富乐小区南里170号,商务住宅,住宅区,住宅区,泉河北街富乐小区南里北二门,北京市,北京市,怀柔区,116.6268575,40.33130383
二巷,商务住宅,住宅区,住宅区,,北京市,北京市,怀柔区,116.6260381,40.33204571
湖光小区,商务住宅,住宅区,住宅小区,青春路与湖光北街交叉口西行300米路北,北京市,北京市,怀柔区,116.6210216,40.33202691
金桥大厦,商务住宅,楼宇,商务写字楼,泉河街道迎宾北路北大街12号,北京市,北京市,怀柔区,116.634698,40.3339318
杨家园小区,商务住宅,住宅区,住宅小区,怀柔镇,北京市,北京市,怀柔区,116.6311023,40.33301444
小中富乐2区,商务住宅,住宅区,住宅小区,怀柔小中富乐二区,北京市,北京市,怀柔区,116.6322253,40.33654181
馥郁苑,商务住宅,住宅区,住宅小区,迎宾路北环岛,北京市,北京市,怀柔区,116.6351621,40.33255546
新乐园,商务住宅,住宅区,住宅小区,富乐大街甲7号,北京市,北京市,怀柔区,116.6305335,40.34109899
金泰苑小区,商务住宅,住宅区,住宅小区,北大街1号院,北京市,北京市,怀柔区,116.6379401,40.33496638
北京绿都香花村,商务住宅,住宅区,住宅区,怀柔镇富乐大街2号,北京市,北京市,怀柔区,116.6367264,40.34012588
芙乐园B座,商务住宅,住宅区,住宅小区,怀柔镇湖光小区35号,北京市,北京市,怀柔区,116.6327506,40.34099677
芙乐园A座,商务住宅,住宅区,住宅小区,怀柔镇湖光小区35号,北京市,北京市,怀柔区,116.6325251,40.34100011
万通・怀柔新新家园,商务住宅,住宅区,住宅小区,怀柔迎宾环岛西南侧怀柔党校对面,北京市,北京市,怀柔区,116.6317629,40.33192078
芙乐园E座,商务住宅,住宅区,住宅小区,怀柔镇湖光小区35号,北京市,北京市,怀柔区,116.6329381,40.34118644
芙乐园D座,商务住宅,住宅区,住宅小区,怀柔镇湖光小区35号,北京市,北京市,怀柔区,116.6320122,40.34119481
于家园,商务住宅,住宅区,住宅小区,开放路97号,北京市,北京市,怀柔区,116.6381301,40.33203988
于家园一区教师公寓,商务住宅,住宅区,宿舍,怀柔镇,北京市,北京市,怀柔区,116.6366684,40.33343285
万通熙悦华府,商务住宅,住宅区,住宅小区,迎宾路与杨客长街交口(怀柔三中斜对面),北京市,北京市,怀柔区,116.6317639,40.33191877
富乐北大街,商务住宅,住宅区,住宅区,怀柔怀北大街26号,北京市,北京市,怀柔区,116.6299336,40.33468266
造梦者轻创业中心,商务住宅,商务住宅相关,商务住宅相关,北大街与北斜街交叉口西北200米,北京市,北京市,怀柔区,116.6294016,40.33582909
华育国际(燕京理工学院校区),商务住宅,商务住宅相关,商务住宅相关,迎宾北路45号,北京市,北京市,怀柔区,116.6328126,40.33186123
小中富乐二区教师公寓,商务住宅,住宅区,宿舍,富乐南街与迎宾路交叉口西150米,北京市,北京市,怀柔区,116.6322233,40.33708666
富乐小区北里40号院,商务住宅,住宅区,住宅小区,怀柔镇富乐小区北里40号楼,北京市,北京市,怀柔区,116.6293282,40.33250912
劳动大厦(富乐大街),商务住宅,楼宇,商务写字楼,开放路86号,北京市,北京市,怀柔区,116.6396873,40.33943127
大中富乐工业区,商务住宅,产业园区,产业园区,开放路70号,北京市,北京市,怀柔区,116.6409416,40.33571622
富乐家园,商务住宅,住宅区,住宅小区,泉河街道开放路76号,北京市,北京市,怀柔区,116.6393696,40.33543092
怀柔开放路,商务住宅,住宅区,住宅区,开放路78号,北京市,北京市,怀柔区,116.6394074,40.33608867
众智家园,商务住宅,住宅区,住宅小区,密云十里堡工业开发区科技路甲18号,北京市,北京市,密云区,116.8045147,40.33687615
众智慧谷,商务住宅,住宅区,住宅区,经济开发区科技路20号,北京市,北京市,密云区,116.8041932,40.33642771
科技路甲18号院,商务住宅,住宅区,住宅小区,十里堡,北京市,北京市,密云区,116.8043825,40.33702687
张家怡园,商务住宅,住宅区,住宅小区,河南寨镇政府兴企路,北京市,北京市,密云区,116.8158761,40.33358965
滨河工业基地,商务住宅,商务住宅相关,商务住宅相关,兴盛南路68号,北京市,北京市,密云区,116.8190077,40.33643969
滨河工业开发区,商务住宅,产业园区,产业园区,河南寨镇兴企三路,北京市,北京市,密云区,116.8215836,40.33640052
近山小筑(精品民宿),商务住宅,商务住宅相关,商务住宅相关,南口镇虎峪自然风景区,北京市,北京市,昌平区,116.067092,40.32312678
果庄2号院,商务住宅,商务住宅相关,商务住宅相关,,北京市,北京市,昌平区,116.1556591,40.3263315
诗境家园,商务住宅,住宅区,住宅区,马台沙岭村73-1,北京市,北京市,昌平区,116.2778996,40.32983254
雅园,商务住宅,住宅区,住宅小区,,北京市,北京市,怀柔区,116.5688167,40.32416527
幽雅御园,商务住宅,商务住宅相关,商务住宅相关,,北京市,北京市,怀柔区,116.5889874,40.32185631
湖滨花园,商务住宅,住宅区,住宅小区,怀柔镇,北京市,北京市,怀柔区,116.6217588,40.32826108
西园(湖光南街),商务住宅,住宅区,住宅小区,青春路西区,北京市,北京市,怀柔区,116.6205856,40.32218306
富乐小区南里,商务住宅,住宅区,住宅小区,怀柔镇二巷与青春路交叉口,北京市,北京市,怀柔区,116.6262798,40.33038585
漪澜鑫筑,商务住宅,住宅区,住宅小区,西园14号,北京市,北京市,怀柔区,116.6215748,40.32282875
新贤家园,商务住宅,住宅区,住宅小区,滨湖中街西150米,北京市,北京市,怀柔区,116.6271985,40.32555493
青春路小区,商务住宅,住宅区,住宅小区,怀柔镇青春路人民防空办公室北侧,北京市,北京市,怀柔区,116.6251521,40.32138573
泊岸,商务住宅,住宅区,住宅小区,湖光小区甲26号院,北京市,北京市,怀柔区,116.6224007,40.32694367
康得乐体育娱乐中心别墅,商务住宅,住宅区,住宅区,怀柔西大街湖光小区32号院,北京市,北京市,怀柔区,116.6231285,40.32619399
湖光小区33号,商务住宅,住宅区,住宅小区,府前街与长副坝路交叉口北150米,北京市,北京市,怀柔区,116.621584,40.32885112
湖光社区,商务住宅,住宅区,住宅小区,湖光小区10号楼,北京市,北京市,怀柔区,116.6226974,40.32480389
青春路九院,商务住宅,住宅区,住宅小区,怀柔青春路西侧西园路东侧,北京市,北京市,怀柔区,116.6220121,40.32163855
青春路66 68院,商务住宅,商务住宅相关,商务住宅相关,青春路66号楼附近,北京市,北京市,怀柔区,116.6248589,40.32766343
东大街村,商务住宅,住宅区,住宅小区,北斜街与潘各长街交叉口西北50米,北京市,北京市,怀柔区,116.6279962,40.33100837
千逸舍,商务住宅,商务住宅相关,商务住宅相关,滨湖南街17号附近,北京市,北京市,怀柔区,116.6263304,40.32419645
滨湖南街小区,商务住宅,住宅区,住宅小区,滨湖南街74号,北京市,北京市,怀柔区,116.6286238,40.32351653
怀柔潘家园,商务住宅,住宅区,住宅小区,怀柔镇,北京市,北京市,怀柔区,116.6284273,40.33070187
九州溪谷,商务住宅,住宅区,住宅区,青春路45号,北京市,北京市,怀柔区,116.6240562,40.33033772
滨湖小区西区,商务住宅,住宅区,住宅区,青春路东200米,北京市,北京市,怀柔区,116.6271985,40.32559792
湖光小区丙31号院,商务住宅,住宅区,住宅小区,怀柔镇,北京市,北京市,怀柔区,116.6208641,40.33073345
宜居万家签约中心,商务住宅,商务住宅相关,商务住宅相关,北园东街与滨湖南街交叉口北100米,北京市,北京市,怀柔区,116.6289659,40.32465575
富乐小区南里77号,商务住宅,住宅区,住宅区,泉河富乐南里(青春路东120米),北京市,北京市,怀柔区,116.626179,40.33015005
滨湖小区251号,商务住宅,住宅区,住宅小区,湖光路与长副坝路交叉口南200米,北京市,北京市,怀柔区,116.6209217,40.32508091
滨湖小区310号,商务住宅,商务住宅相关,商务住宅相关,滨湖南街与青春路交叉口东北50米,北京市,北京市,怀柔区,116.6249352,40.32429924
潘家园北区,商务住宅,住宅区,住宅区,北斜街与潘各长街交叉口东南150米,北京市,北京市,怀柔区,116.6291558,40.33008702
滨湖小区255号,商务住宅,住宅区,住宅区,湖光南街与西园路交叉口北150米,北京市,北京市,怀柔区,116.6209228,40.32423613
滨湖小区252号,商务住宅,住宅区,住宅区,湖光南街与西园路交叉口北100米,北京市,北京市,怀柔区,116.6211035,40.323948
滨湖小区254号,商务住宅,住宅区,住宅区,湖光南街与西园路交叉口北100米,北京市,北京市,怀柔区,116.6210945,40.32384204
滨湖小区256号,商务住宅,住宅区,住宅区,湖光南街与西园路交叉口西北50米,北京市,北京市,怀柔区,116.6208879,40.32349737
北京亿源龙盛电器有限责任公司宿舍,商务住宅,住宅区,宿舍,青春路甲56号,北京市,北京市,怀柔区,116.6251726,40.32521269
滨湖小区284号,商务住宅,住宅区,住宅区,湖光南街与西园路交叉口南150米,北京市,北京市,怀柔区,116.6211227,40.32215145
滨湖小区283号,商务住宅,住宅区,住宅小区,湖光南街与长副坝路交叉口南150米,北京市,北京市,怀柔区,116.6206735,40.32210498
滨湖小区282号,商务住宅,住宅区,住宅小区,湖光南街与长副坝路交叉口南150米,北京市,北京市,怀柔区,116.6202592,40.32224342
滨湖小区293号,商务住宅,住宅区,住宅小区,湖光南街与长副坝路交叉口南200米,北京市,北京市,怀柔区,116.6208712,40.32176984
滨湖小区285号,商务住宅,住宅区,住宅区,湖光南街与长副坝路交叉口南150米,北京市,北京市,怀柔区,116.6201784,40.3218906
滨湖小区286号,商务住宅,住宅区,住宅区,湖光南街与环湖东路交叉口东北200米,北京市,北京市,怀柔区,116.6201345,40.32146476
北园社区居民活动站,商务住宅,住宅区,社区中心,斜街与青春路交叉口东南50米,北京市,北京市,怀柔区,116.6248996,40.32156501
滨湖小区,商务住宅,住宅区,住宅小区,滨湖南街4号,北京市,北京市,怀柔区,116.6305135,40.32504346
翠竹园小区,商务住宅,住宅区,住宅小区,怀柔镇,北京市,北京市,怀柔区,116.6337218,40.32942153
东杉国际,商务住宅,住宅区,住宅小区,迎宾北路9附近,北京市,北京市,怀柔区,116.6316403,40.32303035
潘家园小区,商务住宅,住宅区,住宅小区,怀柔镇,北京市,北京市,怀柔区,116.6299183,40.3291512
于家园3区,商务住宅,住宅区,住宅小区,开放路97号,北京市,北京市,怀柔区,116.638008,40.32647659
金台园小区,商务住宅,住宅区,住宅小区,怀柔镇,北京市,北京市,怀柔区,116.6367158,40.321478
迎宾北路12号院,商务住宅,住宅区,住宅小区,迎宾北路12号,北京市,北京市,怀柔区,116.6331986,40.32473558
和泰家园,商务住宅,住宅区,住宅小区,迎宾北路12号,北京市,北京市,怀柔区,116.6325361,40.32450964
汇都家园,商务住宅,住宅区,住宅小区,迎宾中路206号,北京市,北京市,怀柔区,116.6355296,40.32937275
紫竹园小区,商务住宅,住宅区,住宅小区,迎宾北路22号附近,北京市,北京市,怀柔区,116.6329007,40.32905287
于家园南街6号院,商务住宅,住宅区,住宅小区,于家园南街6号,北京市,北京市,怀柔区,116.6363174,40.32440585
北街三号院,商务住宅,住宅区,住宅小区,滨湖北街24号附近,北京市,北京市,怀柔区,116.6298746,40.32745272
农业银行职工宿舍,商务住宅,住宅区,宿舍,于家园三区21号楼附近,北京市,北京市,怀柔区,116.6341072,40.32719854
天洋城,商务住宅,住宅区,住宅区,滨湖南街与迎宾路交叉口北100米,北京市,北京市,怀柔区,116.6319334,40.32467948
俊秀御苑,商务住宅,住宅区,住宅区,金台街南100米,北京市,北京市,怀柔区,116.6345486,40.32342388
怀柔农业文化大厦,商务住宅,楼宇,商务写字楼,迎宾北路6号,北京市,北京市,怀柔区,116.6321972,40.32221375
慧友开发5区,商务住宅,住宅区,住宅区,北斜街280号附近,北京市,北京市,怀柔区,116.6294691,40.33044548
鑫明阁,商务住宅,楼宇,商务写字楼,礼贤街北100米,北京市,北京市,怀柔区,116.6342255,40.32223069
慧友开发2区,商务住宅,住宅区,住宅区,迎宾北路与迎宾路交叉口东北100米,北京市,北京市,怀柔区,116.6322621,40.32197072
城广厦房,商务住宅,商务住宅相关,商务住宅相关,滨湖南街64号附近,北京市,北京市,怀柔区,116.6304667,40.32421274
后城街办公楼,商务住宅,楼宇,商务写字楼,迎宾北路6号院,北京市,北京市,怀柔区,116.6323737,40.32240244
和祥园北房,商务住宅,商务住宅相关,商务住宅相关,北园东街与滨湖南街交叉口东北50米,北京市,北京市,怀柔区,116.629423,40.3243062
慧友2号住宅小区,商务住宅,住宅区,住宅小区,迎宾北路与迎宾路交叉口东北50米,北京市,北京市,怀柔区,116.6321304,40.32190393
慧友小区,商务住宅,住宅区,住宅小区,迎宾北路4号,北京市,北京市,怀柔区,116.6321803,40.32159394
泉河街道北园社区科普社区,商务住宅,住宅区,住宅小区,礼贤街与迎宾路交叉口西50米,北京市,北京市,怀柔区,116.631423,40.32138911
博望苑物业管理1区,商务住宅,住宅区,住宅区,怀柔镇,北京市,北京市,怀柔区,116.6375526,40.33075117
于家园2区,商务住宅,住宅区,住宅区,怀柔迎宾路与滨湖北街交叉口,北京市,北京市,怀柔区,116.6377664,40.32839347
迎宾北路9号院,商务住宅,住宅区,住宅区,迎宾北路9号,北京市,北京市,怀柔区,116.6312412,40.32305893
东园-南区,商务住宅,住宅区,住宅区,泉河迎宾北路1号(近博望苑物业二区),北京市,北京市,怀柔区,116.6293575,40.32134308
兴家园居住区,商务住宅,住宅区,住宅小区,泉河路东100米,北京市,北京市,怀柔区,116.6442155,40.32552041
泉河园2区,商务住宅,住宅区,住宅小区,怀柔镇开放路,北京市,北京市,怀柔区,116.6414832,40.32830735
新元居小区,商务住宅,住宅区,住宅小区,开放路48号,北京市,北京市,怀柔区,116.6400912,40.32395985
兴家园小区506号,商务住宅,住宅区,住宅小区,泉河路东150米,北京市,北京市,怀柔区,116.6449047,40.32578214
德国啤酒花园,商务住宅,住宅区,住宅区,下元小商品市场C区,北京市,北京市,怀柔区,116.6410845,40.32567373
兴家园小区1402号,商务住宅,住宅区,住宅区,泉河路东100米兴家园居住区附近,北京市,北京市,怀柔区,116.6444988,40.32518301
兴家园小区1404号,商务住宅,住宅区,住宅区,泉河路东150米,北京市,北京市,怀柔区,116.6446285,40.32517178
兴家园小区1405号,商务住宅,住宅区,住宅区,泉河路东150米,北京市,北京市,怀柔区,116.6446963,40.32516567
兴家园小区1406号,商务住宅,住宅区,住宅区,怀柔镇兴家园小区1406号,北京市,北京市,怀柔区,116.6447602,40.32515156
北京科旭公司宿舍,商务住宅,商务住宅相关,商务住宅相关,中葛路北100米附近,北京市,北京市,怀柔区,116.6615634,40.32838357
中科院北京怀柔科教产业园,商务住宅,产业园区,产业园区,杨雁路和北房西桥的交叉口附近,北京市,北京市,怀柔区,116.6793082,40.32489166
北房镇中小企业创业基地,商务住宅,产业园区,产业园区,幸福西街3号,北京市,北京市,怀柔区,116.6959979,40.32509866
经纬工业区,商务住宅,产业园区,产业园区,恒利街78号附近,北京市,北京市,怀柔区,116.698562,40.32259534
幸福东园,商务住宅,住宅区,住宅小区,幸福大街与裕华路交叉口北100米,北京市,北京市,怀柔区,116.7027868,40.32537538
驸马庄园,商务住宅,住宅区,住宅小区,北房镇龙芸路,北京市,北京市,怀柔区,116.7062596,40.32225745
驸马庄回迁楼,商务住宅,住宅区,住宅小区,龙芸路与永昌街交汇处,北京市,北京市,怀柔区,116.7083104,40.32121207
金泰丽富馨园,商务住宅,住宅区,住宅小区,幸福大街与龙芸路交叉口南150米,北京市,北京市,怀柔区,116.70641,40.32399379
怀柔区北房镇驸马庄村限价商品房,商务住宅,住宅区,住宅区,驸马庄村,北京市,北京市,怀柔区,116.7035584,40.32313589
润田农园梨园庄基地,商务住宅,产业园区,产业园区,G101(京密路),北京市,北京市,怀柔区,116.7209176,40.32790578
铠盾防弹门窗员工公寓,商务住宅,住宅区,宿舍,西统路西100米,北京市,北京市,密云区,116.7568375,40.32830418
密云3期,商务住宅,产业园区,产业园区,科技路c91号,北京市,北京市,密云区,116.7813341,40.32764702
今麦郎食品有限公司办公大楼,商务住宅,楼宇,商务写字楼,以外密云县经济技术开发区科技路38号,北京市,北京市,密云区,116.7880866,40.32809707
中关村密云园,商务住宅,产业园区,产业园区,科技路53号附近,北京市,北京市,密云区,116.7845821,40.3272184
纯境别墅,商务住宅,住宅区,住宅区,工业开发区内白河岸边,北京市,北京市,密云区,116.8122007,40.32966795
石峨村2区,商务住宅,住宅区,住宅小区,密三路西200米,北京市,北京市,密云区,116.9569284,40.32141391
北京玻璃台山里好7号院,商务住宅,商务住宅相关,商务住宅相关,张家台村北区107号,北京市,北京市,平谷区,117.2138154,40.32907894
北京玻璃台风景区8号院,商务住宅,商务住宅相关,商务住宅相关,"镇罗营玻璃台村8号院,近玻璃台路",北京市,北京市,平谷区,117.2250749,40.32729005
北京玻璃台景区常来常往玻璃台6号院,商务住宅,商务住宅相关,商务住宅相关,玻璃台旅游新村内镇罗营镇玻璃台村6号,北京市,北京市,平谷区,117.2246327,40.32727276
刘连福18号院,商务住宅,商务住宅相关,商务住宅相关,镇罗营镇玻璃台大街018号,北京市,北京市,平谷区,117.2261252,40.32771061
北京玻璃台新村陶花源65号院,商务住宅,商务住宅相关,商务住宅相关,玻璃台新村65号院,北京市,北京市,平谷区,117.2255947,40.32999166
捌拾捌院,商务住宅,商务住宅相关,商务住宅相关,康陵村88号,北京市,北京市,昌平区,116.2079003,40.3186897
灵秀山庄,商务住宅,商务住宅相关,商务住宅相关,前岐路东150米东凤山村村委会附近,北京市,北京市,怀柔区,116.5335837,40.32007025
林荫小镇,商务住宅,住宅区,住宅小区,05县道,北京市,北京市,怀柔区,116.5567398,40.31730063
兆龙居小区,商务住宅,住宅区,住宅小区,西园13,北京市,北京市,怀柔区,116.6189519,40.31875778
金地大厦,商务住宅,楼宇,商务写字楼,怀柔商业街28号楼,北京市,北京市,怀柔区,116.6269815,40.3133814
龙湖花园,商务住宅,住宅区,住宅小区,怀柔水库东岸,北京市,北京市,怀柔区,116.6206936,40.32094926
南城社区,商务住宅,住宅区,住宅小区,北宅,北京市,北京市,怀柔区,116.6276138,40.31640477
康馨家园,商务住宅,住宅区,住宅小区,南大街5、9,北京市,北京市,怀柔区,116.6292009,40.3124116
府前观邸,商务住宅,住宅区,住宅小区,后城街,北京市,北京市,怀柔区,116.6290328,40.31680972
天韵家园,商务住宅,住宅区,住宅小区,兴怀大街20号,北京市,北京市,怀柔区,116.6263438,40.3209203
青春路一院,商务住宅,住宅区,住宅小区,龙山街道青春路,北京市,北京市,怀柔区,116.6261423,40.31269869
青春路六院,商务住宅,住宅区,住宅小区,青春路25号后门,北京市,北京市,怀柔区,116.6228898,40.31940208
怡成园,商务住宅,住宅区,住宅小区,兴怀大街20号,北京市,北京市,怀柔区,116.626858,40.31939702
丽水湾,商务住宅,住宅区,住宅小区,桥梓镇秦家东庄南侧,北京市,北京市,怀柔区,116.6261579,40.31510405
府前街9号院,商务住宅,住宅区,住宅区,府前街9号,北京市,北京市,怀柔区,116.6280608,40.31691603
慧友大厦,商务住宅,楼宇,商务写字楼,青春路21-7号,北京市,北京市,怀柔区,116.6242882,40.31816767
青春苑西区,商务住宅,住宅区,住宅小区,长副坝路(青春路翠微超市向西200米),北京市,北京市,怀柔区,116.6213926,40.31859907
青春路七院,商务住宅,住宅区,住宅小区,怀柔镇,北京市,北京市,怀柔区,116.6255147,40.3193298
后横街小区,商务住宅,住宅区,住宅小区,怀柔镇,北京市,北京市,怀柔区,116.6276744,40.31817723
商业街28楼A段,商务住宅,住宅区,住宅区,青春路4号附近,北京市,北京市,怀柔区,116.6254985,40.3132104
慧友开发,商务住宅,住宅区,住宅小区,青春路31-5号附近,北京市,北京市,怀柔区,116.6241731,40.32104806
青春路1号院,商务住宅,住宅区,住宅小区,青春路一号,北京市,北京市,怀柔区,116.6224245,40.31212251
龙山御景,商务住宅,住宅区,住宅小区,,北京市,北京市,怀柔区,116.6218386,40.31235715
整栋大厦,商务住宅,商务住宅相关,商务住宅相关,青春路21号,北京市,北京市,怀柔区,116.6242055,40.3176829
怀柔轻轻吾居观山别墅,商务住宅,住宅区,住宅区,桥梓镇宽沟8号,北京市,北京市,怀柔区,116.6260821,40.3149372
北京射击队运动员公寓,商务住宅,楼宇,商务写字楼,府前西街甲3号,北京市,北京市,怀柔区,116.6206343,40.31624055
泉河街道北园社区,商务住宅,住宅区,住宅小区,泉河街道青春路30号,北京市,北京市,怀柔区,116.6251143,40.32084692
富乐小区南里190号,商务住宅,住宅区,住宅区,兴怀大街22号附近,北京市,北京市,怀柔区,116.6270275,40.32016059
滨湖小区28号,商务住宅,住宅区,住宅小区,青春路29号附近,北京市,北京市,怀柔区,116.625859,40.31917839
新悦百货大厦,商务住宅,楼宇,商住两用楼宇,青春路,北京市,北京市,怀柔区,116.6239036,40.3128955
滨湖小区30号,商务住宅,住宅区,住宅区,青春路青春路7院10号楼附近,北京市,北京市,怀柔区,116.6253551,40.31888812
滨湖小区191号,商务住宅,住宅区,住宅小区,西园路西100米,北京市,北京市,怀柔区,116.6213168,40.31848519
北园1区,商务住宅,住宅区,住宅区,兴怀大街与青春路交叉口,北京市,北京市,怀柔区,116.6269018,40.32030372
滨湖小区180号,商务住宅,住宅区,住宅小区,青春路32号附近,北京市,北京市,怀柔区,116.6207666,40.31950956
滨湖小区291号,商务住宅,住宅区,住宅小区,西园路西50米,北京市,北京市,怀柔区,116.6212607,40.31996987
滨湖小区290号,商务住宅,住宅区,住宅小区,怀柔镇滨湖小区290号,北京市,北京市,怀柔区,116.6206648,40.31967063
滨湖小区297号,商务住宅,住宅区,住宅小区,西园路西50米,北京市,北京市,怀柔区,116.6212876,40.32027276
南大街35号院,商务住宅,住宅区,住宅小区,南大街35号,北京市,北京市,怀柔区,116.6216421,40.31143461
滨湖小区189号,商务住宅,商务住宅相关,商务住宅相关,西园路西100米,北京市,北京市,怀柔区,116.6209823,40.31927437
滨湖小区288号,商务住宅,住宅区,住宅区,湖光南街与环湖东路交叉口东南150米,北京市,北京市,怀柔区,116.6198203,40.31991152
滨湖小区296号,商务住宅,住宅区,住宅小区,西园路西50米,北京市,北京市,怀柔区,116.6211069,40.32067286
滨湖小区289号,商务住宅,住宅区,住宅小区,怀柔镇滨湖小区289号,北京市,北京市,怀柔区,116.6204271,40.32037672
滨湖小区295号,商务住宅,住宅区,住宅区,西园路西50米,北京市,北京市,怀柔区,116.621007,40.32101189
滨湖小区302号,商务住宅,住宅区,住宅小区,湖光南街与环湖东路交叉口东150米,北京市,北京市,怀柔区,116.6200078,40.32056814
滨湖小区300号,商务住宅,住宅区,住宅小区,湖光南街与环湖东路交叉口东150米,北京市,北京市,怀柔区,116.619909,40.32095115
滨湖小区299号,商务住宅,住宅区,住宅小区,湖光南街与环湖东路交叉口东200米,北京市,北京市,怀柔区,116.6204051,40.32125651
滨湖小区292号,商务住宅,住宅区,住宅区,龙湖花园3号楼门脸房附近,北京市,北京市,怀柔区,116.6206287,40.32125626
金桥国际,商务住宅,住宅区,住宅小区,南大街2号,北京市,北京市,怀柔区,116.6314472,40.31130267
东园小区(北园东街),商务住宅,住宅区,住宅小区,怀柔镇,北京市,北京市,怀柔区,116.6295192,40.32119289
府前东街九院,商务住宅,住宅区,住宅小区,府前东街9号,北京市,北京市,怀柔区,116.6382168,40.31614697
城管大队办公楼,商务住宅,楼宇,商务写字楼,迎宾中路16号,北京市,北京市,怀柔区,116.6321524,40.31336211
府前东街小区西区,商务住宅,住宅区,住宅区,府前东街17号附近,北京市,北京市,怀柔区,116.6340108,40.31585668
东苑小区,商务住宅,住宅区,住宅小区,府前东街12号,北京市,北京市,怀柔区,116.6338884,40.31371441
博乐园小区,商务住宅,住宅区,住宅小区,怀柔迎宾北路1号西北侧,北京市,北京市,怀柔区,116.6310629,40.32022594
仁和通德写字楼,商务住宅,楼宇,商务写字楼,迎宾中路27号,北京市,北京市,怀柔区,116.631111,40.31869027
昌德公寓,商务住宅,住宅区,住宅小区,怀柔镇,北京市,北京市,怀柔区,116.638655,40.31436471
东关家园(府前东街),商务住宅,住宅区,住宅小区,府前东街19号,北京市,北京市,怀柔区,116.6329313,40.31579333
果品小区,商务住宅,住宅区,住宅小区,怀柔镇,北京市,北京市,怀柔区,116.6324288,40.32068581
职工公寓,商务住宅,商务住宅相关,商务住宅相关,迎宾路甲-27号附近,北京市,北京市,怀柔区,116.6311849,40.31841423
缘桥综合办公楼,商务住宅,楼宇,商务写字楼,迎宾中路36号,北京市,北京市,怀柔区,116.6314573,40.31846182
瓷园公寓,商务住宅,住宅区,住宅小区,怀柔镇,北京市,北京市,怀柔区,116.6354548,40.3210391
商业街社区,商务住宅,住宅区,住宅小区,府东三条与府前街交叉口西南100米,北京市,北京市,怀柔区,116.6295789,40.3142836
钓鱼台小区(兴怀大街),商务住宅,住宅区,住宅小区,礼贤街南100米,北京市,北京市,怀柔区,116.634548,40.32076858
府前东街13号院,商务住宅,住宅区,住宅小区,下园一条与府前东街交叉口北100米,北京市,北京市,怀柔区,116.6361169,40.31622231
下元社区,商务住宅,住宅区,住宅小区,下园一条与兴怀大街交叉口东南100米,北京市,北京市,怀柔区,116.6371649,40.31980472
东关1区,商务住宅,住宅区,住宅小区,迎宾路东,北京市,北京市,怀柔区,116.6371767,40.31286449
丁香雅苑,商务住宅,住宅区,住宅区,兴怀大街甲11-9号,北京市,北京市,怀柔区,116.6321994,40.32034624
博望苑物业2区,商务住宅,住宅区,住宅小区,迎宾北路1号,北京市,北京市,怀柔区,116.6303155,40.32079187
府前街,商务住宅,住宅区,住宅区,府前街5号,北京市,北京市,怀柔区,116.6297645,40.31439031
龙山街道幸福家园,商务住宅,商务住宅相关,商务住宅相关,兴怀大街与迎宾路交叉口南100米,北京市,北京市,怀柔区,116.6315999,40.31938337
东关・社区青年汇,商务住宅,住宅区,社区中心,东关二区201号,北京市,北京市,怀柔区,116.6363758,40.311908
中润天地,商务住宅,商务住宅相关,商务住宅相关,南大街2-22号附近,北京市,北京市,怀柔区,116.6311768,40.31159199
兴怀大街14号院,商务住宅,住宅区,住宅区,兴怀大街14号,北京市,北京市,怀柔区,116.6297239,40.31945606
康馨家园2期,商务住宅,住宅区,住宅区,南大街甲8号楼,北京市,北京市,怀柔区,116.629679,40.31205702
美丽家园,商务住宅,住宅区,住宅小区,开放路78号,北京市,北京市,怀柔区,116.6400123,40.31723074
开利园小区,商务住宅,住宅区,住宅小区,怀柔镇,北京市,北京市,怀柔区,116.6401028,40.31903312
府前东街壹号院,商务住宅,住宅区,住宅小区,怀柔镇,北京市,北京市,怀柔区,116.6431663,40.3168825
车站路社区,商务住宅,住宅区,住宅小区,府前东街与火车站路交叉口东北100米,北京市,北京市,怀柔区,116.6427784,40.31657324
北京智恒兴业写字楼,商务住宅,楼宇,商务写字楼,府前东街7号(916汽车站对面),北京市,北京市,怀柔区,116.6405321,40.31585323
后城街居民院,商务住宅,住宅区,住宅小区,怀柔镇开放路,北京市,北京市,怀柔区,116.6412381,40.31775456
李家峪村,商务住宅,商务住宅相关,商务住宅相关,张家台路与李家峪路交叉口东150米,北京市,北京市,平谷区,117.0245182,40.31826515
海南省三亚市保亭上观园18号楼,商务住宅,商务住宅相关,商务住宅相关,京银路西200米,北京市,北京市,昌平区,116.1734523,40.30453914
塞纳山谷,商务住宅,住宅区,别墅,后山路,北京市,北京市,怀柔区,116.5571484,40.30221802
欣怡苑,商务住宅,商务住宅相关,商务住宅相关,宽沟路1号宽沟招待所附近,北京市,北京市,怀柔区,116.5772758,40.30225184
石桥馨居园,商务住宅,商务住宅相关,商务住宅相关,富密路西50米,北京市,北京市,怀柔区,116.6177089,40.30335398
丽湖馨居,商务住宅,住宅区,住宅小区,南华大街31号,北京市,北京市,怀柔区,116.6211174,40.30811805
莲馨苑(南关街),商务住宅,住宅区,住宅小区,南华大街,北京市,北京市,怀柔区,116.6264059,40.3031897
丽湖嘉园,商务住宅,住宅区,住宅小区,南关街附近,北京市,北京市,怀柔区,116.6242863,40.30171679
龙祥小区,商务住宅,住宅区,住宅小区,怀柔南大街31号,北京市,北京市,怀柔区,116.6230774,40.31102599
南华园4区,商务住宅,住宅区,住宅小区,"怀柔南华大街,丽湖馨居对面",北京市,北京市,怀柔区,116.6244436,40.30503879
镜春园,商务住宅,住宅区,住宅小区,南大街39号,北京市,北京市,怀柔区,116.6207399,40.30998002
南华园2区,商务住宅,住宅区,住宅小区,北宅,北京市,北京市,怀柔区,116.622912,40.30872077
南华街小区,商务住宅,住宅区,住宅小区,南华大街189号,北京市,北京市,怀柔区,116.6290558,40.30791893
南华园1区,商务住宅,住宅区,住宅小区,,北京市,北京市,怀柔区,116.6291913,40.31003222
南华园3区,商务住宅,住宅区,住宅小区,北宅,北京市,北京市,怀柔区,116.6307536,40.30451636
德福芳草地A座,商务住宅,楼宇,商务写字楼,怀柔镇南华大街南华园(三区)北100米,北京市,北京市,怀柔区,116.6318609,40.30610536
望怀大厦,商务住宅,楼宇,商务写字楼,东关二区6号,北京市,北京市,怀柔区,116.6362534,40.30900893
迎宾中路2号院,商务住宅,住宅区,住宅小区,迎宾环岛与迎宾路交叉口北200米,北京市,北京市,怀柔区,116.6337792,40.30939667
德福芳草地B座,商务住宅,楼宇,商务写字楼,桥庙路南100米,北京市,北京市,怀柔区,116.6311595,40.30615137
瑞特沃斯机电建材家具大厦,商务住宅,楼宇,商务写字楼,迎宾中路1号,北京市,北京市,怀柔区,116.6327517,40.3082685
主宾北区,商务住宅,住宅区,住宅区,城中心,北京市,北京市,怀柔区,116.6313628,40.3076667
东关二区小区,商务住宅,住宅区,住宅小区,迎宾路东,北京市,北京市,怀柔区,116.6364179,40.31027135
东关办公楼,商务住宅,楼宇,商务写字楼,迎宾中路10号,北京市,北京市,怀柔区,116.6326166,40.31120197
北京市文化创意产业集聚区,商务住宅,产业园区,产业园区,迎宾路甲7号附近,北京市,北京市,怀柔区,116.6319891,40.31050207
东关二区教师公寓,商务住宅,住宅区,宿舍,东关二区,北京市,北京市,怀柔区,116.6378385,40.31003514
中国(怀柔)影视产业示范区,商务住宅,商务住宅相关,商务住宅相关,迎宾路甲7号附近,北京市,北京市,怀柔区,116.6319891,40.31050207
北一区东路,商务住宅,住宅区,住宅区,北一区中二路附近,北京市,北京市,怀柔区,116.6419236,40.3082928
永泰街2号院,商务住宅,住宅区,住宅区,地和路,北京市,北京市,怀柔区,116.6653797,40.3109108
银冶岭村3区,商务住宅,住宅区,住宅小区,河东路东100米,北京市,北京市,密云区,116.8741231,40.30841232
柏灵沟,商务住宅,住宅区,住宅区,,北京市,北京市,平谷区,117.1959742,40.30433224
闲庭雅院农家别墅,商务住宅,住宅区,住宅区,胡关路东50米,北京市,北京市,平谷区,117.2516232,40.30235702
恩泽园,商务住宅,商务住宅相关,商务住宅相关,,北京市,北京市,昌平区,116.2641915,40.30109863
桥梓镇工业园区,商务住宅,产业园区,产业园区,桥梓镇怀长路,北京市,北京市,怀柔区,116.5802395,40.29242387
金宇瑞科技产业基地,商务住宅,产业园区,产业园区,桥梓镇,北京市,北京市,怀柔区,116.5797524,40.29135886
西台下,商务住宅,住宅区,住宅区,西台下村211号,北京市,北京市,怀柔区,116.607724,40.29481463
顺河家园(红螺东路),商务住宅,住宅区,住宅小区,庙城293号院2,北京市,北京市,怀柔区,116.6179733,40.29614443
融城园北区,商务住宅,住宅区,住宅小区,庙高路与012县道交汇处,北京市,北京市,怀柔区,116.6247504,40.29347616
庙城家园,商务住宅,住宅区,住宅小区,庙高路与012县道交叉口东北200米,北京市,北京市,怀柔区,116.6233611,40.29339192
东明兴业公司职工楼,商务住宅,住宅区,住宅小区,南关街东100米,北京市,北京市,怀柔区,116.6264183,40.30004244
庙城棚户区改造指挥大院,商务住宅,商务住宅相关,商务住宅相关,012县道南150米,北京市,北京市,怀柔区,116.624566,40.2913009
东亚华欣湾,商务住宅,住宅区,住宅小区,怀长路与庙城路交汇处北350米路东,北京市,北京市,怀柔区,116.6327143,40.2960975
东亚尚院,商务住宅,住宅区,住宅小区,庙城路东200米,北京市,北京市,怀柔区,116.6305779,40.29658052
融成北区,商务住宅,住宅区,住宅区,怀丰立交与迎宾南路交叉口西150米,北京市,北京市,怀柔区,116.6353858,40.29816493
中华坊,商务住宅,住宅区,住宅区,怀柔镇红螺山脚下,北京市,北京市,怀柔区,116.6348048,40.30094817
安湃文创园,商务住宅,产业园区,产业园区,葛各庄路16号附近,北京市,北京市,怀柔区,116.6393161,40.3003711
福田戴姆勒汽车单身公寓,商务住宅,住宅区,宿舍,怀耿路南200米,北京市,北京市,怀柔区,116.6430156,40.29345251
星美数字媒体产业园,商务住宅,产业园区,产业园区,怀耿路北50米,北京市,北京市,怀柔区,116.6648375,40.29272124
凤翔四园,商务住宅,住宅区,住宅小区,杨宋风翔科技开发区,北京市,北京市,怀柔区,116.6741589,40.29192255
光华纺织集团公司文化园,商务住宅,产业园区,产业园区,凤翔一园22号,北京市,北京市,怀柔区,116.6733129,40.2951874
凤翔科技开发区,商务住宅,产业园区,产业园区,杨宋镇,北京市,北京市,怀柔区,116.6703312,40.29733959
杨宋镇企业集中办公区,商务住宅,产业园区,产业园区,杨宋镇凤翔东大街5号人民政府对面,北京市,北京市,怀柔区,116.6786978,40.29421048
风和小区,商务住宅,住宅区,住宅小区,怀柔杨宋镇前进路北侧,北京市,北京市,怀柔区,116.6860573,40.29607366
全国特产经济科技园,商务住宅,产业园区,产业园区,北晨路9号,北京市,北京市,怀柔区,116.6945303,40.29590634
鹿世界产业园科技带动区,商务住宅,产业园区,产业园区,近郊北晨路26号,北京市,北京市,怀柔区,116.6978105,40.29328478
欧郡二期-欧郡・香水城,商务住宅,住宅区,住宅区,杨宋镇凤翔科技园区附近(京承高速14出口),北京市,北京市,怀柔区,116.6988041,40.2939701
怀柔新城08街区安置房1期,商务住宅,商务住宅相关,商务住宅相关,兴盛路与前进路交叉口西南100米,北京市,北京市,怀柔区,116.6903733,40.29225607
北京起源生态产业园,商务住宅,产业园区,产业园区,杨宋镇北晨路1号,北京市,北京市,怀柔区,116.6986552,40.29562894
自驾先锋房车e族户外产业园,商务住宅,商务住宅相关,商务住宅相关,,北京市,北京市,怀柔区,116.7179368,40.29366912
乡情家园,商务住宅,住宅区,住宅区,北房村,北京市,北京市,怀柔区,116.7306772,40.29897736
潮白秀庐湾,商务住宅,住宅区,住宅区,小罗山村,北京市,北京市,怀柔区,116.7363338,40.29699249
蓝天国际花园,商务住宅,商务住宅相关,商务住宅相关,新昌街与永康路交叉口路西,北京市,北京市,密云区,116.7742813,40.29230965
后坑子,商务住宅,住宅区,住宅区,二零八路西100米,北京市,北京市,平谷区,117.2088703,40.29355139
天阔家园悟莲谷(入口),商务住宅,商务住宅相关,商务住宅相关,,北京市,北京市,昌平区,116.0859461,40.28275845
悟莲谷(天阔家园正门),商务住宅,商务住宅相关,商务住宅相关,,北京市,北京市,昌平区,116.0859461,40.28275845
田园居,商务住宅,商务住宅相关,商务住宅相关,昭陵路与裕陵路交叉口东150米,北京市,北京市,昌平区,116.2178447,40.28760695
北京昌平城区佳莲时代广场公寓,商务住宅,住宅区,住宅区,德陵路北50米,北京市,北京市,昌平区,116.2469031,40.28183299
文化产业园,商务住宅,产业园区,产业园区,武各庄后街20号,北京市,北京市,怀柔区,116.5339375,40.2813064
丽水湾,商务住宅,住宅区,住宅小区,桥梓镇秦家东庄,北京市,北京市,怀柔区,116.567156,40.29003895
八龙桥雅苑,商务住宅,住宅区,住宅小区,桥梓镇怀长路,北京市,北京市,怀柔区,116.5790653,40.28972686
玖号院,商务住宅,住宅区,住宅区,桥梓镇宽沟九号院1号,北京市,北京市,怀柔区,116.5790953,40.28976087
金善名居,商务住宅,住宅区,住宅小区,庙城西台下村,北京市,北京市,怀柔区,116.6127611,40.28962695
安秀园,商务住宅,住宅区,住宅小区,西台路南150米,北京市,北京市,怀柔区,116.6121269,40.29095818
万通新新小镇,商务住宅,住宅区,住宅小区,庙高路东150米,北京市,北京市,怀柔区,116.6243622,40.28483662
万通・龙山逸墅(庙高路),商务住宅,住宅区,别墅,京承高速14出口(怀柔城区方向)500米,北京市,北京市,怀柔区,116.6243564,40.28368689
融城园-南区,商务住宅,住宅区,住宅区,怀长路,北京市,北京市,怀柔区,116.62808,40.2907194
庙城镇钢丝绳厂宿舍,商务住宅,住宅区,宿舍,庙高路68号,北京市,北京市,怀柔区,116.6202382,40.29048927
龙山新新小镇,商务住宅,住宅区,住宅小区,"庙城镇422号,京承高速第14号京密路出口,出来后直行400米路左即到",北京市,北京市,怀柔区,116.6295636,40.28453973
文渊坊,商务住宅,住宅区,住宅区,庙城镇421号,北京市,北京市,怀柔区,116.6332613,40.28577806
瀛公馆,商务住宅,住宅区,住宅区,绿茵山庄北门,北京市,北京市,怀柔区,116.637545,40.28745399
和家园,商务住宅,商务住宅相关,商务住宅相关,京密高速与庙高路交叉口东150米,北京市,北京市,怀柔区,116.6380917,40.28765907
怡安园,商务住宅,住宅区,住宅小区,京密路与怀长路交叉口东南角,北京市,北京市,怀柔区,116.6404816,40.28934575
恒城大厦,商务住宅,商务住宅相关,商务住宅相关,庙城镇怡安园小区北门向东200米,北京市,北京市,怀柔区,116.6436284,40.29090604
办公区,商务住宅,商务住宅相关,商务住宅相关,和平街与227省道交叉口西北200米,北京市,北京市,怀柔区,116.6677807,40.28746478
影创空间大厦,商务住宅,楼宇,商务写字楼,凤翔大街与怀耿路交叉口西南150米,北京市,北京市,怀柔区,116.6724292,40.28909849
凤和二园,商务住宅,住宅区,住宅区,杨宋镇和平路,北京市,北京市,怀柔区,116.6737338,40.28636063
益田影人峰汇,商务住宅,住宅区,住宅小区,杨宋镇中影基地东侧,北京市,北京市,怀柔区,116.67109,40.28969092
欧郡,商务住宅,住宅区,住宅区,香水城北区122-2,北京市,北京市,怀柔区,116.6707075,40.28616345
益田・奥斯卡城,商务住宅,楼宇,商住两用楼宇,227省道附近,北京市,北京市,怀柔区,116.6700759,40.28972385
益田・国际梦工场,商务住宅,住宅区,住宅小区,杨宋镇(京承高速第15号出口500米处)中影基地东,北京市,北京市,怀柔区,116.6709384,40.28950125
香水城北区,商务住宅,住宅区,住宅区,凤翔大街与和平路交叉口,北京市,北京市,怀柔区,116.6708789,40.28735885
香水城南区,商务住宅,住宅区,住宅区,杨宋镇和平路甲7号,北京市,北京市,怀柔区,116.6703876,40.28479437
杨宋庄村活动中心,商务住宅,住宅区,社区中心,中高路与怀耿路交叉口北150米,北京市,北京市,怀柔区,116.6788419,40.29021613
北京百汇演艺学校宿舍楼,商务住宅,住宅区,宿舍,杨宋镇凤翔大街凤瑞二园9号,北京市,北京市,怀柔区,116.6730741,40.28331057
中影基地北院,商务住宅,商务住宅相关,商务住宅相关,怀耿路北100米,北京市,北京市,怀柔区,116.6714528,40.29088795
梦想山2期,商务住宅,商务住宅相关,商务住宅相关,和平南路与安平路交叉口西南50米,北京市,北京市,怀柔区,116.6838749,40.28288857
梦想家(建设中),商务住宅,住宅区,住宅区,安平西路与祥瑞路交叉口北100米,北京市,北京市,怀柔区,116.6812831,40.28219343
航天朗勤生态产业园,商务住宅,产业园区,产业园区,杨宋镇怀耿路37号,北京市,北京市,怀柔区,116.6954101,40.28759985
富街1区,商务住宅,住宅区,住宅小区,河南寨镇两河单平路富街一区,北京市,北京市,密云区,116.7695274,40.28522258
密农人家两河沙田红薯生产基地,商务住宅,产业园区,产业园区,两河村,北京市,北京市,密云区,116.7753979,40.28781688
汇源生态农业园区,商务住宅,产业园区,产业园区,,北京市,北京市,密云区,116.9349441,40.28232642
星星湾小苑,商务住宅,商务住宅相关,商务住宅相关,熊南路西100米,北京市,北京市,平谷区,117.1862033,40.28317636
泰胡路小区,商务住宅,住宅区,住宅小区,泰胡路22号院,北京市,北京市,昌平区,116.2232284,40.27143395
北京圣世恒业职工公寓,商务住宅,住宅区,宿舍,十三陵昌平区十三陵特区办事处附近,北京市,北京市,昌平区,116.226339,40.27267481
山上的会所,商务住宅,住宅区,别墅,水库北路9号,北京市,北京市,昌平区,116.2642774,40.27710204
江南艺墅,商务住宅,住宅区,别墅,兴寿镇牛蹄岭旅游区(距小汤山12公里),北京市,北京市,昌平区,116.3866414,40.27639
云山18号,商务住宅,商务住宅相关,商务住宅相关,兴寿牛蹄岭新村云山墅18号,北京市,北京市,昌平区,116.3935687,40.27597625
北京漆文化创意产业园,商务住宅,产业园区,产业园区,上庄村504,北京市,北京市,昌平区,116.3956809,40.27402351
深水河,商务住宅,住宅区,住宅区,桃下路北100米,北京市,北京市,昌平区,116.4228377,40.27695961
文化新村,商务住宅,住宅区,住宅小区,武各庄后街20号,北京市,北京市,怀柔区,116.5319386,40.28111067
茶坞铁路小区,商务住宅,住宅区,住宅小区,怀柔桥梓镇茶坞铁路小学附近,北京市,北京市,怀柔区,116.5487821,40.28074087
润田农园(办公区),商务住宅,产业园区,产业园区,桥梓镇茶坞铁路小区东门,北京市,北京市,怀柔区,116.5520761,40.28125164
北上艺墅(上苑艺术),商务住宅,住宅区,别墅,桥梓镇沙峪口,北京市,北京市,怀柔区,116.6337197,40.27391896
大杜两河村文化活动中心,商务住宅,住宅区,社区中心,庙城镇大杜两河村101号,北京市,北京市,怀柔区,116.6531451,40.28082417
大岸影视村,商务住宅,住宅区,住宅小区,怀柔杨宋镇耿辛庄,北京市,北京市,怀柔区,116.7139525,40.28076615
南达峪,商务住宅,住宅区,住宅区,木邵路东50米,北京市,北京市,密云区,116.9376773,40.27276761
长寿家园,商务住宅,住宅区,住宅小区,虎峪村,北京市,北京市,昌平区,116.1460834,40.26828118
家家福公寓,商务住宅,商务住宅相关,商务住宅相关,虎峪路附近,北京市,北京市,昌平区,116.1446288,40.26612214
虎峪风景洋房,商务住宅,商务住宅相关,商务住宅相关,南口虎屿村,北京市,北京市,昌平区,116.1448931,40.26150052
枫林别院,商务住宅,商务住宅相关,商务住宅相关,十三陵镇胡庄路口红绿灯西南角假日时光酒店附近,北京市,北京市,昌平区,116.2264878,40.26808786
泰胡路22号院,商务住宅,楼宇,商务写字楼,昌平胡庄村泰胡路22号,北京市,北京市,昌平区,116.2250739,40.27000255
胡庄小区,商务住宅,商务住宅相关,商务住宅相关,水库西路北50米,北京市,北京市,昌平区,116.2213489,40.27087062
君佳信职工公寓,商务住宅,住宅区,宿舍,十三陵镇胡庄村,北京市,北京市,昌平区,116.2265795,40.27094133
山南庄园,商务住宅,住宅区,住宅区,沙峪口村,北京市,北京市,怀柔区,116.5070347,40.26618954
京北月季玫瑰示范园区,商务住宅,商务住宅相关,商务住宅相关,庙城镇王史山村口,北京市,北京市,怀柔区,116.5880163,40.26678205
碧水金源,商务住宅,商务住宅相关,商务住宅相关,,北京市,北京市,怀柔区,116.6153342,40.26694752
欧曼二工厂宿舍楼,商务住宅,商务住宅相关,商务住宅相关,中高路北100米,北京市,北京市,怀柔区,116.6269118,40.26332789
焦村艺术园区,商务住宅,商务住宅相关,商务住宅相关,京密路与庙赵路交叉口西150米,北京市,北京市,怀柔区,116.6301562,40.2697021
潮白丽水庄园,商务住宅,住宅区,别墅,杨宋,北京市,北京市,怀柔区,116.7027275,40.26590548
潮河苑假日农庄,商务住宅,住宅区,别墅,杨宋镇太平庄,北京市,北京市,怀柔区,116.7062738,40.26485283
长林庄新村,商务住宅,商务住宅相关,商务住宅相关,如意大街附近,北京市,北京市,顺义区,116.7576591,40.26211513
向日葵园,商务住宅,商务住宅相关,商务住宅相关,茶棚西街东200米,北京市,北京市,顺义区,116.8239153,40.27117979
挂甲峪新村路,商务住宅,住宅区,住宅区,,北京市,北京市,平谷区,117.1009126,40.26532904
核柿家园,商务住宅,住宅区,住宅区,黄松峪雕窝村29号,北京市,北京市,平谷区,117.2474751,40.26676703
秀水兰天朝阳家园,商务住宅,商务住宅相关,商务住宅相关,胡关路东100米,北京市,北京市,平谷区,117.2465292,40.26313792
雕窝靠山绿大院,商务住宅,商务住宅相关,商务住宅相关,胡关路东100米,北京市,北京市,平谷区,117.2456819,40.26115042
将军关新村,商务住宅,住宅区,住宅小区,胡陡路附近,北京市,北京市,平谷区,117.3154015,40.26110543
南口村社区,商务住宅,住宅区,住宅小区,南口村,北京市,北京市,昌平区,116.1207617,40.25133878
北京人民警察学院宿舍楼N4号,商务住宅,住宅区,宿舍,太平庄路附近,北京市,北京市,昌平区,116.1670449,40.25158969
太平庄工业区,商务住宅,产业园区,产业园区,南口镇太平庄,北京市,北京市,昌平区,116.1712477,40.25277429
北京聚游记别墅,商务住宅,住宅区,住宅区,崔村镇香堂村西九区乙七排三号,北京市,北京市,昌平区,116.3488495,40.25329296
香堂香邑别墅,商务住宅,住宅区,别墅,崔村镇香堂村北9区1排2号,北京市,北京市,昌平区,116.3576087,40.25709574
香堂林之语别墅,商务住宅,住宅区,住宅区,香堂村北九区(距离翠华山自然风景区50米),北京市,北京市,昌平区,116.3577013,40.25883426
国奥乡邻雅居,商务住宅,住宅区,住宅区,北石槽村,北京市,北京市,顺义区,116.5139142,40.25422267
桃山,商务住宅,住宅区,住宅区,,北京市,北京市,怀柔区,116.599163,40.26064033
长林庄新村,商务住宅,住宅区,住宅区,168乡道北100米,北京市,北京市,顺义区,116.7737718,40.25340835
木林鸿湖四合院,商务住宅,商务住宅相关,商务住宅相关,顺密路西100米,北京市,北京市,顺义区,116.7893732,40.25124457
于家大院,商务住宅,商务住宅相关,商务住宅相关,后北宫路东一巷128号,北京市,北京市,平谷区,117.0630303,40.25369126
义德庄园,商务住宅,住宅区,住宅区,刁窝胡关路北京石林峡老张农家院东南,北京市,北京市,平谷区,117.2433436,40.25775323
崔家大院,商务住宅,商务住宅相关,商务住宅相关,黄松峪乡雕窝村石林峡风景区门口,北京市,北京市,平谷区,117.2439312,40.25820013
北京清乐居独栋别墅,商务住宅,住宅区,住宅区,黄松峪乡雕窝村,北京市,北京市,平谷区,117.2448395,40.26014969
东涝洼,商务住宅,住宅区,住宅区,,北京市,北京市,平谷区,117.2714563,40.25490375
长城梦想公社,商务住宅,商务住宅相关,商务住宅相关,将军关石河风景区附近,北京市,北京市,平谷区,117.3168451,40.25603067
鳌山美渡,商务住宅,住宅区,住宅区,南口镇响谭村,北京市,北京市,昌平区,116.1074834,40.24443436
南口镇南厂住宅区,商务住宅,住宅区,住宅区,军民路西150米,北京市,北京市,昌平区,116.1186758,40.24415687
南厂住宅北区,商务住宅,住宅区,住宅区,军民路西150米,北京市,北京市,昌平区,116.1174345,40.24507143
南口机车车辆机械厂单身公寓,商务住宅,住宅区,住宅小区,军民路南口,北京市,北京市,昌平区,116.1169768,40.24376422
金隅旺和园(建设中),商务住宅,住宅区,住宅小区,216省道(京藏高速辅路),北京市,北京市,昌平区,116.1172876,40.24968743
新西官房,商务住宅,住宅区,住宅区,南响路北100米,北京市,北京市,昌平区,116.1153873,40.24237695
南厂住宅西区,商务住宅,住宅区,住宅区,军民路西150米,北京市,北京市,昌平区,116.1177533,40.24282117
北京铁路电气化学校-2号学生公寓,商务住宅,住宅区,宿舍,南响路东100米,北京市,北京市,昌平区,116.1115232,40.24258558
北京铁路电气化学校-3号学生公寓,商务住宅,住宅区,宿舍,南响路东150米,北京市,北京市,昌平区,116.1116173,40.24287261
中国北车北京南口轨道交通机械有限责任公司单身公寓,商务住宅,住宅区,宿舍,南口镇,北京市,北京市,昌平区,116.1174507,40.24390066
北京铁路电气化学校-1号学生公寓,商务住宅,住宅区,宿舍,南响路东150米,北京市,北京市,昌平区,116.1119369,40.24258391
北京南口机车车辆机械厂住宅小区,商务住宅,住宅区,住宅小区,军民路与南响路交叉口西北100米,北京市,北京市,昌平区,116.1198833,40.2422395
南厂住宅东区,商务住宅,住宅区,住宅区,军民路东100米,北京市,北京市,昌平区,116.1212405,40.24427863
游览路7号院,商务住宅,住宅区,住宅区,G6辅路东100米,北京市,北京市,昌平区,116.1224855,40.24762244
南厂住宅中区,商务住宅,住宅区,住宅小区,南口,北京市,北京市,昌平区,116.1196709,40.24188934
南厂东社区,商务住宅,住宅区,住宅小区,南口镇温南路西侧,北京市,北京市,昌平区,116.1243618,40.24335747
大堡35号,商务住宅,住宅区,住宅区,南口镇南厂东社区G6中国邮政,北京市,北京市,昌平区,116.1302274,40.24320616
中国非遗传承人产业基地,商务住宅,产业园区,产业园区,南口镇龙虎台村南涧路西区102号,北京市,北京市,昌平区,116.1419811,40.24148944
北京化工大学新校区4号宿舍楼,商务住宅,住宅区,宿舍,,北京市,北京市,昌平区,116.1390925,40.250919
紫光文创园,商务住宅,商务住宅相关,商务住宅相关,南辛路,北京市,北京市,昌平区,116.1560149,40.25019145
兰亭苑仿古四合院,商务住宅,商务住宅相关,商务住宅相关,G7京新高速附近,北京市,北京市,昌平区,116.1729949,40.25054595
北京大学昌平校区宿舍1号楼,商务住宅,住宅区,宿舍,十三陵镇,北京市,北京市,昌平区,116.182748,40.24745217
北京大学昌平校区宿舍3号楼,商务住宅,住宅区,宿舍,万西路附近,北京市,北京市,昌平区,116.18193,40.24665388
北京大学昌平校区应用文理学院宿舍4号楼,商务住宅,住宅区,宿舍,万西路附近,北京市,北京市,昌平区,116.181558,40.2462243
北京大学昌平校区应用文理学院宿舍2号楼,商务住宅,住宅区,宿舍,十三陵镇南涧路北京大学(昌平校区),北京市,北京市,昌平区,116.1823671,40.24704258
依山小墅,商务住宅,住宅区,住宅小区,十三陵镇涧头村西,北京市,北京市,昌平区,116.199531,40.24490978
智汇仙基,商务住宅,商务住宅相关,商务住宅相关,十三陵镇,北京市,北京市,昌平区,116.2345137,40.2498713
仙基公寓,商务住宅,住宅区,住宅区,十三陵镇仙人洞村199号,北京市,北京市,昌平区,116.2345357,40.24988031
金龙湾,商务住宅,住宅区,住宅小区,仙人洞村201号,北京市,北京市,昌平区,116.2407934,40.25001562
麒麟阁,商务住宅,商务住宅相关,商务住宅相关,十三陵水库东山森林公园内,北京市,北京市,昌平区,116.2636895,40.24854224
观山悦1区,商务住宅,住宅区,住宅小区,朝凤北路,北京市,北京市,昌平区,116.260863,40.24251234
枫叶园,商务住宅,住宅区,别墅,蟒山路10号北京金隅凤山温泉度假村,北京市,北京市,昌平区,116.2712058,40.24918848
百合园,商务住宅,住宅区,别墅,蟒山路10号北京金隅凤山温泉度假村,北京市,北京市,昌平区,116.270949,40.24950868
牡丹园,商务住宅,住宅区,别墅,蟒山路10号北京金隅凤山温泉度假村,北京市,北京市,昌平区,116.2710179,40.24988854
月季园,商务住宅,住宅区,别墅,蟒山路10号北京金隅凤山温泉度假村,北京市,北京市,昌平区,116.2714205,40.2500651
桃花园,商务住宅,住宅区,别墅,蟒山路10号北京金隅凤山温泉度假村,北京市,北京市,昌平区,116.271811,40.25028566
丁香园,商务住宅,住宅区,别墅,蟒山路10号北京金隅凤山温泉度假村,北京市,北京市,昌平区,116.2722266,40.2504322
樱花园,商务住宅,住宅区,别墅,蟒山路10号北京金隅凤山温泉度假村,北京市,北京市,昌平区,116.2726231,40.25054676
海棠园,商务住宅,住宅区,别墅,蟒山路10号北京金隅凤山温泉度假村,北京市,北京市,昌平区,116.2730276,40.25065731
菊园,商务住宅,住宅区,别墅,蟒山路10号北京金隅凤山温泉度假村,北京市,北京市,昌平区,116.2707324,40.24858807
竹园,商务住宅,住宅区,别墅,蟒山路10号北京金隅凤山温泉度假村,北京市,北京市,昌平区,116.2704856,40.24889925
北京蟒山旅游度假村-综合楼,商务住宅,楼宇,商务写字楼,蟒山路8号,北京市,北京市,昌平区,116.2762222,40.24775629
蟒山会陪中心,商务住宅,商务住宅相关,商务住宅相关,蟒山路8号,北京市,北京市,昌平区,116.2748928,40.24799777
职工之家,商务住宅,住宅区,宿舍,蟒山路10号北京金隅凤山温泉度假村附近,北京市,北京市,昌平区,116.2814471,40.24736385
倚天苑,商务住宅,住宅区,住宅区,蟒山路10号凤山度假村附近(近蟒山公园),北京市,北京市,昌平区,116.2799182,40.24821168
香堂文化小区8区,商务住宅,住宅区,住宅小区,香北峪路西200米,北京市,北京市,昌平区,116.3552143,40.24640928
忆夏庄园,商务住宅,住宅区,别墅,正北峪自然风景区附近,北京市,北京市,昌平区,116.3532284,40.25026857
梦立方3号秘境轰趴别墅,商务住宅,住宅区,住宅区,香堂文化新村,北京市,北京市,昌平区,116.3543035,40.25019194
香堂别墅,商务住宅,住宅区,别墅,香堂环路东200米,北京市,北京市,昌平区,116.36115,40.24761566
香堂文化小区南5区,商务住宅,住宅区,住宅小区,香堂环路东150米,北京市,北京市,昌平区,116.3608505,40.24736111
香堂文化小区3区,商务住宅,住宅区,住宅小区,崔村镇香堂文化村,北京市,北京市,昌平区,116.3668644,40.24887332
香堂文化小区北5区,商务住宅,住宅区,住宅小区,香北峪路东200米,北京市,北京市,昌平区,116.3597272,40.2485904
香堂文化小区6区,商务住宅,住宅区,住宅小区,香堂环路东150米,北京市,北京市,昌平区,116.3657808,40.24187588
香堂文化小区1区,商务住宅,住宅区,住宅小区,香堂环路西150米,北京市,北京市,昌平区,116.3619166,40.24131781
香堂文化新村第二小区,商务住宅,住宅区,住宅小区,香堂文化新村第二小区(香堂环路西),北京市,北京市,昌平区,116.360162,40.24457456
香榭山庄豪华别墅,商务住宅,住宅区,住宅区,香堂文化新村,北京市,北京市,昌平区,116.3632644,40.2428408
北京住墅中国独栋别墅,商务住宅,住宅区,住宅区,香堂文化新村,北京市,北京市,昌平区,116.3599874,40.24420586
朝露别墅庄园,商务住宅,住宅区,住宅区,崔村镇香堂文化村七区8排14号,北京市,北京市,昌平区,116.3598433,40.2461447
北京聚英会豪华别独栋别墅,商务住宅,住宅区,住宅区,崔村镇香堂文化观光村三区乙排12栋,北京市,北京市,昌平区,116.3680647,40.24944385
香堂文化小区二区3排,商务住宅,住宅区,住宅区,崔村镇香堂文化小区二区3排,北京市,北京市,昌平区,116.3607631,40.24387887
香堂文化娱乐中心,商务住宅,住宅区,社区中心,香堂文化街东100米,北京市,北京市,昌平区,116.3589573,40.2424716
香堂文化活动中心,商务住宅,住宅区,社区中心,香堂环路东50米,北京市,北京市,昌平区,116.359683,40.2430145
情侣木屋别墅,商务住宅,住宅区,别墅,兴寿镇桃峪口北京静之湖度假酒店,北京市,北京市,昌平区,116.432189,40.24428103
(途家豪宅)北京静心茶舍独栋别墅,商务住宅,商务住宅相关,商务住宅相关,"静之湖休闲山庄F区4B,桃辛路",北京市,北京市,昌平区,116.4331753,40.24316581
中华艺墅,商务住宅,住宅区,别墅,小汤山镇安四路(牛蹄岭度假村西侧),北京市,北京市,昌平区,116.4353912,40.24234264
育龙庄园,商务住宅,住宅区,住宅区,北石槽镇西赵各庄村,北京市,北京市,顺义区,116.4851958,40.24469294
颐园国品2期,商务住宅,住宅区,住宅区,下西市村北,北京市,北京市,顺义区,116.4890027,40.24866049
颐园国品四合院,商务住宅,商务住宅相关,商务住宅相关,,北京市,北京市,昌平区,116.485716,40.25071835
富民小区14号,商务住宅,住宅区,住宅区,华康西路42号附近,北京市,北京市,顺义区,116.4888389,40.24238716
富民小区37号,商务住宅,住宅区,住宅区,华康西路44号附近,北京市,北京市,顺义区,116.4886643,40.24218268
富民小区12号,商务住宅,住宅区,住宅小区,下西市路与富民南街交叉口东南50米,北京市,北京市,顺义区,116.4886913,40.24255869
富民小区11号,商务住宅,住宅区,住宅区,下西市路与富民南街交叉口东南50米,北京市,北京市,顺义区,116.4888278,40.24257009
富民小区13号,商务住宅,住宅区,住宅小区,下西市路与富民南街交叉口东南100米,北京市,北京市,顺义区,116.4887335,40.24237585
富民小区15号,商务住宅,住宅区,住宅小区,下西市路与富民南街交叉口东南100米,北京市,北京市,顺义区,116.4889875,40.2423996
慈心家园,商务住宅,住宅区,住宅区,北石槽下西市村,北京市,北京市,顺义区,116.4940249,40.24859547
富民小区1号,商务住宅,住宅区,住宅区,富民南街临乙3号附近,北京市,北京市,顺义区,116.4907431,40.24273776
富民小区24号,商务住宅,住宅区,住宅区,富民南街临乙3号附近,北京市,北京市,顺义区,116.4905624,40.24256526
富民小区23号,商务住宅,住宅区,住宅区,富民南街临乙3号附近,北京市,北京市,顺义区,116.4904099,40.2425408
富民小区22号,商务住宅,住宅区,住宅小区,北石槽镇富民小区22号,北京市,北京市,顺义区,116.4902613,40.24252836
富民小区28号,商务住宅,住宅区,住宅区,富民南街临乙3号附近,北京市,北京市,顺义区,116.490434,40.24236091
富民小区30号,商务住宅,住宅区,住宅区,兴华中路与富民南街交叉口南100米,北京市,北京市,顺义区,116.4900314,40.24232572
富民小区2号,商务住宅,住宅区,住宅小区,北石槽镇下西市村,北京市,北京市,顺义区,116.4905845,40.24273129
富民小区3号,商务住宅,住宅区,住宅小区,兴华中路与富民南街交叉口东南50米,北京市,北京市,顺义区,116.4904098,40.24269378
富民小区32号,商务住宅,住宅区,住宅小区,北石槽镇富民小区32号,北京市,北京市,顺义区,116.4896189,40.2422895
富民小区9号,商务住宅,住宅区,住宅小区,下西市路与富民南街交叉口东100米,北京市,北京市,顺义区,116.4891651,40.24261809
石槽村小区,商务住宅,住宅区,住宅小区,北石槽村,北京市,北京市,顺义区,116.5282923,40.24932715
北京钓鱼岛文化休闲产业园,商务住宅,产业园区,产业园区,梭草村X203,北京市,北京市,怀柔区,116.6773931,40.24979629
木林小区,商务住宅,住宅区,住宅小区,顺密路83号,北京市,北京市,顺义区,116.7697636,40.24557389
木林开发区,商务住宅,产业园区,产业园区,木林段85号,北京市,北京市,顺义区,116.7728613,40.24377922
祥瑞宏福,商务住宅,住宅区,住宅小区,马兴路北100米,北京市,北京市,昌平区,116.0866805,40.23429382
桃洼东(临时站),商务住宅,商务住宅相关,商务住宅相关,马兴路南50米,北京市,北京市,昌平区,116.088579,40.23376254
新西小区,商务住宅,住宅区,住宅小区,南口西大桥,北京市,北京市,昌平区,116.1166477,40.23285583
玻璃公司社区,商务住宅,住宅区,住宅小区,新西广街与温南路交叉口西北150米,北京市,北京市,昌平区,116.1164903,40.23381551
四海公寓,商务住宅,住宅区,住宅区,水库南路与温南路交叉口西北200米,北京市,北京市,昌平区,116.1109028,40.23151905
丰景高苑,商务住宅,住宅区,住宅小区,南口镇兴隆街,北京市,北京市,昌平区,116.1249239,40.23623943
兴隆小区,商务住宅,住宅区,住宅小区,太平街附近,北京市,北京市,昌平区,116.1230354,40.23412451
南口小学教师楼,商务住宅,住宅区,住宅区,兴隆街与太平街交叉口北100米,北京市,北京市,昌平区,116.1224932,40.23503872
昌平区南口镇示范温馨家园,商务住宅,住宅区,住宅区,兴隆街16号附近,北京市,北京市,昌平区,116.1216484,40.23599358
水泥机械厂宿舍,商务住宅,住宅区,宿舍,南口镇南大街工商管理学院东,北京市,北京市,昌平区,116.1259953,40.23455107
南口镇新兴路社区协商议事厅,商务住宅,商务住宅相关,商务住宅相关,新兴路9号附近,北京市,北京市,昌平区,116.1234062,40.24094575
鹿牌家园,商务住宅,住宅区,住宅小区,南口镇东大街22号,北京市,北京市,昌平区,116.1319949,40.23957432
东升小区,商务住宅,住宅区,住宅小区,东大街49号,北京市,北京市,昌平区,116.129203,40.23656095
玉龙公寓,商务住宅,住宅区,住宅小区,,北京市,北京市,昌平区,116.1331937,40.23949407
钢圈厂宿舍楼,商务住宅,住宅区,宿舍,南口镇东升街钢圈厂宿舍,北京市,北京市,昌平区,116.129662,40.23667055
66325先锋家园,商务住宅,商务住宅相关,商务住宅相关,东大街52号院附近,北京市,北京市,昌平区,116.1294891,40.23300496
知春苑,商务住宅,住宅区,住宅区,南口镇红泥沟,北京市,北京市,昌平区,116.1467282,40.23659534
龙虎台小区,商务住宅,住宅区,住宅小区,南口,北京市,北京市,昌平区,116.1479049,40.24011976
涧头公寓,商务住宅,商务住宅相关,商务住宅相关,,北京市,北京市,昌平区,116.1959363,40.24065121
一家人公寓,商务住宅,商务住宅相关,商务住宅相关,十三陵加油站安居家园,北京市,北京市,昌平区,116.203023,40.23453553
堂郡,商务住宅,住宅区,住宅区,邓庄桥西150米,北京市,北京市,昌平区,116.2054238,40.23609644
食鸽家园,商务住宅,住宅区,住宅区,G110(京银路),北京市,北京市,昌平区,116.2045146,40.23844084
祥园小区,商务住宅,住宅区,住宅小区,G7(京新高速公路),北京市,北京市,昌平区,116.1994856,40.23177404
鑫佳公寓,住宿服务,旅馆招待所,旅馆招待所|商务住宅,十三陵镇京银路中国石油加油站南70米,北京市,北京市,昌平区,116.2056287,40.23266031
北京演艺专修学院教职工别墅区,商务住宅,住宅区,别墅,安博艺术教育中心附近,北京市,北京市,昌平区,116.2144278,40.23512511
北京演艺专修学院学生公寓,商务住宅,住宅区,宿舍,京银路石牌坊南,北京市,北京市,昌平区,116.2119656,40.23418964
北京演艺专修学院U型宿舍楼,商务住宅,住宅区,宿舍,北京联合大学校内,北京市,北京市,昌平区,116.2124805,40.23434218
派拉维轰趴别墅,商务住宅,住宅区,住宅区,昌赤路18号,北京市,北京市,昌平区,116.217508,40.24103208
北京涉外经济专修学院公寓,商务住宅,住宅区,宿舍,涉外经济学院内图书馆(石牌坊)附近,北京市,北京市,昌平区,116.2113086,40.23280015
北京联合大学(昌平校区)-大学生公寓,商务住宅,住宅区,宿舍,涉外经济学院内图书馆(石牌坊)附近,北京市,北京市,昌平区,116.2114228,40.23285027
欣悦家园,商务住宅,住宅区,住宅区,"二毛环岛北100米,京昌高速路13B出口",北京市,北京市,昌平区,116.2237613,40.23752688
清远楼,商务住宅,楼宇,商务写字楼,中山口路中段,北京市,北京市,昌平区,116.2346156,40.23570791
裕祥小区(中山口路),商务住宅,住宅区,住宅小区,中山口路西150米,北京市,北京市,昌平区,116.2327956,40.23153098
三街裕祥小区,商务住宅,住宅区,住宅小区,昌平昌平北环路昌平北路25号院,北京市,北京市,昌平区,116.229908,40.23139271
观山悦7区,商务住宅,住宅区,住宅小区,朝凤北路西100米,北京市,北京市,昌平区,116.2486752,40.23483895
观山悦,商务住宅,住宅区,别墅,水库路19号,北京市,北京市,昌平区,116.2578239,40.23938273
吉祥公寓,商务住宅,商务住宅相关,商务住宅相关,朝凤南路与朝凤路交叉口东150米,北京市,北京市,昌平区,116.2565658,40.23624794
鲟香苑公寓,商务住宅,商务住宅相关,商务住宅相关,朝凤南路与水库路交叉口西100米,北京市,北京市,昌平区,116.2567748,40.23520702
祥泰公寓招租,商务住宅,商务住宅相关,商务住宅相关,朝凤南路与水库路交叉口西南200米,北京市,北京市,昌平区,116.2571109,40.23391507
紫藤园,商务住宅,住宅区,住宅小区,朝凤庵南路6号,北京市,北京市,昌平区,116.2656057,40.23531113
朝凤山庄玫瑰园区,商务住宅,商务住宅相关,商务住宅相关,水库路19号,北京市,北京市,昌平区,116.2603835,40.24076097
草原之家雪域家园,商务住宅,住宅区,住宅区,南营路与朝辛路交叉口西100米,北京市,北京市,昌平区,116.2755469,40.23289974
博雅公寓,商务住宅,商务住宅相关,商务住宅相关,朝辛路附近,北京市,北京市,昌平区,116.2840219,40.23392978
九鼎山庄,商务住宅,住宅区,别墅,崔村,北京市,北京市,昌平区,116.3441596,40.23311855
真顺文化园,商务住宅,住宅区,住宅小区,崔村镇西西路真顺九鼎山庄东北300米,北京市,北京市,昌平区,116.3472731,40.23364016
北京市昌平区崔村镇真顺村工业园,商务住宅,产业园区,产业园区,西西路(农家院对面),北京市,北京市,昌平区,116.3415374,40.23153942
香堂文化小区北7区,商务住宅,住宅区,住宅小区,香北峪路,北京市,北京市,昌平区,116.3548005,40.23493397
北京乌有巷别墅,商务住宅,住宅区,别墅,文化新村香堂文化街西新世纪商城西200米,北京市,北京市,昌平区,116.3560686,40.24013916
香堂文化小区南7区,商务住宅,住宅区,住宅小区,西西路,北京市,北京市,昌平区,116.3529233,40.23258224
香堂村平房三合院,商务住宅,住宅区,住宅小区,香堂文化街西100米,北京市,北京市,昌平区,116.358206,40.23922724
