名称,大类,中类,小类,地址,省,市,区,WGS84_经度,WGS84_纬度
喇叭沟原始森林风景区-白桦林景区,风景名胜,风景名胜,风景名胜,喇叭沟门满族乡红螺凤凰台观光区,北京市,北京市,怀柔区,116.47545,40.96251398
红螺凤凰台观光区,风景名胜,风景名胜,风景名胜,017县道,北京市,北京市,怀柔区,116.4757993,40.96299956
五龙潭原始次生林景区,风景名胜,风景名胜,风景名胜,北部喇叭沟门满族乡孙栅子,北京市,北京市,怀柔区,116.4936565,40.96156428
红螺五龙潭观光区,风景名胜,风景名胜,风景名胜,北喇叭沟门,北京市,北京市,怀柔区,116.4941551,40.96332827
喇叭沟原始森林风景区-凤凰台景区,风景名胜,风景名胜,风景名胜,,北京市,北京市,怀柔区,116.4862425,40.95732482
北京喇叭沟原始森林公园,风景名胜,风景名胜,风景名胜,喇叭沟门满族乡孙栅子村西300号,北京市,北京市,怀柔区,116.4835601,40.95819016
五龙潭,风景名胜,风景名胜,风景名胜,喇碾路与017县道交叉口东北100米,北京市,北京市,怀柔区,116.4983304,40.95401364
夏凉宫B区,风景名胜,风景名胜,风景名胜,孙栅子村西500米,北京市,北京市,怀柔区,116.4909888,40.95661153
红螺夏凉宫,风景名胜,风景名胜,风景名胜,喇叭沟门,北京市,北京市,怀柔区,116.4962836,40.95344602
喇叭沟原始森林风景区(暂停营业),风景名胜,风景名胜,风景名胜,北喇叭沟门满族乡孙栅子(喇叭沟原始森林公园),北京市,北京市,怀柔区,116.5106873,40.94310215
龙泉,风景名胜,风景名胜,风景名胜,017县道南100米,北京市,北京市,怀柔区,116.5237468,40.94605867
喇叭沟原始森林风景区-冰川景区,风景名胜,风景名胜,风景名胜,喇碾路西50米,北京市,北京市,怀柔区,116.4781321,40.93859298
千总府,风景名胜,风景名胜,风景名胜,017县道东100米,北京市,北京市,怀柔区,116.5500681,40.93454453
北京高寒植物园,风景名胜,公园广场,植物园,喇嘛沟门满族乡X017,北京市,北京市,怀柔区,116.5517689,40.93281799
喇叭沟门白桦谷,风景名胜,风景名胜,风景名胜,喇叭沟门满族乡,北京市,北京市,怀柔区,116.6011958,40.89882763
满韵旗风,风景名胜,风景名胜,风景名胜,喇叭沟门满族乡喇叭沟门村2号喇叭沟门满族民俗博物馆附近,北京市,北京市,怀柔区,116.6153498,40.90027255
八旗文化广场,风景名胜,公园广场,城市广场,喇叭沟门,北京市,北京市,怀柔区,116.6168444,40.9004779
龙门店森林公园,风景名胜,公园广场,公园,宝碾公路南100米,北京市,北京市,怀柔区,116.42126,40.89013954
道德坑红色旅游基地,风景名胜,风景名胜,风景名胜,宝山镇道德坑村村东北1000米处,北京市,北京市,怀柔区,116.4082982,40.87432695
大冰沟,风景名胜,风景名胜,风景名胜,,北京市,北京市,怀柔区,116.3843567,40.8688083
老爷庙,风景名胜,风景名胜相关,旅游景点,庄喇路附近,北京市,北京市,怀柔区,116.5373884,40.84700885
雪梨公园,风景名胜,公园广场,公园,庄喇路与006乡道交叉口北150米,北京市,北京市,怀柔区,116.5401237,40.84131552
七星关,风景名胜,风景名胜,风景名胜,京加路附近,北京市,北京市,怀柔区,116.7130769,40.83307946
八股山,风景名胜,风景名胜,风景名胜,006乡道西50米,北京市,北京市,怀柔区,116.5201392,40.80033834
银河谷市级森林公园,风景名胜,公园广场,公园,,北京市,北京市,怀柔区,116.5576829,40.7631015
柏泉墅休闲谷,风景名胜,公园广场,公园,长司公路,北京市,北京市,怀柔区,116.8140638,40.76957903
祥云寺,风景名胜,风景名胜,寺庙道观,008县道和长司公路的交叉口,北京市,北京市,密云区,116.8647765,40.76813893
关帝庙,风景名胜,风景名胜,寺庙道观,花盆中心对面,北京市,北京市,延庆区,116.3852883,40.75560888
娘娘庙,风景名胜,风景名胜,寺庙道观,花盆中心对面关帝庙内,北京市,北京市,延庆区,116.3852412,40.75609054
百里山水画廊-花盆森林公园,风景名胜,公园广场,公园,东店村153号北京百里山水画廊内,北京市,北京市,延庆区,116.3849646,40.75451086
椴槐沟,风景名胜,风景名胜相关,旅游景点,,北京市,北京市,怀柔区,116.7388392,40.75130896
侯殿义民俗户,风景名胜,风景名胜相关,旅游景点,冯家峪镇西苍峪村32号,北京市,北京市,密云区,116.8563909,40.76044089
西苍峪金瓜谷,风景名胜,风景名胜,风景名胜,冯家峪镇西苍峪村下仓峪村,北京市,北京市,密云区,116.8594317,40.76035215
千年大榆树京北长寿村,风景名胜,风景名胜相关,旅游景点,大榆树村,北京市,北京市,怀柔区,116.5819665,40.74856097
黄粱根金鱼泉,风景名胜,风景名胜,风景名胜,黄梁根村黄梁根,北京市,北京市,密云区,116.867695,40.74662653
黄粱根映山红峡谷,风景名胜,风景名胜,风景名胜,冯家峪镇黄梁根村委会向西100米,北京市,北京市,密云区,116.8673856,40.74710583
银河谷生态观光园,风景名胜,风景名胜,风景名胜,滦赤路与006乡道交叉口北200米,北京市,北京市,怀柔区,116.6254949,40.73279135
京螺汤河一川漂流,风景名胜,风景名胜,风景名胜,汤河口镇汤河口大街63号,北京市,北京市,怀柔区,116.6342538,40.7337502
番字石刻,风景名胜,风景名胜,风景名胜,番字牌,北京市,北京市,密云区,116.8851777,40.7384941
天河第一瀑,风景名胜,风景名胜,风景名胜,,北京市,北京市,怀柔区,116.6120665,40.72680423
天河漂流(暂停营业),风景名胜,风景名胜相关,旅游景点,白河漂流上游,北京市,北京市,怀柔区,116.6183869,40.72636749
天河水韵,风景名胜,公园广场,公园,滦赤路南50米,北京市,北京市,怀柔区,116.6118755,40.72908172
天河川滨水公园,风景名胜,公园广场,公园,天河川滨水公园(滦赤路东),北京市,北京市,怀柔区,116.6097227,40.72611161
怀柔汤河廉政文化公园,风景名胜,公园广场,公园,,北京市,北京市,怀柔区,116.6240882,40.7283654
北京市汤河口湿地公园,风景名胜,公园广场,公园,汤河口环岛与滦赤路交叉口东150米,北京市,北京市,怀柔区,116.6346761,40.73103155
大峪沟门,风景名胜,风景名胜相关,旅游景点,,北京市,北京市,密云区,116.9021923,40.71562612
白马关古城堡,风景名胜,风景名胜,风景名胜,白马关村白马关,北京市,北京市,密云区,116.9100151,40.71352293
白马天涯公园,风景名胜,公园广场,公园,008县道南50米,北京市,北京市,密云区,116.9207273,40.71259204
百里山水画廊-九龙山,风景名胜,风景名胜,风景名胜,木化石路东端硅化木国家地质公园内,北京市,北京市,延庆区,116.388549,40.70201286
百里山水画廊-硅化木保护展示区,风景名胜,风景名胜,风景名胜,木化石路东端硅化木国家地质公园内,北京市,北京市,延庆区,116.3873436,40.70078416
乌龙峡,风景名胜,风景名胜相关,旅游景点,千家店镇下湾村,北京市,北京市,延庆区,116.4448496,40.70488239
龙王庙,风景名胜,风景名胜,寺庙道观,千家店镇沙梁子乡四潭沟村西,北京市,北京市,延庆区,116.4530988,40.70202256
五仙殿,风景名胜,风景名胜,风景名胜,龙王庙内,北京市,北京市,延庆区,116.4529904,40.70224015
药王殿,风景名胜,风景名胜,风景名胜,龙王庙内,北京市,北京市,延庆区,116.452846,40.7022598
百里山水画廊-龙栖湖,风景名胜,风景名胜,风景名胜,千家店镇沙梁子地区乌龙峡谷景区内,北京市,北京市,延庆区,116.452467,40.70118868
黑龙潭冰灯,风景名胜,风景名胜,风景名胜,石城镇大关桥,北京市,北京市,延庆区,116.450543,40.70262527
乌龙峡谷景区(出口),风景名胜,风景名胜相关,旅游景点,千家店镇沙梁子地区乌龙峡谷景区内,北京市,北京市,延庆区,116.4529002,40.7017343
宝山八景之盘道瑶台,风景名胜,风景名胜,风景名胜,盘道沟村村西南侧,北京市,北京市,怀柔区,116.5188757,40.70721304
宝山八景之牛岚壑,风景名胜,风景名胜,风景名胜,宝山镇盘道沟牛沟村村口西边,北京市,北京市,怀柔区,116.5349352,40.70679918
宝山福地,风景名胜,风景名胜,风景名胜,鸽子堂58号,北京市,北京市,怀柔区,116.6186307,40.70861907
鸽子堂广场,风景名胜,公园广场,公园广场,鸽子堂村,北京市,北京市,怀柔区,116.6188802,40.70891159
长城,风景名胜,风景名胜,风景名胜,,北京市,北京市,密云区,116.8909942,40.70312163
百里山水画廊-朝阳寺,风景名胜,风景名胜,寺庙道观,西店村西朝阳寺,北京市,北京市,延庆区,116.3268765,40.69302786
百里山水画廊-朝阳寺牌坊,风景名胜,风景名胜,风景名胜,西店村西朝阳寺内,北京市,北京市,延庆区,116.3279622,40.69120505
百里山水画廊-白仙庙,风景名胜,风景名胜,风景名胜,西店村西朝阳寺内,北京市,北京市,延庆区,116.3282484,40.69282937
百里山水画廊-韦陀庙,风景名胜,风景名胜,风景名胜,西店村西朝阳寺内,北京市,北京市,延庆区,116.3281396,40.69287255
百里山水画廊-灵官庙,风景名胜,风景名胜,风景名胜,西店村西朝阳寺内,北京市,北京市,延庆区,116.3281667,40.69184122
百里山水画廊-佛殿,风景名胜,风景名胜,风景名胜,西店村西朝阳寺内,北京市,北京市,延庆区,116.3282104,40.69299533
百里山水画廊-娘娘殿,风景名胜,风景名胜,风景名胜,西店村西朝阳寺内,北京市,北京市,延庆区,116.3281346,40.69285257
百里山水画廊-阎王殿,风景名胜,风景名胜,风景名胜,西店村西朝阳寺内,北京市,北京市,延庆区,116.3280358,40.69290672
百里山水画廊-朝阳寺下处,风景名胜,风景名胜,风景名胜,西店村西朝阳寺内,北京市,北京市,延庆区,116.3285517,40.69270288
百里山水画廊-戏楼,风景名胜,风景名胜,风景名胜,西店村西朝阳寺内,北京市,北京市,延庆区,116.3277466,40.6921608
百里山水画廊-鼓楼,风景名胜,风景名胜,风景名胜,西店村西朝阳寺内,北京市,北京市,延庆区,116.3278892,40.69264019
百里山水画廊-火神殿,风景名胜,风景名胜,风景名胜,西店村西朝阳寺内,北京市,北京市,延庆区,116.3280767,40.6929746
百里山水画廊-钟楼,风景名胜,风景名胜相关,旅游景点,西店村西朝阳寺内,北京市,北京市,延庆区,116.3280858,40.69258585
百里山水画廊-朝阳寺景观亭,风景名胜,风景名胜相关,旅游景点,西店村西朝阳寺内,北京市,北京市,延庆区,116.3274702,40.69218631
百里山水画廊-水母奶奶庙,风景名胜,风景名胜,风景名胜,西店村西朝阳寺内,北京市,北京市,延庆区,116.3304056,40.69119041
百里山水画廊-河南花海景区,风景名胜,风景名胜,风景名胜,滦赤路中国・延庆世界地质公园千家店园区内,北京市,北京市,延庆区,116.3477772,40.69418007
百里山水画廊-大滩自然保护区,风景名胜,风景名胜,风景名胜,东店村153号北京百里山水画廊内,北京市,北京市,延庆区,116.3453076,40.69150711
百里山水画廊-千家店村,风景名胜,风景名胜相关,旅游景点,东北部千家店镇百里山水画廊内,北京市,北京市,延庆区,116.3439251,40.69427955
百里山水画廊-定山塔,风景名胜,风景名胜,风景名胜,千沙公路与滦赤路交叉口西南100米,北京市,北京市,延庆区,116.3443527,40.69104907
北京延庆硅化木国家地质公园,风景名胜,风景名胜,国家级景点,千家店镇下德龙湾村,北京市,北京市,延庆区,116.3869628,40.69996089
百里山水画廊硅化木景区,风景名胜,风景名胜相关,旅游景点,千家店镇硅化木国家地质公园,北京市,北京市,延庆区,116.3869449,40.69997789
百里山水画廊-延庆古木化石群,风景名胜,风景名胜,风景名胜,千家店镇,北京市,北京市,延庆区,116.3872128,40.69990284
百里山水画廊-乌龙峡谷,风景名胜,风景名胜,省级景点,千家店镇沙梁子地区,北京市,北京市,延庆区,116.4529491,40.6962173
百里山水画廊-构造节理,风景名胜,风景名胜,风景名胜,千家店镇沙梁子地区乌龙峡谷景区内,北京市,北京市,延庆区,116.4515518,40.69681966
百里山水画廊-河流侧蚀凹槽,风景名胜,风景名胜,风景名胜,千家店镇沙梁子地区乌龙峡谷景区内,北京市,北京市,延庆区,116.4502699,40.69791898
乌龙峡谷旅游风景区,风景名胜,风景名胜,风景名胜,沙梁子乡四潭沟村西,北京市,北京市,延庆区,116.4526883,40.69594789
百里山水画廊-粗安岩露头,风景名胜,风景名胜,风景名胜,千家店镇沙梁子地区乌龙峡谷景区内,北京市,北京市,延庆区,116.451623,40.69678485
百里山水画廊-龙柱大门,风景名胜,风景名胜相关,旅游景点,千家店镇沙梁子地区乌龙峡谷景区内,北京市,北京市,延庆区,116.4531287,40.69609081
宝山八景之白河翠堤,风景名胜,风景名胜,风景名胜,滦赤路东50米,北京市,北京市,怀柔区,116.5222048,40.69356767
宝山寺,风景名胜,风景名胜,风景名胜,宝山大街北50米,北京市,北京市,怀柔区,116.5661447,40.69273311
白河滨水公园,风景名胜,公园广场,公园,京加路与马圈子桥交叉口东北150米,北京市,北京市,怀柔区,116.6540383,40.69482705
取树沟,风景名胜,风景名胜相关,旅游景点,,北京市,北京市,密云区,116.7655334,40.70080058
响水峪自然风景区(建设中),风景名胜,风景名胜,风景名胜,,北京市,北京市,密云区,116.9341731,40.69670921
长城,风景名胜,风景名胜,风景名胜,,北京市,北京市,密云区,117.1409947,40.6965216
吕祠庙,风景名胜,风景名胜,寺庙道观,车站路,北京市,北京市,密云区,117.147519,40.69362271
潮河主坝,风景名胜,风景名胜,观景点,101国道,北京市,北京市,密云区,117.1542224,40.69184694
古北口,风景名胜,风景名胜,风景名胜,古北口镇古北口村,北京市,北京市,密云区,117.1627296,40.69120213
蟠龙山长城景区-古(北口),风景名胜,风景名胜,风景名胜,古北口村,北京市,北京市,密云区,117.1627296,40.69120213
百里山水画廊-白河峡谷,风景名胜,风景名胜,风景名胜,千家店镇,北京市,北京市,延庆区,116.2405953,40.6825636
百里山水画廊-小昆仑构造地貌,风景名胜,风景名胜,风景名胜,滦赤路中国・延庆世界地质公园千家店园区内,北京市,北京市,延庆区,116.254969,40.68563002
百里山水画廊-六道河背斜,风景名胜,风景名胜,风景名胜,滦赤路中国・延庆世界地质公园千家店园区内,北京市,北京市,延庆区,116.254969,40.68563002
百里山水画廊(暂停营业),风景名胜,风景名胜,国家级景点,千家店镇,北京市,北京市,延庆区,116.315975,40.68385419
百里山水画廊-长寿树,风景名胜,风景名胜,风景名胜,东店村153号北京百里山水画廊内,北京市,北京市,延庆区,116.3237387,40.68646246
百里山水画廊-排子岭,风景名胜,风景名胜,风景名胜,河南路西200米,北京市,北京市,延庆区,116.3427158,40.68562769
百里山水画廊-滴水壶景区,风景名胜,风景名胜,风景名胜,千家店镇下湾村,北京市,北京市,延庆区,116.4577088,40.68216649
百里山水画廊-燕山书院,风景名胜,风景名胜,风景名胜,四沙公路南50米,北京市,北京市,延庆区,116.4581743,40.68232853
百里山水画廊-滴水壶单斜,风景名胜,风景名胜,风景名胜,下湾村滴水壶景区内,北京市,北京市,延庆区,116.4579456,40.68210012
百里山水画廊-下湾村,风景名胜,风景名胜相关,旅游景点,滦赤路千家店镇下湾村党支部附近,北京市,北京市,延庆区,116.4574546,40.68531169
百里山水画廊-芦获漫步,风景名胜,风景名胜,风景名胜,下湾村滴水壶景区内,北京市,北京市,延庆区,116.4590753,40.68191706
宝山八景之幽谷鹂歌,风景名胜,风景名胜,风景名胜,滦赤路西50米,北京市,北京市,怀柔区,116.4928233,40.68968075
宝山八景之鱼岛烟树,风景名胜,风景名胜,风景名胜,宝山镇帽山碾子村西南200米,北京市,北京市,怀柔区,116.5117791,40.68718828
南天观澜,风景名胜,风景名胜相关,旅游景点,转年村村西南,北京市,北京市,怀柔区,116.5986991,40.68860228
牛郎峪门,风景名胜,风景名胜相关,旅游景点,,北京市,北京市,密云区,116.909334,40.69108827
长城,风景名胜,风景名胜,风景名胜,,北京市,北京市,密云区,117.1043018,40.68353453
清真寺,风景名胜,风景名胜,回教寺,近郊古下线,北京市,北京市,密云区,117.1456128,40.68562997
万寿行宫,风景名胜,风景名胜,风景名胜,古北口长城景区内,北京市,北京市,密云区,117.1519376,40.68851912
古北口长城,风景名胜,风景名胜相关,旅游景点,东横街与西横街交叉口北150米,北京市,北京市,密云区,117.1578257,40.68821509
古北口(卧虎山)长城管理处,风景名胜,风景名胜,风景名胜,古北口,北京市,北京市,密云区,117.1524075,40.68828413
蟠龙山长城景区-财神庙,风景名胜,风景名胜,寺庙道观,古北口,北京市,北京市,密云区,117.1598359,40.68504102
蟠龙山长城景区-杨令公庙,风景名胜,风景名胜,寺庙道观,当铺后东街,北京市,北京市,密云区,117.1601475,40.68523047
蟠龙山长城景区-古镇文化景区,风景名胜,风景名胜相关,旅游景点,京密路东50米,北京市,北京市,密云区,117.1589876,40.6824962
古北口文化文物旅游景区管理处,风景名胜,风景名胜,风景名胜,古北口,北京市,北京市,密云区,117.1590948,40.68260333
古御道,风景名胜,风景名胜,风景名胜,古北口民俗村古北口隧道旁,北京市,北京市,密云区,117.1591399,40.68249149
古北口文化文物旅游景区,风景名胜,风景名胜,风景名胜,古北口镇古北口村,北京市,北京市,密云区,117.1602487,40.68500881
蟠龙山长城景区-古北口东关二郎庙,风景名胜,风景名胜,寺庙道观,南上坡街10号,北京市,北京市,密云区,117.1659688,40.6839962
御道宫灯,风景名胜,风景名胜相关,旅游景点,古北口,北京市,北京市,密云区,117.1638177,40.68389824
百里山水画廊-稻香谷,风景名胜,风景名胜,风景名胜,千家店镇百里山水画廊景区稻香谷,北京市,北京市,延庆区,116.2678819,40.67346865
百里山水画廊-南猴岭,风景名胜,风景名胜,风景名胜,,北京市,北京市,延庆区,116.370671,40.6804872
百里山水画廊-石屋,风景名胜,风景名胜,风景名胜,下湾村滴水壶景区内,北京市,北京市,延庆区,116.4566337,40.67969655
百里山水画廊-岩溶台地,风景名胜,风景名胜,风景名胜,下湾村滴水壶景区内,北京市,北京市,延庆区,116.4566879,40.67956678
百里山水画廊-滴水壶瀑布,风景名胜,风景名胜,风景名胜,下湾村滴水壶景区内,北京市,北京市,延庆区,116.4562364,40.67990844
百里山水画廊-滴水壶岩溶景观,风景名胜,风景名胜,风景名胜,下湾村滴水壶景区内,北京市,北京市,延庆区,116.4565985,40.68011118
百里山水画廊-滴水壶岩溶遗迹,风景名胜,风景名胜,风景名胜,千家店镇下湾村滴水壶景区内,北京市,北京市,延庆区,116.4565985,40.68011118
白河湿地生态文化公园,风景名胜,公园广场,公园,后安岭,北京市,北京市,怀柔区,116.6580778,40.67980685
白河湾-狼虎哨漂流,风景名胜,风景名胜相关,旅游景点,狼虎哨大石窑度假村,北京市,北京市,怀柔区,116.6922609,40.67953461
古北口・森林公园,风景名胜,公园广场,公园,古北口镇,北京市,北京市,密云区,117.1129745,40.67772453
瘟神庙,风景名胜,风景名胜,寺庙道观,古北口镇潮关古下线瘟神庙戏楼,北京市,北京市,密云区,117.1227679,40.67954731
瘟神庙戏楼,风景名胜,风景名胜,风景名胜,潮关村村口,北京市,北京市,密云区,117.1227679,40.67954831
古北口长城抗战纪念馆,风景名胜,风景名胜,纪念馆,京密路西100米,北京市,北京市,密云区,117.1551979,40.67970014
长城抗战古北口战役纪念碑,风景名胜,风景名胜,风景名胜,京密路西100米,北京市,北京市,密云区,117.1564641,40.68057686
蟠龙山长城景区-西域楼,风景名胜,风景名胜,风景名胜,巴克什营镇金山岭长城内,北京市,北京市,密云区,117.2363658,40.67541043
蟠龙山长城景区-沙岭口,风景名胜,风景名胜,风景名胜,巴克什营镇金山岭长城内,北京市,北京市,密云区,117.2389262,40.67593158
蟠龙山长城景区-无名楼,风景名胜,风景名胜,风景名胜,巴克什营镇金山岭长城内,北京市,北京市,密云区,117.2537666,40.67972405
百里山水画廊-近直立地层,风景名胜,风景名胜,风景名胜,滦赤路中国・延庆世界地质公园千家店园区内,北京市,北京市,延庆区,116.195865,40.66392212
百里山水画廊-干沟民俗村,风景名胜,风景名胜,风景名胜,百里画廊景区内,北京市,北京市,延庆区,116.2402387,40.66203549
百里山水画廊-深谷幽山,风景名胜,风景名胜,风景名胜,东店村153号北京百里山水画廊内,北京市,北京市,延庆区,116.2463984,40.66398917
百里山水画廊-泥裂,风景名胜,风景名胜,风景名胜,滦赤路中国・延庆世界地质公园千家店园区内,北京市,北京市,延庆区,116.2416792,40.66330177
硅质条带白云岩露头,风景名胜,风景名胜,风景名胜,滦赤路中国・延庆世界地质公园千家店园区内,北京市,北京市,延庆区,116.2416792,40.66330177
百里山水画廊-波痕沉积构造,风景名胜,风景名胜,风景名胜,滦赤路中国・延庆世界地质公园千家店园区内,北京市,北京市,延庆区,116.2416792,40.66330177
百里山水画廊-石英砂岩,风景名胜,风景名胜,风景名胜,滦赤路中国・延庆世界地质公园千家店园区内,北京市,北京市,延庆区,116.2439962,40.66946167
百里山水画廊-天桥,风景名胜,风景名胜,风景名胜,滦赤路东200米,北京市,北京市,延庆区,116.2458695,40.67016907
百里山水画廊秀水湾,风景名胜,风景名胜,风景名胜,河西村滦赤路,北京市,北京市,延庆区,116.2648168,40.66278346
白河漂流,风景名胜,风景名胜相关,旅游景点,琉璃庙镇白河北村,北京市,北京市,怀柔区,116.6756018,40.66186442
白河湾-湿地公园,风景名胜,风景名胜,风景名胜,双狼路南50米,北京市,北京市,怀柔区,116.671721,40.66866424
白河湾,风景名胜,风景名胜,风景名胜,琉璃庙镇白河北新村,北京市,北京市,怀柔区,116.6833289,40.67058025
狼虎哨村法治廉政文化公园,风景名胜,公园广场,公园,双狼路东50米,北京市,北京市,怀柔区,116.6918182,40.67091823
白河湾-高峡平湖,风景名胜,风景名胜,风景名胜,,北京市,北京市,怀柔区,116.6929104,40.66271794
清凉谷风景区高峡平湖,风景名胜,公园广场,公园内部设施,,北京市,北京市,怀柔区,116.6931668,40.66272352
古北口娘娘庙,风景名胜,风景名胜,寺庙道观,,北京市,北京市,密云区,117.1484339,40.66972478
白岭关,风景名胜,风景名胜,风景名胜,新城子乡头道沟村,北京市,北京市,密云区,117.3496229,40.66327217
东沟天云山风景区,风景名胜,风景名胜,风景名胜,新城子镇东沟村北,北京市,北京市,密云区,117.3944751,40.66904605
白河堡水库观景平台,风景名胜,风景名胜,风景名胜,,北京市,北京市,延庆区,116.1770575,40.65213109
百里山水画廊-东边村木化石,风景名胜,风景名胜,风景名胜,滦赤路中国・延庆世界地质公园千家店园区内,北京市,北京市,延庆区,116.1852316,40.66066295
百里山水画廊-天生桥,风景名胜,风景名胜,风景名胜,滦赤路中国・延庆世界地质公园千家店园区内,北京市,北京市,延庆区,116.2036151,40.65886064
中国延庆地质公园千家店园区,风景名胜,风景名胜,风景名胜,刘干路与滦赤路交叉口北50米,北京市,北京市,延庆区,116.2443986,40.65916056
百里山水画廊-迎宾湖,风景名胜,风景名胜,风景名胜,东店村153号北京百里山水画廊内,北京市,北京市,延庆区,116.2434083,40.65909462
百里山水画廊文昌帝君庙碑,风景名胜,风景名胜相关,旅游景点,东北部千家店镇百里山水画廊内,北京市,北京市,延庆区,116.2441425,40.65919255
红云岭,风景名胜,风景名胜,风景名胜,,北京市,北京市,延庆区,116.4848622,40.65595099
宝山八景之天门潭月,风景名胜,风景名胜,风景名胜,宝山镇牛圈子后南天门村村口后南天门桥处,北京市,北京市,怀柔区,116.5237553,40.65949803
琉璃庙镇法治廉政文化公园,风景名胜,公园广场,公园,前青路与双狼路交叉口西北200米,北京市,北京市,怀柔区,116.674364,40.65650733
白河湾湿地生态公园,风景名胜,风景名胜,风景名胜,青石岭村西,北京市,北京市,怀柔区,116.678701,40.65391789
袁秀荣民俗园,风景名胜,风景名胜相关,旅游景点,琉璃庙镇双文铺民俗村,北京市,北京市,怀柔区,116.6754015,40.65255698
白河第一漂基地,风景名胜,风景名胜相关,旅游景点,东峪路与前青路交叉口东北150米,北京市,北京市,怀柔区,116.6978909,40.65561173
绿游百纳(白河青石岭影视基地漂流),风景名胜,风景名胜相关,旅游景点,琉璃庙镇青石岭影视外景基地漂流码头,北京市,北京市,怀柔区,116.6939698,40.65421686
白河湾-京北一漂,风景名胜,风景名胜,风景名胜,琉璃庙镇青石岭(蚂蚁山庄南500米),北京市,北京市,怀柔区,116.6939359,40.65471958
清凉谷风景区乐仙瀑,风景名胜,公园广场,公园内部设施,,北京市,北京市,怀柔区,116.6977426,40.66064562
白河湾-悦仙瀑,风景名胜,风景名胜,风景名胜,琉璃庙镇青石岭村残疾人协会附近,北京市,北京市,怀柔区,116.700883,40.65389837
白河湾-母子潭,风景名胜,风景名胜,风景名胜,,北京市,北京市,怀柔区,116.6998848,40.65809806
清凉谷风景区母子潭,风景名胜,公园广场,公园内部设施,,北京市,北京市,怀柔区,116.7000844,40.65807678
东峪沟,风景名胜,风景名胜相关,旅游景点,,北京市,北京市,密云区,116.8588689,40.65194449
紫海香堤薰衣草庄园,风景名胜,风景名胜相关,旅游景点,古北口镇汤河村北大街9号,北京市,北京市,密云区,117.2062565,40.65160191
紫海香堤香草艺术庄园,风景名胜,风景名胜,风景名胜,古北口镇汤河村,北京市,北京市,密云区,117.2142608,40.65742224
紫海香堤香草艺术庄园-聂长山,风景名胜,风景名胜相关,旅游景点,司马台村小岭32-2,北京市,北京市,密云区,117.2266223,40.65732543
老李利盛和,风景名胜,风景名胜相关,旅游景点,司水路(近司马台),北京市,北京市,密云区,117.2369214,40.65575578
大金山森林公园,风景名胜,公园广场,公园,G45大广高速附近,北京市,北京市,密云区,117.2415596,40.65972179
密云古北口水镇,风景名胜,风景名胜相关,旅游景点,蔡家窝铺5-3民俗,北京市,北京市,密云区,117.2433978,40.65264351
司马台长城民居,风景名胜,风景名胜相关,旅游景点,古北水镇司马台新村(近京承高速司马台出口24出口),北京市,北京市,密云区,117.2389061,40.65517754
古北水镇-日月岛码头,风景名胜,风景名胜相关,旅游景点,古北口镇古北水镇景区内,北京市,北京市,密云区,117.26736,40.6510414
古北水镇,风景名胜,风景名胜,风景名胜,古北口镇司马台村,北京市,北京市,密云区,117.2697688,40.65223936
汤和古寨区,风景名胜,风景名胜,风景名胜,古北口镇司马台村古北水镇,北京市,北京市,密云区,117.2704884,40.65358576
古北水镇-望京楼留念,风景名胜,风景名胜相关,旅游景点,,北京市,北京市,密云区,117.2840278,40.65785256
白岭关长城,风景名胜,风景名胜,风景名胜,新城子镇头道沟村,北京市,北京市,密云区,117.3414952,40.6584212
二郎庙,风景名胜,风景名胜,寺庙道观,催四路与松曹路交叉口西北100米,北京市,北京市,密云区,117.3718428,40.65141078
降篷山,风景名胜,风景名胜相关,旅游景点,,北京市,北京市,延庆区,116.1334389,40.64910603
齐仙岭,风景名胜,风景名胜,风景名胜,,北京市,北京市,延庆区,116.4949091,40.64418958
齐仙岭风景区,风景名胜,风景名胜,风景名胜,川宝路北50米,北京市,北京市,延庆区,116.5117172,40.64475861
西湾子休闲产业公园,风景名胜,公园广场,公园,京加路与206乡道交叉口西南100米,北京市,北京市,怀柔区,116.6460058,40.64368427
滨水沙滩公园,风景名胜,公园广场,公园,京加路东50米,北京市,北京市,怀柔区,116.6553606,40.6478784
眼镜潭,风景名胜,风景名胜,风景名胜,,北京市,北京市,怀柔区,116.6920212,40.64341214
三潭叠泻,风景名胜,风景名胜,风景名胜,,北京市,北京市,怀柔区,116.694918,40.64207627
三仙捧玉,风景名胜,风景名胜,风景名胜,,北京市,北京市,怀柔区,116.6948892,40.64871599
白河湾薰衣草庄园,体育休闲服务,休闲场所,休闲场所|风景名胜,琉璃庙镇青石岭村南500米,北京市,北京市,怀柔区,116.6967474,40.65070674
积翠潭,风景名胜,风景名胜,风景名胜,,北京市,北京市,怀柔区,116.7008806,40.64171433
司马台秀伍民俗,风景名胜,风景名胜相关,旅游景点,古北口镇司马台小岭村8-4号,北京市,北京市,密云区,117.2050415,40.64781883
古北水镇-驿通门,风景名胜,风景名胜,风景名胜,古北口镇古北水镇景区内,北京市,北京市,密云区,117.2610592,40.64331042
北京古北水镇(司马台长城)国际旅游度假区,风景名胜,风景名胜,风景名胜,古北口镇,北京市,北京市,密云区,117.2601164,40.643373
古北水镇-永安桥,风景名胜,风景名胜,风景名胜,古北口镇司马台村古北水镇,北京市,北京市,密云区,117.264504,40.64606009
古北水镇-红妆桥,风景名胜,风景名胜,风景名胜,古北口镇司马台村古北水镇,北京市,北京市,密云区,117.267364,40.65080456
古北水镇-杨无敌祠戏台,风景名胜,风景名胜,风景名胜,古北口镇司马台村古北水镇,北京市,北京市,密云区,117.266842,40.64934198
古北水镇-卧龙堡民俗文化区,风景名胜,风景名胜,风景名胜,古北口镇司马台村古北水镇,北京市,北京市,密云区,117.2653382,40.64996585
古北水镇-圆通塔,风景名胜,风景名胜,风景名胜,古北口镇司马台村古北水镇,北京市,北京市,密云区,117.2646893,40.64939076
威远桥,风景名胜,风景名胜,风景名胜,古北口镇司马台村古北水镇,北京市,北京市,密云区,117.2667844,40.64688964
古北水镇-寒沙桥,风景名胜,风景名胜,风景名胜,古北口镇司马台村古北水镇,北京市,北京市,密云区,117.2665726,40.64785319
古北水镇-水街历史风景区,风景名胜,风景名胜,风景名胜,古北口镇司马台村古北水镇,北京市,北京市,密云区,117.265103,40.64705595
古北水镇-佛爷桥,风景名胜,风景名胜,风景名胜,古北口镇司马台村古北水镇,北京市,北京市,密云区,117.2652629,40.64623835
古北水镇-潮河第一营,风景名胜,风景名胜,风景名胜,古北口镇古北水镇景区内,北京市,北京市,密云区,117.2666063,40.64989083
古北水镇-半晴桥,风景名胜,风景名胜,风景名胜,古北口镇古北水镇景区内,北京市,北京市,密云区,117.2658675,40.64977953
古北水镇-川桥,风景名胜,风景名胜,风景名胜,古北口镇古北水镇景区内,北京市,北京市,密云区,117.2660322,40.6494646
古北水镇-云霓,风景名胜,风景名胜,风景名胜,古北口镇古北水镇景区内,北京市,北京市,密云区,117.2657597,40.64926696
古北水镇-皮影戏馆,风景名胜,风景名胜相关,旅游景点,古北口镇古北水镇景区内,北京市,北京市,密云区,117.2659956,40.64762783
古北水镇-司马小烧酒坊,风景名胜,风景名胜相关,旅游景点,古北口镇古北水镇景区内,北京市,北京市,密云区,117.2650961,40.64651131
古北水镇-圆桥,风景名胜,风景名胜,风景名胜,古北口镇古北水镇景区内,北京市,北京市,密云区,117.2650731,40.64624251
古北水镇-蓝桥,风景名胜,风景名胜,风景名胜,古北口镇古北水镇景区内,北京市,北京市,密云区,117.267553,40.64831102
古北水镇-英华桥,风景名胜,风景名胜,风景名胜,古北口镇古北水镇景区内,北京市,北京市,密云区,117.2675121,40.64844597
古北水镇-英华书院,风景名胜,风景名胜,风景名胜,古北口镇古北水镇景区内,北京市,北京市,密云区,117.2677107,40.64857571
古北水镇-水榭回廊,风景名胜,风景名胜,风景名胜,古北口镇古北水镇景区内,北京市,北京市,密云区,117.2679553,40.64884431
古北水镇-杨无敌祠,风景名胜,风景名胜,风景名胜,令公街003号,北京市,北京市,密云区,117.2672464,40.64935761
古北水镇-观景台(司水路),风景名胜,风景名胜,风景名胜,令公街与杨家巷交叉口东150米,北京市,北京市,密云区,117.2683775,40.64931961
古北水镇-月老庙,风景名胜,风景名胜,风景名胜,古北口镇古北水镇景区,北京市,北京市,密云区,117.2670351,40.64649967
古北水镇-喜鹊桥,风景名胜,风景名胜相关,旅游景点,古北口镇古北水镇景区内,北京市,北京市,密云区,117.2673245,40.64720895
古北水镇-南天门(汤市街),风景名胜,风景名胜,风景名胜,古北口镇古北水镇景区内,北京市,北京市,密云区,117.2654885,40.64610026
古北水镇-雁归游船码头,风景名胜,风景名胜,风景名胜,古北口镇古北水镇景区内,北京市,北京市,密云区,117.2641756,40.64557167
古北水镇-喊泉,风景名胜,风景名胜,风景名胜,古北口镇古北水镇景区,北京市,北京市,密云区,117.267639,40.64751746
古北水镇-古北口驿,风景名胜,风景名胜,风景名胜,古北口镇古北水镇景区内,北京市,北京市,密云区,117.261905,40.6439774
古北水镇-水街,风景名胜,风景名胜,风景名胜,古北口镇古北水镇景区内,北京市,北京市,密云区,117.2595979,40.64431372
古北水镇-潮河川桥,风景名胜,风景名胜相关,旅游景点,古北口镇古北水镇景区内,北京市,北京市,密云区,117.2682975,40.65091563
古北水镇-城门桥,风景名胜,风景名胜,风景名胜,古北口镇古北水镇景区内,北京市,北京市,密云区,117.2668759,40.64971271
古北水镇-文昌阁(司水路),风景名胜,风景名胜,风景名胜,令公街001号英华书院西院内,北京市,北京市,密云区,117.2678524,40.64923315
古北水镇-狮子桥,风景名胜,风景名胜,风景名胜,古北口镇古北水镇景区内,北京市,北京市,密云区,117.2592134,40.64430196
古北水镇-永顺染坊,风景名胜,风景名胜相关,旅游景点|购物服务,古北口镇古北水镇景区内,北京市,北京市,密云区,117.2657071,40.64700648
古北水镇-日月岛广场,风景名胜,公园广场,公园广场,古北口镇古北水镇景区内,北京市,北京市,密云区,117.2666611,40.65036846
古北水镇-汤河寨桥,风景名胜,风景名胜,风景名胜,古北口镇古北水镇景区内,北京市,北京市,密云区,117.2692509,40.65059694
古北水镇-长道桥,风景名胜,风景名胜,风景名胜,古北口镇古北水镇景区内,北京市,北京市,密云区,117.2695774,40.65068857
古北水镇-山顶教堂,风景名胜,风景名胜,教堂,令公街5号,北京市,北京市,密云区,117.2688198,40.64953805
龙王庙,风景名胜,风景名胜,寺庙道观,新城子镇,北京市,北京市,密云区,117.3351872,40.64405108
柏神公园,风景名胜,公园广场,公园,松曹路与445村道交叉口东北50米,北京市,北京市,密云区,117.3314755,40.64401505
密云狩猎综合旅游区,风景名胜,风景名胜,风景名胜,253乡道,北京市,北京市,密云区,117.3677068,40.64314049
云岫谷游猎自然风景区-雾灵湖,风景名胜,风景名胜,风景名胜,新城子,北京市,北京市,密云区,117.3808939,40.64509167
东极仙谷自然风景区,风景名胜,风景名胜,风景名胜,新城子镇花园村,北京市,北京市,密云区,117.4902605,40.64451446
喜仙瀑,风景名胜,风景名胜,风景名胜,清凉谷风景区清心潭喜仙瀑,北京市,北京市,密云区,116.7038715,40.63630554
流杯潭,风景名胜,风景名胜,风景名胜,,北京市,北京市,密云区,116.7138576,40.63140122
勺潭,风景名胜,风景名胜,风景名胜,四合堂乡北石城村清凉谷风景区内,北京市,北京市,密云区,116.7108625,40.63830223
清心潭,风景名胜,风景名胜,风景名胜,,北京市,北京市,密云区,116.7148512,40.63579834
清凉谷景区,风景名胜,风景名胜,省级景点,贾峪青龙背村,北京市,北京市,密云区,116.7477191,40.63203173
贾峪观光园,风景名胜,风景名胜,风景名胜,对贾路南50米,北京市,北京市,密云区,116.7534883,40.63165432
龙云山风景区-溅玉瀑,风景名胜,风景名胜,风景名胜,对贾路东150米附近,北京市,北京市,密云区,116.7548111,40.63268515
京都第一瀑溅玉瀑,风景名胜,公园广场,公园内部设施,对贾路东150米,北京市,北京市,密云区,116.7550261,40.63269722
贾峪湿地,风景名胜,公园广场,公园,石城镇贾峪村,北京市,北京市,密云区,116.7679258,40.63131324
龙云山风景区-寻春湖,风景名胜,风景名胜,风景名胜,石城镇对贾路龙云山风景区,北京市,北京市,密云区,116.7698178,40.63349253
京都第一瀑寻春湖,风景名胜,公园广场,公园内部设施,,北京市,北京市,密云区,116.7702962,40.63347199
独秀峰,风景名胜,风景名胜,风景名胜,冯家峪,北京市,北京市,密云区,116.8870687,40.63578704
上水湾自然风景区,风景名胜,风景名胜,风景名胜,冯家峪镇北侧,北京市,北京市,密云区,116.8903039,40.6367054
司马台长城,风景名胜,风景名胜,风景名胜,京密路与马北公路交叉口东50米,北京市,北京市,密云区,117.1861455,40.63911077
云岫园,风景名胜,风景名胜,风景名胜,松曹路与443村道交叉口东北50米,北京市,北京市,密云区,117.2964545,40.63715379
云岫谷游猎自然风景区-雾灵西峰景区,风景名胜,风景名胜,风景名胜,新城子镇,北京市,北京市,密云区,117.3550066,40.63264585
雾灵西峰高山滑水,风景名胜,风景名胜相关,旅游景点,新城子镇沙滩村雾灵西峰生态旅游风景,北京市,北京市,密云区,117.3545695,40.63302926
古堡民俗旅游区,风景名胜,风景名胜,风景名胜,新城子镇云岫谷游猎自然风景区,北京市,北京市,密云区,117.3615843,40.63519103
云岫谷游猎自然风景区-遥桥古堡,风景名胜,风景名胜,风景名胜,253乡道新城子镇遥桥古堡,北京市,北京市,密云区,117.3760095,40.63232642
雾灵山森林公园-千叠溪风景区,风景名胜,风景名胜,风景名胜,265乡道附近,北京市,北京市,密云区,117.4223916,40.63574073
北京西沟原始森林,风景名胜,风景名胜,风景名胜,,北京市,北京市,怀柔区,116.5435794,40.62114639
望京台,风景名胜,风景名胜,风景名胜,310省道东50米,北京市,北京市,密云区,116.7009213,40.62772221
迎仙潭,风景名胜,风景名胜,风景名胜,,北京市,北京市,密云区,116.7118608,40.62840837
山门,风景名胜,风景名胜,风景名胜,,北京市,北京市,密云区,116.7248378,40.63089347
白河大峡谷,风景名胜,风景名胜,风景名胜,石城镇四合堂清凉谷风景区,北京市,北京市,密云区,116.7257701,40.62598391
京都第一瀑-飞珠潭,风景名胜,风景名胜,风景名胜,清凉谷风景区飞珠潭(琉辛路南),北京市,北京市,密云区,116.7468248,40.62919344
京都第一瀑-一叶潭,风景名胜,风景名胜,风景名胜,310省道南200米,北京市,北京市,密云区,116.7548119,40.62658601
龙云山风景区-群花潭,风景名胜,风景名胜,风景名胜,石城镇群花潭,北京市,北京市,密云区,116.7878495,40.62275981
龙云山风景区,风景名胜,风景名胜,风景名胜,四合堂,北京市,北京市,密云区,116.7899546,40.62905892
不老湖风景区,风景名胜,风景名胜,风景名胜,不老屯镇半城子村,北京市,北京市,密云区,117.0168649,40.6288136
密云欢乐桃源,风景名胜,公园广场,公园,"太师屯镇落洼村(京承高速司马台出口左转200米,距古北水镇1200米)",北京市,北京市,密云区,117.2477493,40.63004668
云岫谷游猎自然风景区-岫谷门,风景名胜,风景名胜,风景名胜,新城子乡遥桥峪,北京市,北京市,密云区,117.375838,40.63074457
燕山天池,风景名胜,风景名胜,风景名胜,城东北20公里,北京市,北京市,延庆区,116.1220647,40.61522655
百里山水画廊-云龙山,风景名胜,风景名胜,风景名胜,,北京市,北京市,延庆区,116.2208537,40.62019033
水口文化体育中心,风景名胜,风景名胜相关,旅游景点,龙湖大道148号,北京市,北京市,延庆区,116.2629021,40.61655469
云梦仙境太极大峡谷(暂停营业),风景名胜,风景名胜相关,旅游景点,琉璃庙镇东峪村云梦仙境自然风景区龙潭涧景区,北京市,北京市,怀柔区,116.6873927,40.61785325
鬼谷庐,风景名胜,风景名胜,风景名胜,310省道南50米,北京市,北京市,怀柔区,116.6903906,40.61884148
龙潭涧,风景名胜,风景名胜,省级景点,琉璃庙镇东峪村,北京市,北京市,怀柔区,116.6895567,40.6191567
千尺珍珠瀑风景区,风景名胜,风景名胜,风景名胜,石城镇四合堂,北京市,北京市,密云区,116.713186,40.61503921
龙云山风景区-悬空瀑,风景名胜,风景名胜,风景名胜,,北京市,北京市,密云区,116.768824,40.61920463
京都第一瀑悬空瀑,风景名胜,公园广场,公园内部设施,,北京市,北京市,密云区,116.7688,40.61920961
京都第一瀑,风景名胜,风景名胜,风景名胜,琉辛路101号,北京市,北京市,密云区,116.7641063,40.61104786
京都第一瀑-鹤鸣洞,风景名胜,风景名胜,风景名胜,琉辛路南100米,北京市,北京市,密云区,116.7708333,40.61282042
龙云山风景区-望鹤台,风景名胜,风景名胜,风景名胜,石城镇琉辛路龙云山风景区,北京市,北京市,密云区,116.7738219,40.61940934
龙云山风景区-高峡平湖,风景名胜,风景名胜,风景名胜,石城镇琉辛路龙云山风景区,北京市,北京市,密云区,116.778838,40.61752515
京都第一瀑望鹤台,风景名胜,公园广场,公园内部设施,,北京市,北京市,密云区,116.7738158,40.6194613
北京市密云区绿氧空间农家驿站,风景名胜,风景名胜相关,旅游景点,张家坟村,北京市,北京市,密云区,116.7795332,40.6140991
京都第一瀑高峡平湖,风景名胜,公园广场,公园内部设施,,北京市,北京市,密云区,116.7792114,40.61748362
龙云山风景区-冲天塔,风景名胜,风景名胜,风景名胜,石城镇冲天塔,北京市,北京市,密云区,116.7938727,40.61979874
白云峡风景区,风景名胜,风景名胜,风景名胜,石城镇捧河岩村,北京市,北京市,密云区,116.8085124,40.61478672
捧河湾风景区,风景名胜,风景名胜,风景名胜,石城镇捧河岩村,北京市,北京市,密云区,116.8075598,40.61331891
云岫谷自然风景区,风景名胜,风景名胜,风景名胜,遥侨峪村,北京市,北京市,密云区,117.3826738,40.61838562
京都第一瀑-妹妹潭,风景名胜,风景名胜,风景名胜,,北京市,北京市,密云区,116.7818393,40.61092094
邓玉芬雕塑主题广场,风景名胜,风景名胜相关,旅游景点,琉辛路东100米,北京市,北京市,密云区,116.7881299,40.60657119
黄峪口风景区,风景名胜,风景名胜,风景名胜,西黄路南150米,北京市,北京市,密云区,116.8380009,40.60663503
圣水寺,风景名胜,风景名胜,寺庙道观,顶石虎附近,北京市,北京市,密云区,116.9162764,40.60819316
吉祥寺,风景名胜,风景名胜,寺庙道观,,北京市,北京市,密云区,116.961151,40.60476428
黄岩,风景名胜,风景名胜相关,旅游景点,,北京市,北京市,密云区,117.1367444,40.60625809
云岫谷游猎自然风景区-运子峪,风景名胜,风景名胜相关,旅游景点,二五五乡道,北京市,北京市,密云区,117.3323876,40.60991885
蜡扦山自然风景区,风景名胜,风景名胜,风景名胜,玻璃庙乡草场50号蜡扦山世纪度假村,北京市,北京市,怀柔区,116.5790416,40.59385503
梧桐岭风景区,风景名胜,风景名胜,风景名胜,琉璃庙,北京市,北京市,怀柔区,116.6724245,40.5946669
云蒙山国家森林公园-天仙瀑,风景名胜,风景名胜,风景名胜,"石城乡境内,云蒙山北麓,距市区115公里",北京市,北京市,密云区,116.7248786,40.59352238
精灵谷景区,风景名胜,风景名胜,风景名胜,流辛路45北京市精灵谷度假村,北京市,北京市,密云区,116.7744577,40.5942443
京都第一瀑,风景名胜,风景名胜,风景名胜,琉辛路西150米,北京市,北京市,密云区,116.7793328,40.59252088
瑶亭关帝庙,风景名胜,风景名胜,寺庙道观,琉辛路西50米,北京市,北京市,密云区,117.086585,40.5923674
玄天锁钥,风景名胜,公园广场,公园,琉辛路与高上路交叉口西100米,北京市,北京市,密云区,117.0971031,40.59768822
高岭公园,风景名胜,公园广场,公园,高岭镇,北京市,北京市,密云区,117.102308,40.60038835
化石沟,风景名胜,风景名胜相关,旅游景点,二五七乡道,北京市,北京市,密云区,117.2791509,40.59512561
云岫谷游猎自然风景区,风景名胜,风景名胜,风景名胜,新城子镇遥桥峪雾灵山脚下,北京市,北京市,密云区,117.3772106,40.59893612
崎峰山自然风景区,风景名胜,风景名胜,风景名胜,琉璃庙镇西台子村,北京市,北京市,怀柔区,116.5981958,40.58968301
云蒙山自然风景区,风景名胜,风景名胜,风景名胜,琉璃庙,北京市,北京市,怀柔区,116.6759815,40.58534064
云蒙山国家森林公园-春花潭,风景名胜,风景名胜,风景名胜,琉璃庙镇云蒙山国家森林公园春花潭,北京市,北京市,怀柔区,116.6939194,40.58106727
黑龙潭自然风景区春花潭,风景名胜,公园广场,公园内部设施,,北京市,北京市,怀柔区,116.6937418,40.58107555
云蒙山国家森林公园(暂停营业),风景名胜,风景名胜,省级景点,琉璃庙镇后山铺村,北京市,北京市,怀柔区,116.7041049,40.58251305
天门山风景区,风景名胜,风景名胜,风景名胜,石城镇柳棵峪(距北京100公里),北京市,北京市,密云区,116.7815526,40.59034093
横岭根山洞,风景名胜,风景名胜,风景名胜,,北京市,北京市,密云区,116.8018791,40.58747144
云峰山自然风景区,风景名胜,风景名胜,省级景点,不老屯镇,北京市,北京市,密云区,116.9434389,40.58611713
秋日森林秘境,风景名胜,风景名胜相关,旅游景点,,北京市,北京市,密云区,116.9435528,40.58436392
超胜庵,风景名胜,风景名胜,寺庙道观,云峰山顶,北京市,北京市,密云区,116.9511169,40.58770633
耕读第,风景名胜,风景名胜相关,旅游景点,,北京市,北京市,密云区,116.9516091,40.58770518
龙王宫,风景名胜,风景名胜相关,旅游景点,,北京市,北京市,密云区,116.9512564,40.58746614
山神庙,风景名胜,风景名胜相关,旅游景点,,北京市,北京市,密云区,116.9511966,40.58775112
东净院,风景名胜,风景名胜相关,旅游景点,,北京市,北京市,密云区,116.951069,40.58804424
灵境,风景名胜,风景名胜相关,旅游景点,,北京市,北京市,密云区,116.9495664,40.58895217
普门桥,风景名胜,风景名胜相关,旅游景点,,北京市,北京市,密云区,116.9495136,40.58909021
观音洞,风景名胜,风景名胜相关,旅游景点,,北京市,北京市,密云区,116.9492455,40.58913979
二仙庙,风景名胜,风景名胜相关,旅游景点,,北京市,北京市,密云区,116.9504543,40.58796071
天王殿,风景名胜,风景名胜相关,旅游景点,,北京市,北京市,密云区,116.9509943,40.58793048
竹林茶座,风景名胜,风景名胜相关,旅游景点,,北京市,北京市,密云区,116.9508279,40.58828066
九龙十八潭风景区,风景名胜,风景名胜,风景名胜,松曹路南50米,北京市,北京市,密云区,117.212288,40.58374906
仙居谷自然风景区,风景名胜,风景名胜,风景名胜,太师屯镇令公村甲1号,北京市,北京市,密云区,117.2314617,40.58735569
云瀑沟,风景名胜,风景名胜,风景名胜,龙庆峡风景区东侧半块豆腐山中(延庆盆地西北侧),北京市,北京市,延庆区,116.0362096,40.57614468
对角沟,风景名胜,风景名胜相关,旅游景点,,北京市,北京市,延庆区,116.454643,40.57569128
龙王庙,风景名胜,风景名胜,寺庙道观,龙泉峪路附近,北京市,北京市,怀柔区,116.6519748,40.57914698
云蒙山国家森林公园-秋月潭,风景名胜,风景名胜,风景名胜,,北京市,北京市,怀柔区,116.6948951,40.57935868
黑龙潭自然风景区秋月潭,风景名胜,公园广场,公园内部设施,,北京市,北京市,怀柔区,116.6953081,40.57931504
云蒙山国家森林公园-黑龙真潭,风景名胜,风景名胜,风景名胜,,北京市,北京市,怀柔区,116.700899,40.57676293
云蒙山国家森林公园-无底潭,风景名胜,风景名胜,风景名胜,,北京市,北京市,怀柔区,116.701887,40.57424893
黑龙潭自然风景区黑龙真潭,风景名胜,公园广场,公园内部设施,,北京市,北京市,怀柔区,116.7006096,40.57679234
黑龙潭自然风景区无底潭,风景名胜,公园广场,公园内部设施,,北京市,北京市,怀柔区,116.7023719,40.57424824
云蒙山国家森林公园-望潭岭,风景名胜,风景名胜,风景名胜,石城镇望潭岭,北京市,北京市,密云区,116.7158801,40.57610146
九龙十八潭风景区,风景名胜,风景名胜,风景名胜,太师屯镇石岩井村,北京市,北京市,密云区,117.2738692,40.58080329
龙王庙,风景名胜,风景名胜,寺庙道观,,北京市,北京市,密云区,117.2734923,40.57807728
四季花海・画廊,风景名胜,风景名胜,风景名胜,香刘公路附近,北京市,北京市,延庆区,116.1912349,40.56156856
仙湖沟风景区,风景名胜,风景名胜,风景名胜,川宝路南150米,北京市,北京市,延庆区,116.4539271,40.56537341
云蒙山国家森林公园-珍珠串,风景名胜,风景名胜,风景名胜,石城镇云蒙山国家森林公园,北京市,北京市,密云区,116.7088726,40.56784215
云蒙山国家森林公园-孙膑庙遗址,风景名胜,风景名胜,风景名胜,后山铺村云蒙山国家森林公园内,北京市,北京市,密云区,116.7056306,40.56696684
云蒙山国家森林公园-望京台,风景名胜,风景名胜,风景名胜,后山铺村云蒙山国家森林公园内,北京市,北京市,密云区,116.7038359,40.56387502
云蒙山主峰,风景名胜,风景名胜,风景名胜,后山铺村云蒙山国家森林公园内,北京市,北京市,密云区,116.7038449,40.563882
云蒙山国家森林公园-龙卷身,风景名胜,风景名胜,风景名胜,琉璃庙镇云蒙山国家森林公园,北京市,北京市,怀柔区,116.7068734,40.5710409
黑龙潭自然风景区珍珠串,风景名胜,公园广场,公园内部设施,,北京市,北京市,密云区,116.7084495,40.56784468
黑龙潭自然风景区龙卷身,风景名胜,公园广场,公园内部设施,,北京市,北京市,怀柔区,116.707072,40.57103264
冷风甸梁头,风景名胜,风景名胜,风景名胜,琉璃庙镇后山铺村云蒙山国家森林公园内,北京市,北京市,密云区,116.7187838,40.56300098
观景台,风景名胜,风景名胜,风景名胜,琉璃庙镇后山铺村云蒙山国家森林公园内,北京市,北京市,密云区,116.7181579,40.56235393
三叠潭,风景名胜,风景名胜,风景名胜,,北京市,北京市,密云区,116.7308371,40.5628313
黑龙潭自然风景区苇潭,风景名胜,风景名胜,风景名胜,石城镇大关桥黑龙潭自然风景区内,北京市,北京市,密云区,116.7418248,40.5621703
滴水潭(黑龙潭自然风景区),风景名胜,风景名胜,风景名胜,石城镇滴水潭,北京市,北京市,密云区,116.7498738,40.56129921
黑龙庙,风景名胜,风景名胜,风景名胜,石城镇大关桥黑龙潭自然风景区内,北京市,北京市,密云区,116.7718737,40.56183224
龙卷身,风景名胜,风景名胜,风景名胜,石城镇大关桥黑龙潭自然风景区内,北京市,北京市,密云区,116.7737242,40.56201901
珍珠串,风景名胜,风景名胜,风景名胜,石城镇大关桥黑龙潭自然风景区内,北京市,北京市,密云区,116.7734379,40.5620487
无底潭,风景名胜,风景名胜,风景名胜,石城镇大关桥黑龙潭自然风景区内,北京市,北京市,密云区,116.7732678,40.56199755
龙戏潭,风景名胜,风景名胜,风景名胜,石城镇大关桥黑龙潭自然风景区内,北京市,北京市,密云区,116.7758432,40.56160452
北京黑龙潭自然风景区,风景名胜,风景名胜,国家级景点,石城镇大关桥,北京市,北京市,密云区,116.7878571,40.5639646
青菁顶(暂停营业),风景名胜,风景名胜,风景名胜,琉辛路125号,北京市,北京市,密云区,116.7852757,40.57076215
云蒙山国家地质公园,风景名胜,风景名胜,风景名胜,水库西线公路8号,北京市,北京市,密云区,116.7956801,40.5615139
龙云山风景区-鹿皮关长城,风景名胜,风景名胜,风景名胜,石城镇(近黑龙潭),北京市,北京市,密云区,116.7978975,40.56285577
雾雨飞虹谷风景区,风景名胜,风景名胜,风景名胜,石城镇大关桥东侧右转大关桥东(近黑龙潭),北京市,北京市,密云区,116.7984914,40.5634904
龙云山风景区-雾雨飞虹谷,风景名胜,风景名胜,国家级景点,琉辛路附近,北京市,北京市,密云区,116.7978283,40.56307754
黑龙潭自然风景区黑龙头潭,风景名胜,风景名胜,风景名胜,石城镇大关桥黑龙潭自然风景区内,北京市,北京市,密云区,116.7898822,40.56152991
白乙化烈士纪念馆,风景名胜,风景名胜,纪念馆,石城乡河北村,北京市,北京市,密云区,116.8203412,40.56432715
老爷庙,风景名胜,风景名胜相关,旅游景点,琉辛路北50米,北京市,北京市,密云区,116.907313,40.56312397
人间花海,风景名胜,公园广场,公园,太师屯镇车道峪村,北京市,北京市,密云区,117.1970743,40.57004112
小海陀山,地名地址信息,自然地名,山|风景名胜,延庆张山营镇北部与河北赤城县交界处,北京市,北京市,延庆区,115.8138423,40.55815595
海坨山,风景名胜,风景名胜,风景名胜,张山营镇北部松山自然保护区,北京市,北京市,延庆区,115.8129117,40.55783142
点将台,风景名胜,风景名胜,风景名胜,,北京市,北京市,延庆区,115.9728621,40.55511913
龙庆峡风景区-梦幻亭,风景名胜,风景名胜,风景名胜,龙庆峡风景区内,北京市,北京市,延庆区,115.9854073,40.55263039
龙庆峡风景区-金刚山,风景名胜,风景名胜,风景名胜,香龙路,北京市,北京市,延庆区,115.9887966,40.55286298
龙庆峡风景区马蹄潭,风景名胜,风景名胜,风景名胜,旧县镇马蹄潭,北京市,北京市,延庆区,115.9801642,40.55302791
龙庆峡风景区-月亮湾,风景名胜,风景名胜,风景名胜,龙庆峡风景区内,北京市,北京市,延庆区,115.9899677,40.55150515
龙庆峡风景区-玉皇峰,风景名胜,风景名胜,风景名胜,旧县镇玉皇峰(龙庆峡风景区附近),北京市,北京市,延庆区,115.9977709,40.55603187
龙庆峡风景区-仙人棋,风景名胜,风景名胜,风景名胜,龙庆峡风景区内龙庆峡风景区-神仙院附近,北京市,北京市,延庆区,115.99777,40.55563509
龙庆峡风景区-东大寨,风景名胜,风景名胜,风景名胜,,北京市,北京市,延庆区,115.997782,40.5546446
龙庆峡风景区-西大寨,风景名胜,风景名胜,风景名胜,,北京市,北京市,延庆区,115.9967695,40.55473863
龙庆峡风景区-金刚寺遗址,风景名胜,风景名胜,风景名胜,旧县镇古城村北龙庆峡风景区内,北京市,北京市,延庆区,115.9897972,40.55186247
龙庆峡-钟山,风景名胜,风景名胜相关,旅游景点,旧县镇古城村北龙庆峡,北京市,北京市,延庆区,115.9947577,40.55390323
龙庆峡风景区-凤冠岛,风景名胜,风景名胜相关,旅游景点,旧县镇古城村北龙庆峡风景区,北京市,北京市,延庆区,115.9959049,40.55188482
龙庆峡风景区-神仙院,风景名胜,风景名胜,风景名胜,龙庆峡风景区内,北京市,北京市,延庆区,115.997767,40.55533327
天王石(龙庆峡风景区),风景名胜,风景名胜,风景名胜,旧县镇,北京市,北京市,延庆区,115.9977689,40.55579301
龙庆峡风景区-神仙院遗址,风景名胜,风景名胜,风景名胜,龙庆峡峡谷北侧石壁上,北京市,北京市,延庆区,116.0137139,40.55468603
龙王庙(车坊村),风景名胜,风景名胜,寺庙道观,东孟路西50米,北京市,北京市,延庆区,116.1011237,40.55431247
龙王庙,风景名胜,风景名胜,寺庙道观,车坊村村委会西侧,北京市,北京市,延庆区,116.1014961,40.55423666
百花园,风景名胜,公园广场,公园,百花园(延琉路南330米),北京市,北京市,延庆区,116.2013128,40.56036351
大观头,风景名胜,公园广场,公园内部设施,,北京市,北京市,延庆区,116.2913697,40.55320589
红果寺,风景名胜,风景名胜,寺庙道观,琉四路,北京市,北京市,延庆区,116.3417444,40.55991991
四季花海,风景名胜,风景名胜,风景名胜,南湾村,北京市,北京市,延庆区,116.3416099,40.55845096
天猫小镇,风景名胜,风景名胜,风景名胜,四季花海景区,北京市,北京市,延庆区,116.3416109,40.55844696
珠泉喷玉主题公园,风景名胜,风景名胜,风景名胜,珍珠山水人家,北京市,北京市,延庆区,116.418368,40.55498618
留香谷风景区,风景名胜,风景名胜,风景名胜,珍珠泉村东北500米,北京市,北京市,延庆区,116.4221745,40.55511619
云蒙山国家森林公园-映山红观赏区,风景名胜,风景名胜,风景名胜,后山铺村云蒙山国家森林公园内,北京市,北京市,密云区,116.679019,40.5527563
北京云蒙山滑索,风景名胜,风景名胜相关,旅游景点,琉璃庙镇后山铺村云蒙山国家森林公园内,北京市,北京市,密云区,116.6772462,40.55185909
云蒙山国家森林公园-瀑布,风景名胜,风景名胜,风景名胜,后山铺村云蒙山国家森林公园内,北京市,北京市,密云区,116.6869026,40.55835996
云蒙山国家森林公园-四潭雾泉,风景名胜,风景名胜,风景名胜,后山铺村云蒙山国家森林公园内,北京市,北京市,密云区,116.6856226,40.55389466
云蒙山国家森林公园-石碾,风景名胜,风景名胜,风景名胜,琉璃庙镇后山铺村云蒙山国家森林公园内,北京市,北京市,密云区,116.6890248,40.55213767
云蒙山国家森林公园-虎穴潭,风景名胜,风景名胜,风景名胜,后山铺村云蒙山国家森林公园内,北京市,北京市,密云区,116.6837837,40.55394292
云蒙山国家森林公园-一潭,风景名胜,风景名胜,风景名胜,后山铺村云蒙山国家森林公园内,北京市,北京市,密云区,116.6858291,40.55408019
云蒙山国家森林公园-观山楼,风景名胜,风景名胜,风景名胜,后山铺村云蒙山国家森林公园内,北京市,北京市,密云区,116.6791187,40.55358666
云蒙山国家森林公园-鹰嘴石,风景名胜,风景名胜,风景名胜,后山铺村云蒙山国家森林公园内,北京市,北京市,密云区,116.6843023,40.55346125
云蒙山国家森林公园-戏溪,风景名胜,风景名胜,风景名胜,后山铺村云蒙山国家森林公园内,北京市,北京市,密云区,116.6845157,40.55357181
云蒙山国家森林公园-娘娘榆,风景名胜,风景名胜,风景名胜,琉璃庙镇后山铺村云蒙山国家森林公园内,北京市,北京市,密云区,116.6889021,40.55218685
云蒙山国家森林公园-二潭,风景名胜,风景名胜,风景名胜,后山铺村云蒙山国家森林公园内,北京市,北京市,密云区,116.6875881,40.55610899
云蒙山国家森林公园-四潭,风景名胜,风景名胜,风景名胜,后山铺村云蒙山国家森林公园内,北京市,北京市,密云区,116.6870113,40.55831079
云蒙山国家森林公园-虎浴潭,风景名胜,风景名胜,风景名胜,后山铺村云蒙山国家森林公园内,北京市,北京市,密云区,116.6821491,40.55400585
云蒙山国家森林公园-三潭,风景名胜,风景名胜,风景名胜,后山铺村云蒙山国家森林公园内,北京市,北京市,密云区,116.6871481,40.55759295
云蒙山国家森林公园-四潭雾泉瀑布,风景名胜,风景名胜,风景名胜,后山铺村云蒙山国家森林公园四潭雾泉内,北京市,北京市,密云区,116.6860514,40.55480041
四潭雾泉二瀑布,风景名胜,风景名胜,风景名胜,后山铺村云蒙山国家森林公园四潭雾泉内,北京市,北京市,密云区,116.6875881,40.55610899
云蒙山国家森林公园-休息平台,风景名胜,风景名胜相关,旅游景点,后山铺村云蒙山国家森林公园内,北京市,北京市,密云区,116.6792194,40.5533576
云蒙山国家森林公园-净身池,风景名胜,风景名胜,风景名胜,后山铺村云蒙山国家森林公园内,北京市,北京市,密云区,116.694634,40.55423118
云蒙山国家森林公园-杨树坪,风景名胜,风景名胜,风景名胜,后山铺村云蒙山国家森林公园内,北京市,北京市,密云区,116.6973512,40.55513839
云蒙山国家森林公园-连理枝,风景名胜,风景名胜,风景名胜,后山铺村云蒙山国家森林公园内,北京市,北京市,密云区,116.6891923,40.55251318
云蒙山国家森林公园-涧门石,风景名胜,风景名胜,风景名胜,后山铺村云蒙山国家森林公园内,北京市,北京市,密云区,116.6971307,40.55554851
云蒙山国家森林公园-中字松,风景名胜,风景名胜,风景名胜,后山铺村云蒙山国家森林公园内,北京市,北京市,密云区,116.6949212,40.55475743
云蒙山国家森林公园-怀古石屋,风景名胜,风景名胜,风景名胜,后山铺村云蒙山国家森林公园内,北京市,北京市,密云区,116.6986321,40.55486857
天狗守门,风景名胜,风景名胜,风景名胜,琉璃庙镇后山铺村云蒙山国家森林公园内,北京市,北京市,密云区,116.7068502,40.55705572
刺猬石,风景名胜,风景名胜,风景名胜,石城镇大关桥黑龙潭自然风景区内,北京市,北京市,密云区,116.7358495,40.55944008
龙劈石,风景名胜,风景名胜,风景名胜,石城镇龙劈石,北京市,北京市,密云区,116.7388342,40.5586757
曲潭,风景名胜,风景名胜,风景名胜,,北京市,北京市,密云区,116.7538178,40.55772428
龙门,风景名胜,风景名胜,风景名胜,,北京市,北京市,密云区,116.7588194,40.55733372
平沙潭,风景名胜,风景名胜,风景名胜,石城镇密云九道弯大峡谷风景区,北京市,北京市,密云区,116.7628305,40.55943601
悬潭,风景名胜,风景名胜,风景名胜,石城镇密云九道弯大峡谷风景区,北京市,北京市,密云区,116.7768395,40.55944084
落雁潭,风景名胜,风景名胜,风景名胜,,北京市,北京市,密云区,116.7728362,40.5558465
沉潭,风景名胜,风景名胜,风景名胜,石城镇大关桥黑龙潭自然风景区内,北京市,北京市,密云区,116.7838548,40.55596845
北京黑龙潭自然风景区-曲潭,风景名胜,风景名胜,风景名胜,石城镇大关桥黑龙潭自然风景区内,北京市,北京市,密云区,116.7838082,40.56068879
北京黑龙潭自然风景区-通天瀑,风景名胜,风景名胜,风景名胜,石城镇大关桥黑龙潭自然风景区内,北京市,北京市,密云区,116.787429,40.55982328
迷人洞崩塌遗迹,风景名胜,风景名胜,风景名胜,石城镇大关桥黑龙潭自然风景区内,北京市,北京市,密云区,116.7879557,40.55990099
365日梨文化主题公园,风景名胜,公园广场,公园,不老屯,北京市,北京市,密云区,116.9234601,40.558747
石匣镇遗址,风景名胜,风景名胜,风景名胜,东北部的潮河之畔,北京市,北京市,密云区,117.0575794,40.55126936
龙庆峡风景区-十八盘,风景名胜,风景名胜,风景名胜,,北京市,北京市,延庆区,115.9778416,40.54820239
龙庆峡风景区-金刚寺,风景名胜,风景名胜,寺庙道观,古城村龙庆峡风景区内,北京市,北京市,延庆区,115.987313,40.5508056
龙庆峡风景区-小桂林,风景名胜,风景名胜,风景名胜,龙庆峡风景区内,北京市,北京市,延庆区,115.9835626,40.54541683
龙庆峡风景区-望江亭,风景名胜,风景名胜,风景名胜,龙庆峡风景区内,北京市,北京市,延庆区,115.9883744,40.54968698
龙庆峡风景区-神笔峰,风景名胜,风景名胜,风景名胜,龙庆峡风景区内,北京市,北京市,延庆区,115.9887184,40.54820573
龙庆峡风景区-毗灵宝殿,风景名胜,风景名胜,风景名胜,龙庆峡风景区金刚寺内,北京市,北京市,延庆区,115.9871854,40.5509639
龙庆峡风景区-爱鹿园,风景名胜,风景名胜,风景名胜,龙庆峡风景区金刚寺内,北京市,北京市,延庆区,115.9880694,40.55061341
龙庆峡风景区-木划船,风景名胜,风景名胜相关,旅游景点,龙庆峡风景区木划船内,北京市,北京市,延庆区,115.9884441,40.55048334
龙庆峡-留念,风景名胜,风景名胜,风景名胜,龙庆峡风景区内,北京市,北京市,延庆区,115.9864699,40.5503554
龙庆峡风景区-小石林,风景名胜,风景名胜相关,旅游景点,旧县镇古城村北龙庆峡风景区,北京市,北京市,延庆区,115.9835955,40.54539575
龙庆峡风景区造钱炉,风景名胜,风景名胜,风景名胜,旧县镇造钱炉,北京市,北京市,延庆区,115.9809225,40.54611437
龙庆峡风景区,风景名胜,风景名胜,国家级景点,旧县镇古城村北,北京市,北京市,延庆区,115.9960137,40.55045227
龙庆峡风景区-湿地公园,风景名胜,风景名胜相关,旅游景点,龙庆峡风景区内,北京市,北京市,延庆区,116.0053426,40.54192056
龙庆峡风景区-风暴岩,风景名胜,风景名胜,风景名胜,龙庆峡风景区中国延庆世界地质公园龙庆峡园区内,北京市,北京市,延庆区,115.9998047,40.54965715
龙庆峡风景区-神盆,风景名胜,风景名胜,风景名胜,龙庆峡风景区内,北京市,北京市,延庆区,115.9992298,40.54826565
龙庆峡风景区-雾迷山组剖面,风景名胜,风景名胜,风景名胜,龙庆峡风景区中国延庆世界地质公园龙庆峡园区内,北京市,北京市,延庆区,116.0001976,40.54766403
龙庆峡风景区-范老道,风景名胜,风景名胜,风景名胜,龙庆峡风景区内,北京市,北京市,延庆区,115.9994292,40.5479682
龙庆峡风景区-喀斯特地貌特征,风景名胜,风景名胜相关,旅游景点,龙庆峡风景区内,北京市,北京市,延庆区,115.9992824,40.54992159
龙庆峡风景区-云水楼,风景名胜,风景名胜,风景名胜,龙庆峡风景区内,北京市,北京市,延庆区,115.9989486,40.5499486
龙庆峡风景区-清音亭,风景名胜,风景名胜,风景名胜,龙庆峡风景区内,北京市,北京市,延庆区,115.9991749,40.54910936
龙庆峡风景区-龙字石刻,风景名胜,风景名胜,风景名胜,龙庆峡风景区内,北京市,北京市,延庆区,116.0047641,40.54544542
龙庆峡风景区-玉皇阁,风景名胜,风景名胜相关,旅游景点,龙庆峡风景区内,北京市,北京市,延庆区,115.9991021,40.5500011
中国延庆世界地质公园龙庆峡园区,风景名胜,公园广场,公园,龙庆峡风景区内,北京市,北京市,延庆区,116.0053542,40.54484497
龙庆峡风景区-一线天,风景名胜,风景名胜,风景名胜,龙庆峡风景区中国延庆世界地质公园龙庆峡园区内,北京市,北京市,延庆区,115.9997509,40.54956236
龙庆峡风景区-玄达斋,风景名胜,风景名胜,风景名胜,龙庆峡风景区内,北京市,北京市,延庆区,115.9993115,40.54834635
龙庆峡风景区-差异风化现象,风景名胜,风景名胜,风景名胜,龙庆峡风景区中国延庆世界地质公园龙庆峡园区内,北京市,北京市,延庆区,115.999734,40.54863192
龙庆峡风景区-燧石条带白云岩,风景名胜,风景名胜,风景名胜,龙庆峡风景区中国延庆世界地质公园龙庆峡园区内,北京市,北京市,延庆区,115.9990315,40.54876298
龙庆峡风景区-神仙院吉祥钟声,风景名胜,风景名胜,风景名胜,龙庆峡风景区内,北京市,北京市,延庆区,115.9991222,40.54825398
龙庆峡风景区-古溶洞堆积,风景名胜,风景名胜,风景名胜,龙庆峡风景区中国延庆世界地质公园龙庆峡园区内,北京市,北京市,延庆区,115.9992018,40.54903932
龙庆峡风景区-天门,风景名胜,风景名胜,风景名胜,龙庆峡风景区内,北京市,北京市,延庆区,115.999724,40.54952247
龙庆峡风景区-百花洞,风景名胜,风景名胜,风景名胜,龙庆峡风景区内,北京市,北京市,延庆区,116.0007997,40.54619299
龙庆峡风景区-天洞,风景名胜,风景名胜,风景名胜,龙庆峡风景区内,北京市,北京市,延庆区,115.999715,40.54947452
龙庆峡风景区-侧蚀凹槽,风景名胜,风景名胜,风景名胜,龙庆峡风景区中国延庆世界地质公园龙庆峡园区内,北京市,北京市,延庆区,115.9996791,40.54931771
龙庆峡风景区-雾迷山组露头,风景名胜,风景名胜,风景名胜,古城村龙庆峡风景区内,北京市,北京市,延庆区,116.000368,40.54770449
神仙居观光索道下站,风景名胜,风景名胜相关,旅游景点,龙庆峡风景区内,北京市,北京市,延庆区,116.0001335,40.54979708
龙庆峡风景区-溶洞角砾岩,风景名胜,风景名胜,风景名胜,龙庆峡风景区中国延庆世界地质公园龙庆峡园区内,北京市,北京市,延庆区,115.9996892,40.54884794
龙庆峡风景区-亭子,风景名胜,风景名胜相关,旅游景点,龙庆峡风景区内,北京市,北京市,延庆区,116.0050243,40.54520777
龙庆峡风景区-龙庆峡冰灯,风景名胜,风景名胜相关,旅游景点,旧县镇古城村,北京市,北京市,延庆区,116.0044232,40.54584823
龙庆峡风景区-腾龙电梯,风景名胜,风景名胜相关,旅游景点,旧县镇古城村北龙庆峡,北京市,北京市,延庆区,116.0050781,40.54481082
龙庆峡风景区-古城大坝,风景名胜,风景名胜相关,旅游景点,旧县镇古城村北龙庆峡,北京市,北京市,延庆区,116.0005773,40.54747798
龙庆峡风景区-玉皇顶,风景名胜,风景名胜相关,旅游景点,旧县镇古城村北龙庆峡风景区,北京市,北京市,延庆区,115.9994161,40.54858391
龙庆峡风景区-滨水长廊,风景名胜,风景名胜,风景名胜,龙庆峡风景区内,北京市,北京市,延庆区,116.0055883,40.54510713
绿富隆观光园,风景名胜,风景名胜,风景名胜,旧县镇人民政府西侧,北京市,北京市,延庆区,116.0605107,40.5440265
旧县南,风景名胜,风景名胜相关,旅游景点,前街与旧大路交叉口西南100米,北京市,北京市,延庆区,116.0857946,40.54506657
东铺,风景名胜,风景名胜,风景名胜,刘斌堡乡东铺,北京市,北京市,延庆区,116.3028389,40.54690097
天池,风景名胜,风景名胜,风景名胜,天池峡谷森林公园,北京市,北京市,怀柔区,116.6789507,40.54120462
莲藕双生,风景名胜,风景名胜,风景名胜,,北京市,北京市,怀柔区,116.6789437,40.54180531
绝壁岩古松,风景名胜,风景名胜,风景名胜,,北京市,北京市,怀柔区,116.6769539,40.54510828
百丈岩,风景名胜,风景名胜,风景名胜,莲藕双生(幽谷神潭自然风景区西北),北京市,北京市,怀柔区,116.6789675,40.54221405
云蒙山国家森林公园-杜鹃花,风景名胜,风景名胜,风景名胜,后山铺村云蒙山国家森林公园内,北京市,北京市,密云区,116.6878093,40.54934528
霞溪春晓,风景名胜,风景名胜,风景名胜,幽谷神潭自然风景区西北80米,北京市,北京市,怀柔区,116.6809449,40.54340277
炭窑,风景名胜,风景名胜,风景名胜,,北京市,北京市,怀柔区,116.6809458,40.5439005
天泉,风景名胜,风景名胜,风景名胜,琉璃庙镇,北京市,北京市,怀柔区,116.6839325,40.54389607
霞松岭,风景名胜,风景名胜,风景名胜,霞溪春晓北140米,北京市,北京市,怀柔区,116.6809397,40.54460114
闻涛谷,风景名胜,风景名胜,风景名胜,,北京市,北京市,怀柔区,116.6809439,40.54290004
石人坊,风景名胜,风景名胜,风景名胜,幽谷神潭自然风景区,北京市,北京市,怀柔区,116.6869205,40.54299224
八戒背媳妇,风景名胜,风景名胜,风景名胜,怀北镇幽谷神潭自然风景区八戒背媳妇,北京市,北京市,怀柔区,116.685944,40.54419932
红叶区,风景名胜,公园广场,植物园,幽谷神潭自然风景区,北京市,北京市,怀柔区,116.6869377,40.54160395
天池峡谷森林公园照相处,风景名胜,公园广场,公园内部设施,,北京市,北京市,怀柔区,116.6808634,40.54125905
观音洞,风景名胜,风景名胜,风景名胜,石城乡南石城村桃源仙谷自然风景区内,北京市,北京市,密云区,116.7787235,40.54319484
龙泉瀑,风景名胜,风景名胜,风景名胜,石城乡南石城村桃源仙谷自然风景区内,北京市,北京市,密云区,116.7786604,40.54306283
桃源仙谷自然风景区-佛门池,风景名胜,风景名胜,风景名胜,石城乡南石城村桃源仙谷自然风景区内,北京市,北京市,密云区,116.7874619,40.54544114
桃源仙谷自然风景区-敬佛潭,风景名胜,风景名胜,风景名胜,石城乡南石城村桃源仙谷自然风景区内,北京市,北京市,密云区,116.7883832,40.54514862
观音大佛,风景名胜,风景名胜,风景名胜,石城乡南石城村桃源仙谷自然风景区内,北京市,北京市,密云区,116.7794092,40.54355147
八仙过海,风景名胜,风景名胜,风景名胜,石城乡南石城村桃源仙谷自然风景区内,北京市,北京市,密云区,116.7884994,40.54488493
饮狍潭,风景名胜,风景名胜,风景名胜,石城乡南石城村桃源仙谷自然风景区内,北京市,北京市,密云区,116.7810552,40.54265799
秋涧潭,风景名胜,风景名胜,风景名胜,石城乡南石城村桃源仙谷自然风景区内,北京市,北京市,密云区,116.7838964,40.5443158
桃源仙谷自然风景区-天画,风景名胜,风景名胜,风景名胜,石城乡南石城村桃源仙谷自然风景区内,北京市,北京市,密云区,116.788276,40.54542831
桃源仙谷自然风景区-群仙潭,风景名胜,风景名胜,风景名胜,石城乡南石城村桃源仙谷自然风景区内,北京市,北京市,密云区,116.7881239,40.5450423
圣水瀑,风景名胜,风景名胜,风景名胜,石城乡南石城村桃源仙谷自然风景区内,北京市,北京市,密云区,116.7879086,40.54494904
悬空瀑,风景名胜,风景名胜相关,旅游景点,石城乡南石城村桃源仙谷自然风景区内,北京市,北京市,密云区,116.7807788,40.54267963
金钟峰,风景名胜,风景名胜,风景名胜,石城乡南石城村桃源仙谷自然风景区内,北京市,北京市,密云区,116.7848344,40.54525856
桃源仙谷自然风景区-桃花谷,风景名胜,风景名胜,风景名胜,石城乡南石城村桃源仙谷自然风景区内,北京市,北京市,密云区,116.7876322,40.54527947
九龙潭,风景名胜,风景名胜,风景名胜,石城乡南石城村桃源仙谷自然风景区内,北京市,北京市,密云区,116.7973052,40.54178224
风雨雪登山基地,风景名胜,风景名胜,风景名胜,石城乡南石城村桃源仙谷自然风景区内,北京市,北京市,密云区,116.7959259,40.54262355
桃源仙谷自然风景区-将军峰,风景名胜,风景名胜,风景名胜,石城乡南石城村桃源仙谷自然风景区内,北京市,北京市,密云区,116.792927,40.54405803
慈母洞,风景名胜,风景名胜,风景名胜,石城乡南石城村桃源仙谷自然风景区内,北京市,北京市,密云区,116.7935812,40.54256285
桃源仙谷自然风景区-五指峰,风景名胜,风景名胜,风景名胜,石城乡南石城村桃源仙谷自然风景区内,北京市,北京市,密云区,116.792927,40.54405803
桃源仙谷自然风景区-天书洞,风景名胜,风景名胜,风景名胜,石城乡南石城村桃源仙谷自然风景区内,北京市,北京市,密云区,116.7980574,40.54195838
桃源仙谷自然风景区-骆驼峰,风景名胜,风景名胜,风景名胜,石城乡南石城村桃源仙谷自然风景区内,北京市,北京市,密云区,116.79358,40.54382318
桃源仙谷自然风景区-大帽石,风景名胜,风景名胜,风景名胜,石城乡南石城村桃源仙谷自然风景区内,北京市,北京市,密云区,116.7914247,40.54411269
桃源仙谷自然风景区,风景名胜,风景名胜,国家级景点,石城镇南石城村,北京市,北京市,密云区,116.7993248,40.54813619
乘凉潭,风景名胜,风景名胜,风景名胜,石城乡南石城村桃源仙谷自然风景区内,北京市,北京市,密云区,116.8031922,40.54189012
桃源仙谷桥,风景名胜,风景名胜,风景名胜,石城乡南石城村桃源仙谷自然风景区内,北京市,北京市,密云区,116.8076611,40.5428435
桃源瀑,风景名胜,风景名胜,风景名胜,石城乡南石城村桃源仙谷自然风景区,北京市,北京市,密云区,116.8046445,40.54380064
群峰奇特,风景名胜,风景名胜相关,旅游景点,石城镇石城乡南石城村桃源仙谷自然风景区,北京市,北京市,密云区,116.8061354,40.54197324
问仙楼,风景名胜,风景名胜相关,旅游景点,石城镇石城乡南石城村桃源仙谷自然风景区,北京市,北京市,密云区,116.8056514,40.54292088
桃源湖,风景名胜,风景名胜相关,旅游景点,石城镇石城乡南石城村桃源仙谷自然风景区,北京市,北京市,密云区,116.8073074,40.54310373
天池九龙潭,风景名胜,风景名胜,风景名胜,近郊密云县石城乡张家坟村西,北京市,北京市,密云区,116.8182319,40.55081363
谷古峪,风景名胜,风景名胜相关,旅游景点,,北京市,北京市,密云区,117.1787743,40.54985475
玉渡山风景区-青寺顶,风景名胜,风景名胜,风景名胜,,北京市,北京市,延庆区,115.9070793,40.53124647
平北抗日战争纪念馆,风景名胜,风景名胜,纪念馆,龙庆峡景区入口处,北京市,北京市,延庆区,116.007249,40.53543328
平北抗日烈士纪念园,风景名胜,风景名胜,纪念馆,龙庆峡景区入口处,北京市,北京市,延庆区,116.007249,40.53543228
龙庆峡森林公园,风景名胜,风景名胜,风景名胜,双龙南路与旧小路交叉口南50米,北京市,北京市,延庆区,116.0118717,40.53324579
古城民俗村,风景名胜,风景名胜相关,旅游景点,旧县镇古城村,北京市,北京市,延庆区,116.018695,40.53816072
妫川牡丹园,风景名胜,风景名胜相关,旅游景点,旧县镇常里营村东100米附近,北京市,北京市,延庆区,116.0576573,40.53977293
妫州牡丹园,风景名胜,风景名胜相关,旅游景点,旧县镇常里营牡丹生态观光园,北京市,北京市,延庆区,116.0576573,40.53977293
乐陶园,风景名胜,风景名胜,风景名胜,旧大路附近,北京市,北京市,延庆区,116.0878751,40.5363477
龙湾河湿地法治公园,风景名胜,公园广场,公园,大团路,北京市,北京市,延庆区,116.079083,40.53130168
九龙山,风景名胜,风景名胜,风景名胜,,北京市,北京市,延庆区,116.1047511,40.53443273
怀柔圆金梦国家矿山公园,风景名胜,公园广场,公园,琉璃庙乡杨树底下村,北京市,北京市,怀柔区,116.5146892,40.54012671
金驼峰风景区,风景名胜,风景名胜,风景名胜,琉璃庙金驼峰度假村,北京市,北京市,怀柔区,116.5191919,40.53288497
幽谷神潭-情深潭,风景名胜,风景名胜,风景名胜,京加路东200米,北京市,北京市,怀柔区,116.6689765,40.53122977
迎客松,风景名胜,风景名胜,风景名胜,020县道东150米,北京市,北京市,怀柔区,116.6689756,40.53772838
幽谷神潭-祈雨神庙,风景名胜,风景名胜,寺庙道观,,北京市,北京市,怀柔区,116.6759562,40.53362021
天池峡谷森林公园(暂停营业),风景名胜,风景名胜,风景名胜,黄土梁48号,北京市,北京市,怀柔区,116.6699227,40.53928174
幽谷神潭-天梯,风景名胜,风景名胜,风景名胜,,北京市,北京市,怀柔区,116.6739589,40.5332182
四龟探母,风景名胜,风景名胜,风景名胜,怀北镇幽谷神潭自然风景区四龟探母,北京市,北京市,怀柔区,116.6789521,40.53830915
幽谷神潭-洞天胜境,风景名胜,风景名胜,风景名胜,,北京市,北京市,怀柔区,116.6719877,40.53213152
幽谷神潭-幽溪涧,风景名胜,风景名胜,风景名胜,怀北镇椴树岭村黄土梁1号幽谷深潭景区,北京市,北京市,怀柔区,116.6759609,40.53571711
幽谷神潭-炼丹谷,风景名胜,风景名胜,风景名胜,,北京市,北京市,怀柔区,116.675954,40.53501849
红果园,风景名胜,风景名胜,风景名胜,怀北镇幽谷神潭自然风景区四龟探母,北京市,北京市,怀柔区,116.677971,40.53681876
幽谷神潭-铁索桥,风景名胜,风景名胜,风景名胜,,北京市,北京市,怀柔区,116.674958,40.53391494
幽谷神潭-纳凉台,风景名胜,风景名胜,风景名胜,,北京市,北京市,怀柔区,116.673969,40.5324216
速降,风景名胜,风景名胜,风景名胜,怀北镇大水峪北500米,北京市,北京市,怀柔区,116.6749574,40.53791785
休闲洞,风景名胜,风景名胜,风景名胜,,北京市,北京市,怀柔区,116.6729701,40.53802157
幽谷神潭-铁索攀岩,风景名胜,风景名胜,风景名胜,,北京市,北京市,怀柔区,116.675954,40.5346117
飞来石,风景名胜,风景名胜,风景名胜,,北京市,北京市,怀柔区,116.6729779,40.53933187
栗园,风景名胜,风景名胜,风景名胜,,北京市,北京市,怀柔区,116.678952,40.53890883
幽谷神潭-子母龟,风景名胜,风景名胜,风景名胜,怀北镇京加路幽谷神潭自然风景区,北京市,北京市,怀柔区,116.6699746,40.53123185
幽谷神潭-飞瀑,风景名胜,风景名胜,风景名胜,,北京市,北京市,怀柔区,116.6739799,40.53282936
幽谷深潭景区祈雨神庙,风景名胜,公园广场,公园内部设施,铁索桥附近幽谷神潭-祈雨神庙附近,北京市,北京市,怀柔区,116.6755004,40.53365905
幽谷深潭景区洞天胜境,风景名胜,公园广场,公园内部设施,,北京市,北京市,怀柔区,116.6720365,40.53211644
幽谷深潭景区子母龟,风景名胜,公园广场,公园内部设施,,北京市,北京市,怀柔区,116.6703884,40.53118808
福从天降,风景名胜,风景名胜,风景名胜,,北京市,北京市,怀柔区,116.6809592,40.54061022
神驼峰,风景名胜,风景名胜,风景名胜,怀北镇幽谷神潭自然风景区神驼峰,北京市,北京市,怀柔区,116.6819355,40.54020465
情人谷,风景名胜,风景名胜,风景名胜,怀北镇幽谷神潭自然风景区情人谷,北京市,北京市,怀柔区,116.6839471,40.53910058
戏水情台,风景名胜,风景名胜,风景名胜,怀北镇幽谷神潭自然风景区戏水情台,北京市,北京市,怀柔区,116.6829358,40.53970409
观峰台,风景名胜,风景名胜,风景名胜,石城乡南石城村桃源仙谷自然风景区内,北京市,北京市,密云区,116.7682739,40.53997273
云蒙山长城遗址公园,风景名胜,公园广场,公园,水库西线公路127号,北京市,北京市,密云区,116.8087435,40.53184322
桃源仙谷度假山庄,风景名胜,风景名胜,国家级景点|体育休闲服务,石城镇桃源仙谷南石城94号,北京市,北京市,密云区,116.8115617,40.53957829
太师屯公园,风景名胜,公园广场,公园,永安街南150米,北京市,北京市,密云区,117.1115671,40.53663002
松山国家级自然保护区大西沟管理保护站,风景名胜,风景名胜,风景名胜,012县道南50米,北京市,北京市,延庆区,115.7658745,40.52279201
玉渡山风景区,风景名胜,风景名胜,国家级景点,张山营镇玉皇庙村北,北京市,北京市,延庆区,115.8970453,40.52810601
玉渡山风景区-青寺顶,风景名胜,风景名胜,风景名胜,,北京市,北京市,延庆区,115.9070793,40.53124647
玉渡山风景区-延庆野人谷,风景名胜,风景名胜相关,旅游景点,玉渡山风景区内,北京市,北京市,延庆区,115.9176857,40.52836395
玉渡山风景区-应梦寺,风景名胜,风景名胜,寺庙道观,,北京市,北京市,延庆区,115.9318756,40.53031045
玉渡山风景区-应梦寺山,风景名胜,风景名胜,风景名胜,,北京市,北京市,延庆区,115.9328141,40.53026194
石京龙滑雪场,体育休闲服务,运动场馆,滑雪场|风景名胜,张山营镇旧小路,北京市,北京市,延庆区,115.9636688,40.52393412
龙王庙,风景名胜,风景名胜,寺庙道观,旧小路黄柏寺禅院附近,北京市,北京市,延庆区,115.9831958,40.52981612
黄柏寺禅院,风景名胜,风景名胜,寺庙道观,旧小路,北京市,北京市,延庆区,115.9831958,40.52981812
韩郝庄龙母庙,风景名胜,风景名胜,寺庙道观,苏韩路与001县道交叉口西50米,北京市,北京市,延庆区,116.0086092,40.52917549
玉皇阁,风景名胜,风景名胜相关,旅游景点,巷后街与拱辰街交叉口南150米,北京市,北京市,延庆区,116.1599277,40.52363332
三角地公园,风景名胜,公园广场,公园,S212(昌赤路),北京市,北京市,延庆区,116.161665,40.52850606
永宁古城,风景名胜,风景名胜相关,旅游景点,昌赤路,北京市,北京市,延庆区,116.1603422,40.5214262
永宁天主堂,风景名胜,风景名胜,教堂,永宁镇阜民街黄甲巷7号(延流路昌赤路),北京市,北京市,延庆区,116.1608365,40.52194486
永宁古城墙遗址,风景名胜,风景名胜,风景名胜,永宁镇昌赤路,北京市,北京市,延庆区,116.1630169,40.52819874
西沟里自然风景区,风景名胜,风景名胜,风景名胜,四海镇西沟流域上游,北京市,北京市,延庆区,116.3557745,40.52157724
花卉苗木观赏园,风景名胜,公园广场,植物园,四海镇中国石化加油站西南四海镇政府路口西,北京市,北京市,延庆区,116.4031747,40.5288052
长城,风景名胜,风景名胜,风景名胜,,北京市,北京市,延庆区,116.4440032,40.5295998
幽谷神潭-鲶鱼塘,风景名胜,风景名胜,风景名胜,京加路东200米,北京市,北京市,怀柔区,116.6689825,40.53083096
百泉谷,风景名胜,风景名胜,风景名胜,京加路西50米,北京市,北京市,怀柔区,116.6656115,40.5284117
幽谷深潭景区客房,风景名胜,公园广场,公园内部设施,,北京市,北京市,怀柔区,116.6687347,40.52696842
幽谷深潭景区洗浴中心,风景名胜,公园广场,公园内部设施,,北京市,北京市,怀柔区,116.668346,40.52561586
幽谷神潭,风景名胜,风景名胜,省级景点,怀北镇椴树岭村北黄土梁1号,北京市,北京市,怀柔区,116.6721993,40.53037303
黄峪口风景区,风景名胜,风景名胜,风景名胜,,北京市,北京市,密云区,116.9886659,40.52329135
玉渡山风景区-上板泉水库,风景名胜,风景名胜相关,旅游景点,,北京市,北京市,延庆区,115.866599,40.51685476
玉渡山风景区-观景台,风景名胜,风景名胜,观景点,玉海路南50米,北京市,北京市,延庆区,115.8883917,40.51828794
玉皇庙山戎墓遗址,风景名胜,风景名胜,风景名胜,玉海路北50米,北京市,北京市,延庆区,115.8936604,40.51363627
玉渡山风景区-神奇野山峡(暂停营业),风景名胜,风景名胜,风景名胜,张山营镇丁家堡村北200米,北京市,北京市,延庆区,115.9212697,40.51878396
玉渡山风景区-野山峡,风景名胜,风景名胜,风景名胜,靳家堡,北京市,北京市,延庆区,115.9213406,40.51878488
上磨民俗村,风景名胜,风景名胜相关,旅游景点,永宁镇上磨村,北京市,北京市,延庆区,116.1008231,40.51114174
永宁禅寺,风景名胜,风景名胜,寺庙道观,南关村党支部对面,北京市,北京市,延庆区,116.1616485,40.5169039
东北口关,风景名胜,风景名胜,风景名胜,延琉路北50米,北京市,北京市,怀柔区,116.4648118,40.51747404
东北口长城旧址,风景名胜,风景名胜,风景名胜,延琉路北50米,北京市,北京市,怀柔区,116.4645709,40.51741943
云蒙峡,风景名胜,风景名胜,省级景点,石城乡水库西线公路175号(密云水库西侧),北京市,北京市,密云区,116.7958115,40.52079865
塔寺会,风景名胜,风景名胜,风景名胜,002县道西50米,北京市,北京市,密云区,117.0642763,40.51432931
北京松山森林旅游区(装修中),风景名胜,风景名胜,省级景点,张山营镇,北京市,北京市,延庆区,115.8282075,40.5104185
金牛湖,风景名胜,风景名胜,风景名胜,西龙湾村中街十一巷11号,北京市,北京市,延庆区,116.0884218,40.50159004
泽润寺,风景名胜,风景名胜,风景名胜,孔化营路西100米,北京市,北京市,延庆区,116.1445173,40.50687103
紫云山自然风景区,风景名胜,风景名胜,风景名胜,怀北镇椴树岭村,北京市,北京市,怀柔区,116.6668242,40.5110341
北京市五座楼森林公园,风景名胜,风景名胜,风景名胜,密关路,北京市,北京市,密云区,116.7991333,40.50991452
观库台,风景名胜,风景名胜相关,旅游景点,密关路附近,北京市,北京市,密云区,116.8165239,40.50156859
北京松山国家级自然保护区,风景名胜,风景名胜,风景名胜,张山营,北京市,北京市,延庆区,115.812391,40.49660274
北京松山森林旅游区-回声崖,风景名胜,风景名胜,风景名胜,松阎路与012县道交叉口东南100米,北京市,北京市,延庆区,115.8119597,40.49720267
北京松山森林旅游区-仙人床,风景名胜,风景名胜,风景名胜,松阎路与012县道交叉口东南100米,北京市,北京市,延庆区,115.8116548,40.49700121
北京松山森林旅游区-天龟石,风景名胜,风景名胜,风景名胜,松阎路与012县道交叉口北200米,北京市,北京市,延庆区,115.812802,40.49766
北京松山森林旅游区-雄狮饮水,风景名胜,风景名胜,风景名胜,松阎路与012县道交叉口东南150米,北京市,北京市,延庆区,115.811698,40.49690133
北京松山森林旅游区-云松观湖,风景名胜,风景名胜,风景名胜,松阎路东150米,北京市,北京市,延庆区,115.812806,40.49825772
北京松山森林旅游区-松月印潭,风景名胜,风景名胜,风景名胜,松阎路与012县道交叉口北200米,北京市,北京市,延庆区,115.812799,40.4978529
北京松山森林旅游区-金蟾望月,风景名胜,风景名胜,风景名胜,松阎路与012县道交叉口东南150米,北京市,北京市,延庆区,115.8116799,40.4969073
北京松山森林旅游区-百瀑泉,风景名胜,风景名胜,风景名胜,松阎路东150米,北京市,北京市,延庆区,115.812814,40.49816878
北京松山森林旅游区-鸳鸯岩,风景名胜,风景名胜,风景名胜,张山营镇012县道附近,北京市,北京市,延庆区,115.812796,40.49755104
北京松山森林旅游区-顶水鲨,风景名胜,风景名胜,风景名胜,松阎路与012县道交叉口北150米,北京市,北京市,延庆区,115.8128141,40.49746811
北京松山森林旅游区-观景亭,风景名胜,风景名胜,风景名胜,松阎路东150米,北京市,北京市,延庆区,115.8128211,40.49796589
北京松山森林旅游区-登塔远眺,风景名胜,风景名胜,风景名胜,松阎路与012县道交叉口西北100米,北京市,北京市,延庆区,115.8118173,40.49666466
北京松山森林旅游区-原始森林(装修中),风景名胜,风景名胜,风景名胜,松阎路东150米,北京市,北京市,延庆区,115.812804,40.49835467
北京松山森林旅游区-雷劈石,风景名胜,风景名胜,风景名胜,松阎路与012县道交叉口东南100米,北京市,北京市,延庆区,115.8116548,40.4970042
北京松山森林旅游区-松海云涛,风景名胜,风景名胜,风景名胜,松阎路与012县道交叉口北150米,北京市,北京市,延庆区,115.8128171,40.49732318
听乐潭(松山自然保护区),风景名胜,风景名胜,风景名胜,张山营镇,北京市,北京市,延庆区,115.8125434,40.49709379
北京松山森林旅游区-三叠水,风景名胜,风景名胜,风景名胜,张山营镇北京松山国家级自然保护区,北京市,北京市,延庆区,115.8128121,40.49722522
延庆小河屯村公园,风景名胜,公园广场,公园,小松路西侧,北京市,北京市,延庆区,115.8729135,40.49326957
明双营古城,风景名胜,风景名胜,风景名胜,河广路与西唐路交叉口西北150米,北京市,北京市,延庆区,115.9991614,40.49186422
下花园龙王庙,风景名胜,风景名胜,寺庙道观,下苏路西150米,北京市,北京市,延庆区,116.0143127,40.49511762
九眼楼长城景区,风景名胜,风景名胜,风景名胜,四海镇郭石路,北京市,北京市,延庆区,116.5183181,40.4992973
濂泉响谷自然风景区(暂停营业),风景名胜,风景名胜,风景名胜,八道河乡八道河68号,北京市,北京市,怀柔区,116.569165,40.4942743
北京云蒙三峪自然风景区-一眼楼,风景名胜,风景名胜,风景名胜,,北京市,北京市,密云区,116.7208547,40.49926806
三叠瀑布,风景名胜,风景名胜,风景名胜,溪翁庄镇云龙涧自然风景区西450米,北京市,北京市,密云区,116.7678388,40.4914655
烟墩,风景名胜,风景名胜,风景名胜,溪翁庄镇五座楼山,北京市,北京市,密云区,116.769834,40.50066691
北一楼,风景名胜,风景名胜,风景名胜,溪翁庄镇云龙涧自然风景区北500米,北京市,北京市,密云区,116.7798557,40.49719536
白龙潭皇家森林公园,风景名胜,风景名胜,风景名胜,京密路太师屯镇龙潭沟,北京市,北京市,密云区,117.0644382,40.49738935
密云白龙潭自然风景区,风景名胜,风景名胜,省级景点,太师屯镇龙潭沟,北京市,北京市,密云区,117.0680374,40.4921277
小河屯南公园,风景名胜,公园广场,公园,,北京市,北京市,延庆区,115.8850396,40.48445889
下阪泉烽火台,风景名胜,风景名胜相关,旅游景点,,北京市,北京市,延庆区,115.9044799,40.48842963
怡孟园,风景名胜,公园广场,公园,延庆镇,北京市,北京市,延庆区,115.9640396,40.48546873
江水泉公园,风景名胜,公园广场,公园,广兴街人民检察院北,北京市,北京市,延庆区,115.9714082,40.48168006
魏家营佛爷庙,风景名胜,风景名胜相关,旅游景点,延琉路南100米,北京市,北京市,延庆区,116.0587613,40.48225656
观景台,风景名胜,风景名胜,观景点,安四路附近,北京市,北京市,怀柔区,116.3641281,40.48143213
九眼楼长城景区-火焰山风景区,风景名胜,风景名胜,风景名胜,四海镇郭石路,北京市,北京市,延庆区,116.4864927,40.48956193
九眼楼,风景名胜,风景名胜,风景名胜,四海镇东南9公里的火焰山主峰(海拔1141米),北京市,北京市,延庆区,116.4863311,40.48953046
白水湖,风景名胜,风景名胜相关,旅游景点,,北京市,北京市,怀柔区,116.5513573,40.48563871
龟峰谷,风景名胜,风景名胜,风景名胜,雁栖镇范崎路濂泉响谷景区旁,北京市,北京市,怀柔区,116.5760958,40.49011012
龟峰谷山林公园,风景名胜,公园广场,公园,雁栖镇不夜谷,北京市,北京市,怀柔区,116.5797383,40.48620516
百泉山风景区,风景名胜,风景名胜,风景名胜,怀北镇峪道河村北,北京市,北京市,怀柔区,116.6324477,40.48174828
石门山景区(暂停营业),风景名胜,风景名胜,省级景点,怀北镇椴树岭村峪道河自然村1号,北京市,北京市,怀柔区,116.6569848,40.48415374
椴树岭民俗旅游2区,风景名胜,风景名胜,风景名胜,京加路西50米,北京市,北京市,怀柔区,116.6568977,40.48671373
北京云蒙三峪自然风景区,风景名胜,风景名胜,风景名胜,西田各庄镇牛盆峪村村北100米,北京市,北京市,密云区,116.7197667,40.48906683
北京云蒙三峪自然风景区-残存城墙,风景名胜,风景名胜,风景名胜,,北京市,北京市,密云区,116.7508464,40.48517603
兰圃,风景名胜,公园广场,公园,白道峪村,北京市,北京市,密云区,116.7603416,40.48184552
云龙涧自然风景区-大云峰禅寺,风景名胜,风景名胜,寺庙道观,溪翁庄黑山寺村,北京市,北京市,密云区,116.7733457,40.48545148
云龙涧自然风景区,风景名胜,风景名胜,省级景点,溪翁庄镇北白岩村西北,北京市,北京市,密云区,116.7797138,40.48748774
辉煌国际会议度假区,体育休闲服务,度假疗养场所,度假村|风景名胜,营镇古龙路66号(辉煌国际度假区),北京市,北京市,延庆区,115.8086662,40.47423224
兰角沟原始风景区,风景名胜,风景名胜,风景名胜,张山营镇松山国家自然保护区旁,北京市,北京市,延庆区,115.8382948,40.4756711
关帝庙,风景名胜,风景名胜,寺庙道观,京银路,北京市,北京市,延庆区,115.8545189,40.4806533
龙王庙,风景名胜,风景名胜,寺庙道观,京银路,北京市,北京市,延庆区,115.8523266,40.48039115
八达岭古长城,风景名胜,风景名胜,风景名胜,张山营镇东门营村北,北京市,北京市,延庆区,115.8562692,40.47992015
团结公园,风景名胜,公园广场,公园,小河屯东,北京市,北京市,延庆区,115.9375442,40.47946528
庙上红色旅游景区,风景名胜,风景名胜,风景名胜,九渡河镇庙上村村委会北10米,北京市,北京市,怀柔区,116.3153329,40.47238231
凤凰驼自然风景区,风景名胜,风景名胜,风景名胜,安四路,北京市,北京市,怀柔区,116.3148041,40.47251526
树伴宠墓,风景名胜,风景名胜相关,旅游景点,,北京市,北京市,怀柔区,116.3435115,40.47672049
延寿山,风景名胜,风景名胜,风景名胜,安四路西50米,北京市,北京市,怀柔区,116.3721267,40.47926624
西栅子生态观光园,风景名胜,风景名胜,风景名胜,南沟,北京市,北京市,怀柔区,116.5392578,40.47205696
云蒙山抗日斗争纪念碑,风景名胜,风景名胜,纪念馆,西田各庄镇,北京市,北京市,密云区,116.7284957,40.47843213
北京云蒙三峪自然风景区-通天桥,风景名胜,风景名胜,风景名胜,708乡道,北京市,北京市,密云区,116.7332414,40.47119294
北京云蒙三峪自然风景区-白道峪,风景名胜,风景名胜,风景名胜,,北京市,北京市,密云区,116.7558442,40.47818189
碧水公园,风景名胜,公园广场,公园,溪翁庄镇水库宾馆对面,北京市,北京市,密云区,116.8339876,40.47363894
人民公园(环南支线),风景名胜,公园广场,公园,溪翁庄镇313省道,北京市,北京市,密云区,116.8486576,40.47323334
青洞山自然风景区,风景名胜,风景名胜,风景名胜,G101(京密路)西北侧,北京市,北京市,密云区,117.0354819,40.48040293
古崖居遗址,风景名胜,风景名胜,省级景点,张山营镇东门营村北,北京市,北京市,延庆区,115.7691896,40.46171438
世界葡萄博览园,风景名胜,风景名胜,风景名胜,康河路,北京市,北京市,延庆区,115.8671336,40.4645697
三里河湿地公园,风景名胜,公园广场,公园,城走妫水街至庆园街走西环城路,北京市,北京市,延庆区,115.9604534,40.46804004
绿韵广场,风景名胜,公园广场,城市广场,延庆镇高塔街58号,北京市,北京市,延庆区,115.9807246,40.46453949
香水苑公园,风景名胜,公园广场,公园,高塔街50,北京市,北京市,延庆区,115.9880634,40.46542999
芙蓉水湖,风景名胜,风景名胜相关,旅游景点,东社区东,北京市,北京市,延庆区,115.9867418,40.46683939
春芳园,风景名胜,公园广场,公园,滨河北路东50米,北京市,北京市,延庆区,116.0439668,40.46461773
牡丹园,风景名胜,风景名胜相关,旅游景点,大榆树镇阜高营村大榆树镇生态旅游咨询站东400米,北京市,北京市,延庆区,116.0592669,40.46400493
驴鞍岭长城养生大峡谷,风景名胜,风景名胜,风景名胜,洞庄路北50米,北京市,北京市,怀柔区,116.4552697,40.46148697
响水湖长城自然风景区,风景名胜,风景名胜,省级景点,渤海镇大榛峪村东200米,北京市,北京市,怀柔区,116.4826441,40.46552439
箭扣梁,风景名胜,风景名胜,风景名胜,西北八道河乡境内,北京市,北京市,怀柔区,116.5109171,40.46453134
箭扣,风景名胜,风景名胜相关,旅游景点,雁栖镇旧水坑,北京市,北京市,怀柔区,116.5111269,40.46459691
镇北楼,风景名胜,风景名胜相关,旅游景点,雁栖镇响水湖长城自然风景区东400米,北京市,北京市,怀柔区,116.5314933,40.46564684
云湖森林公园,风景名胜,风景名胜,风景名胜,溪翁庄,北京市,北京市,密云区,116.8923531,40.46485855
赏湖轩,风景名胜,风景名胜,风景名胜,313省道西100米,北京市,北京市,密云区,116.8943622,40.46423601
观云楼,风景名胜,风景名胜,风景名胜,313省道,北京市,北京市,密云区,116.8936146,40.46422696
叠彩湖,风景名胜,风景名胜,风景名胜,313省道西50米,北京市,北京市,密云区,116.8950369,40.46403512
北京万爱情侣酒店(密云水库花园店),住宿服务,宾馆酒店,宾馆酒店|风景名胜,密云水库潮河大坝(穆家峪镇北碱厂村北),北京市,北京市,密云区,116.9948628,40.46646828
承兴密联合县政府旧址,风景名胜,风景名胜,纪念馆,北庄镇大岭村,北京市,北京市,密云区,117.120175,40.47041623
老爷庙,风景名胜,风景名胜相关,旅游景点,,北京市,北京市,密云区,117.2256474,40.46733806
世界葡萄博览园-圣溪湖风景区,风景名胜,风景名胜,风景名胜,八亩地村村南100米,北京市,北京市,延庆区,115.869363,40.45560991
水上公园,风景名胜,公园广场,公园,双卉新华园艺公司西幽径园附近,北京市,北京市,延庆区,115.8858036,40.45170155
妫水公园,风景名胜,公园广场,公园,延庆镇东外小区,北京市,北京市,延庆区,115.9552506,40.45468992
夏都公园,风景名胜,公园广场,公园,近郊延庆县湖北西路2号,北京市,北京市,延庆区,115.9682848,40.45238265
灵照寺(暂停营业),风景名胜,风景名胜,寺庙道观,湖北西路7号,北京市,北京市,延庆区,115.9666326,40.45482719
三清观街,风景名胜,风景名胜,风景名胜,草场街与风水街交叉口西北100米,北京市,北京市,延庆区,115.9617058,40.45949546
妫川广场,风景名胜,公园广场,城市广场,延庆镇妫水北街,北京市,北京市,延庆区,115.9707175,40.45711183
中国・延庆世界地质公园,风景名胜,公园广场,公园,延庆镇妫水北街72号,北京市,北京市,延庆区,115.9741678,40.45379735
夏都公园-妫海远航,风景名胜,风景名胜相关,旅游景点,延庆夏都公园,北京市,北京市,延庆区,115.9711684,40.45504042
东湖公园,风景名胜,公园广场,公园,湖南东路16号,北京市,北京市,延庆区,115.9850381,40.45512057
延庆县体育公园,风景名胜,公园广场,公园,延庆镇湖北东路,北京市,北京市,延庆区,115.9876159,40.45766769
延庆区体育公园,风景名胜,公园广场,公园,延庆镇湖北东路,北京市,北京市,延庆区,115.9876189,40.45767068
延庆县北京延庆湖,风景名胜,风景名胜相关,旅游景点,湖南东路10号,北京市,北京市,延庆区,115.9885433,40.45322874
水库公园,风景名胜,公园广场,公园广场,湖南东路18号,北京市,北京市,延庆区,115.9793509,40.4515651
莲花池土地庙,风景名胜,风景名胜,风景名胜,莲花池小学西北(232省道西),北京市,北京市,延庆区,115.9966989,40.45310192
妫河生态走廊,风景名胜,风景名胜,风景名胜,滨河北路与龙庆路交叉口东50米,北京市,北京市,延庆区,115.9965348,40.45895095
康西坝上草原,风景名胜,风景名胜相关,旅游景点,湖南东路一号,北京市,北京市,延庆区,115.9974977,40.45661601
延庆区北京延庆湖,风景名胜,风景名胜相关,旅游景点,湖南东路8号,北京市,北京市,延庆区,115.9903699,40.4539039
北京基督教会延庆堂,风景名胜,风景名胜,教堂,湖北东路,北京市,北京市,延庆区,115.9951196,40.45953802
大榆树镇百草园,风景名胜,风景名胜相关,旅游景点,阜高营村,北京市,北京市,延庆区,116.0533822,40.45649745
响水湖长城自然风景区-连云岭长城,风景名胜,风景名胜,风景名胜,响水湖长城自然风景区连云岭长城,北京市,北京市,怀柔区,116.448636,40.45244358
大榛峪长城,风景名胜,风景名胜相关,旅游景点,大榛峪,北京市,北京市,怀柔区,116.4460616,40.4535356
响水湖长城自然风景区-旺泉峪长城,风景名胜,风景名胜相关,旅游景点,响水湖,北京市,北京市,怀柔区,116.4479532,40.45109066
响水湖长城自然风景区-索尼碳汇林,风景名胜,风景名胜,风景名胜,,北京市,北京市,怀柔区,116.4572591,40.45275949
响水湖长城自然风景区-磨石口关,风景名胜,风景名胜,风景名胜,洞庄路南50米,北京市,北京市,怀柔区,116.4531423,40.45976468
响水湖长城自然风景区-五行云梯,风景名胜,风景名胜,风景名胜,洞庄路北50米,北京市,北京市,怀柔区,116.4522757,40.46010952
响水湖长城自然风景区-磨石口长城,风景名胜,风景名胜,风景名胜,洞庄路南50米,北京市,北京市,怀柔区,116.4531373,40.45976466
响水湖长城自然风景区-响水湖景区,风景名胜,风景名胜,风景名胜,渤海镇响水湖长城旅游风景区,北京市,北京市,怀柔区,116.4558543,40.45565386
长城,风景名胜,风景名胜,风景名胜,,北京市,北京市,怀柔区,116.4660109,40.45481808
响水湖长城自然风景区-观蓝谷,风景名胜,风景名胜相关,旅游景点,雁栖镇西栅子村,北京市,北京市,怀柔区,116.5173947,40.46079919
神堂峪自然风景区-龙潭惨案纪念碑,风景名胜,风景名胜相关,旅游景点,,北京市,北京市,怀柔区,116.6116544,40.4531623
神堂峪自然风景区-龙潭,风景名胜,风景名胜相关,旅游景点,,北京市,北京市,怀柔区,116.6128815,40.4547276
神堂峪风景区-镇山神龟,风景名胜,风景名胜,风景名胜,雁栖镇百泉山风景区,北京市,北京市,怀柔区,116.6260974,40.45633937
神堂峪风景区-千米沙滩,风景名胜,风景名胜,风景名胜,,北京市,北京市,怀柔区,116.6290969,40.45883923
神堂峪风景区-龙潭惨案纪念碑,风景名胜,风景名胜,风景名胜,,北京市,北京市,怀柔区,116.629092,40.45813654
神堂峪风景区-镰刀床,风景名胜,风景名胜,风景名胜,,北京市,北京市,怀柔区,116.6221054,40.45474904
神堂峪风景区-三帘瀑布,风景名胜,风景名胜,风景名胜,,北京市,北京市,怀柔区,116.6211093,40.45384359
神堂峪风景区-双翠山庄,风景名胜,风景名胜,风景名胜,,北京市,北京市,怀柔区,116.625099,40.4517406
神堂峪风景区-菩萨帽,风景名胜,风景名胜,风景名胜,雁栖镇百泉山风景区,北京市,北京市,怀柔区,116.6260945,40.45594354
神堂峪风景区-青蛇洞,风景名胜,风景名胜,风景名胜,,北京市,北京市,怀柔区,116.6300941,40.4558381
神堂峪风景区-天书石,风景名胜,风景名胜,风景名胜,雁栖镇百泉山风景区神堂峪风景区-圣人诗经附近,北京市,北京市,怀柔区,116.63009,40.45733547
神堂峪风景区-青蛇岭,风景名胜,风景名胜,风景名胜,神堂峪,北京市,北京市,怀柔区,116.6330914,40.4563275
神堂峪风景区-圣人诗经,风景名胜,风景名胜,风景名胜,雁栖镇百泉山风景区,北京市,北京市,怀柔区,116.630085,40.45693265
神堂峪自然风景区神堂峪度假村,风景名胜,公园广场,公园内部设施,,北京市,北京市,怀柔区,116.6316569,40.45439745
北京怀柔青龙峡旅游度假区-玉皇台,风景名胜,风景名胜,风景名胜,大水峪村北500米北京怀柔青龙峡旅游度假区内,北京市,北京市,怀柔区,116.6676563,40.45255815
北京怀柔青龙峡旅游度假区(暂停营业),风景名胜,风景名胜,国家级景点,怀北镇大水峪村北500米,北京市,北京市,怀柔区,116.6726033,40.45823626
青龙峡索道,风景名胜,风景名胜,风景名胜,大水峪村北500米北京怀柔青龙峡旅游度假区内,北京市,北京市,怀柔区,116.6781013,40.45331495
玉龙池,风景名胜,风景名胜,风景名胜,怀北镇的古长城关口大水峪关附近,北京市,北京市,怀柔区,116.6876363,40.45145247
曲径通幽,风景名胜,风景名胜相关,旅游景点,大水峪村北500米北京怀柔青龙峡旅游度假区内,北京市,北京市,怀柔区,116.6806434,40.4512631
青龙出水,风景名胜,风景名胜,风景名胜,大水峪村北500米北京怀柔青龙峡旅游度假区内,北京市,北京市,怀柔区,116.6813005,40.45239042
北京怀柔青龙峡旅游度假区-佛像,风景名胜,风景名胜,风景名胜,大水峪村北500米北京怀柔青龙峡旅游度假区内,北京市,北京市,怀柔区,116.6809841,40.45435517
魔幻森林,风景名胜,风景名胜,风景名胜,大水峪村北500米青龙峡旅游度假区内,北京市,北京市,怀柔区,116.6809405,40.45188529
北京怀柔青龙峡旅游度假区-慕蹊苑,风景名胜,风景名胜,风景名胜,红星路1号,北京市,北京市,怀柔区,116.6811739,40.45197882
北京怀柔青龙峡旅游度假区-苍龙峪,风景名胜,风景名胜,风景名胜,大水峪村北500米北京怀柔青龙峡旅游度假区内,北京市,北京市,怀柔区,116.6871495,40.45218401
翠径登亭,风景名胜,风景名胜,风景名胜,大水峪村北500米北京怀柔青龙峡旅游度假区内,北京市,北京市,怀柔区,116.6802094,40.45325906
青龙峡旅游度假区-水战船,风景名胜,风景名胜,风景名胜,大水峪村北500米北京怀柔青龙峡旅游度假区内,北京市,北京市,怀柔区,116.6878278,40.451765
北京怀柔青龙峡旅游度假区-溢洪瀑,风景名胜,风景名胜,风景名胜,大水峪村北500米北京怀柔青龙峡旅游度假区内,北京市,北京市,怀柔区,116.6796278,40.45512535
北京怀柔青龙峡旅游度假区-关岭门,风景名胜,风景名胜,风景名胜,大水峪村北500米北京怀柔青龙峡旅游度假区内,北京市,北京市,怀柔区,116.6808798,40.45131464
青龙峡旅游度假区-观景亭,风景名胜,风景名胜,风景名胜,大水峪村北500米北京怀柔青龙峡旅游度假区内,北京市,北京市,怀柔区,116.6795123,40.45348526
青龙峡旅游度假区-休闲区,风景名胜,风景名胜,风景名胜,大水峪村北500米北京怀柔青龙峡旅游度假区内,北京市,北京市,怀柔区,116.6814053,40.45176249
青龙峡旅游度假区-手划船区,风景名胜,风景名胜相关,旅游景点,大水峪村北500米北京怀柔青龙峡旅游度假区内,北京市,北京市,怀柔区,116.6808956,40.45258708
绝壁攀云,风景名胜,风景名胜,风景名胜,大水峪村北500米北京怀柔青龙峡旅游度假区内,北京市,北京市,怀柔区,116.6870748,40.45135449
龙湖公园,风景名胜,公园广场,公园,青龙峡旁,北京市,北京市,怀柔区,116.6892909,40.45153057
北京怀柔青龙峡旅游度假区-一石六景,风景名胜,风景名胜相关,旅游景点,怀北镇北京怀柔青龙峡旅游度假区,北京市,北京市,怀柔区,116.689617,40.45173393
北京怀柔青龙峡旅游度假区(出口),风景名胜,风景名胜相关,旅游景点,,北京市,北京市,怀柔区,116.6893029,40.45150656
青龙峡风景区,风景名胜,风景名胜,风景名胜,怀北镇大水峪村北500米青龙峡,北京市,北京市,怀柔区,116.689238,40.45179355
石马峪民俗村,风景名胜,风景名胜相关,旅游景点,溪翁庄镇沙石路石马峪村,北京市,北京市,密云区,116.899457,40.45495267
妫河森林公园-秋枫园,风景名胜,公园广场,公园,环湖南路北100米,北京市,北京市,延庆区,115.8814034,40.44427741
延庆杏花林,风景名胜,风景名胜,风景名胜,,北京市,北京市,延庆区,115.8794485,40.44608845
静心园,风景名胜,公园广场,公园,康庄,北京市,北京市,延庆区,115.8990478,40.44239213
妫河森林公园,风景名胜,公园广场,公园,妫水河,北京市,北京市,延庆区,115.8990429,40.44148649
花博园,风景名胜,公园广场,公园,011县道,北京市,北京市,延庆区,115.9077554,40.44190628
妫河印象,风景名胜,风景名胜相关,旅游景点,,北京市,北京市,延庆区,115.9361848,40.44692779
妫河森林公园-伏象园,风景名胜,公园广场,公园,环湖南路北50米,北京市,北京市,延庆区,115.9439337,40.44368016
百泉公园,风景名胜,公园广场,公园,菜园南街西端,北京市,北京市,延庆区,115.9668603,40.44440689
万家福生态养殖观光园,风景名胜,公园广场,植物园,,北京市,北京市,延庆区,116.061503,40.44768669
柳沟民俗旅游度假区,风景名胜,风景名胜,风景名胜,柳果路与西北路交叉口,北京市,北京市,延庆区,116.0909551,40.44524384
柳沟文化园,风景名胜,风景名胜相关,旅游景点,胡柳路东200米,北京市,北京市,延庆区,116.0900692,40.44979302
鳞龙山自然风景区,风景名胜,风景名胜,风景名胜,九渡河镇安四路,北京市,北京市,怀柔区,116.3243842,40.44797139
天华洞,风景名胜,风景名胜,风景名胜,沙峪,北京市,北京市,怀柔区,116.4115361,40.44881448
北京摩崖石刻自然风景区,风景名胜,风景名胜,风景名胜,渤海镇龙泉庄村,北京市,北京市,怀柔区,116.4763234,40.44326945
箭扣长城箭扣(入口),风景名胜,风景名胜,风景名胜,,北京市,北京市,怀柔区,116.5294189,40.44210564
慕田峪长城-界碑,风景名胜,风景名胜,风景名胜,渤海镇慕田峪长城风景区慕田峪长城国家级旅游景区内,北京市,北京市,怀柔区,116.5545888,40.44621332
慕田峪长城国家级旅游景区-21号敌楼,风景名胜,风景名胜,风景名胜,渤海镇慕田峪长城内,北京市,北京市,怀柔区,116.553815,40.44819823
慕田峪长城国家级旅游景区-15号敌楼,风景名胜,风景名胜,风景名胜,渤海镇慕田峪长城内,北京市,北京市,怀柔区,116.5579946,40.4418034
慕田峪长城国家级旅游景区-17号敌楼,风景名胜,风景名胜,风景名胜,渤海镇慕田峪长城内,北京市,北京市,怀柔区,116.5565708,40.44412031
慕田峪长城国家级旅游景区-19号敌楼,风景名胜,风景名胜,风景名胜,渤海镇慕田峪长城内,北京市,北京市,怀柔区,116.5545888,40.44620032
慕田峪长城国家级旅游景区-18号敌楼,风景名胜,风景名胜,风景名胜,渤海镇慕田峪长城内,北京市,北京市,怀柔区,116.5553844,40.44494211
慕田峪长城国家级旅游景区-16号敌楼,风景名胜,风景名胜,风景名胜,渤海镇慕田峪长城内,北京市,北京市,怀柔区,116.5569435,40.44362608
慕田峪长城国家级旅游景区-20号敌楼,风景名胜,风景名胜,风景名胜,渤海镇慕田峪长城内,北京市,北京市,怀柔区,116.5551958,40.44700797
神堂峪自然风景区-神堂余韵,风景名胜,风景名胜相关,旅游景点,神堂峪道东100米,北京市,北京市,怀柔区,116.6192653,40.44765525
神堂峪自然风景区木屋,风景名胜,风景名胜相关,旅游景点,神堂峪自然风景区下官地村19号,北京市,北京市,怀柔区,116.6149782,40.44845931
九谷口,风景名胜,风景名胜,省级景点,怀北镇河防口村548号(近雁栖湖),北京市,北京市,怀柔区,116.6578474,40.44394454
椴树岭,风景名胜,风景名胜,风景名胜,京加路西50米,北京市,北京市,怀柔区,116.6548161,40.45101735
河防口关,风景名胜,风景名胜,风景名胜,京加路西50米,北京市,北京市,怀柔区,116.6552291,40.44939925
九谷口关,风景名胜,风景名胜,风景名胜,京加路西50米,北京市,北京市,怀柔区,116.6558437,40.44736493
怀北漂流,风景名胜,风景名胜,风景名胜,京加路南100米,北京市,北京市,怀柔区,116.6586812,40.44311929
百泉谷,风景名胜,风景名胜,风景名胜,京加路西50米,北京市,北京市,怀柔区,116.6593392,40.44385574
北京怀柔青龙峡旅游度假区-憩松园,风景名胜,风景名胜,风景名胜,大水峪村北500米北京怀柔青龙峡旅游度假区内,北京市,北京市,怀柔区,116.6806396,40.45019855
北京青龙峡绿洲缘水,风景名胜,风景名胜相关,旅游景点,怀北镇大水峪村(青龙峡),北京市,北京市,怀柔区,116.6982908,40.44716175
青龙湖旅游度假区,体育休闲服务,度假疗养场所,度假村|风景名胜,怀北镇大水峪村青龙湖度假村内,北京市,北京市,怀柔区,116.705707,40.44549478
山西雅丹地貌,风景名胜,风景名胜相关,旅游景点,,北京市,北京市,怀柔区,116.7091544,40.44816523
青龙湖-东观景亭,风景名胜,风景名胜,风景名胜,青龙湖,北京市,北京市,怀柔区,116.7114294,40.44417412
西沙地民俗旅游村,风景名胜,风景名胜相关,旅游景点,密西路,北京市,北京市,密云区,116.7231378,40.44828589
柱金宅,风景名胜,风景名胜相关,旅游景点,穆家峪镇阁老峪村希望小镇75-2,北京市,北京市,密云区,116.920214,40.44170685
密云水库,风景名胜,风景名胜,风景名胜,南碱厂村西南100米,北京市,北京市,密云区,116.9777421,40.45009203
云舍艺术田园,风景名胜,风景名胜相关,旅游景点,穆家峪镇碱厂村村南侧农地,北京市,北京市,密云区,116.9850672,40.44896759
穆家峪镇庄头峪村文化大院,风景名胜,公园广场,城市广场,密古路,北京市,北京市,密云区,117.0054669,40.4467145
妫河森林公园-清风园,风景名胜,公园广场,公园,康庄镇环湖南路太公湖渔村东50米,北京市,北京市,延庆区,115.9008278,40.43808552
大营村烽火台遗址,风景名胜,风景名胜相关,旅游景点,环湖南路东150米,北京市,北京市,延庆区,115.9014829,40.43860215
妫河森林公园-月季园,风景名胜,公园广场,公园,环湖南路北50米,北京市,北京市,延庆区,115.9095349,40.43446521
雅荷园,风景名胜,公园广场,公园,延庆镇,北京市,北京市,延庆区,115.9252362,40.44069337
延庆火车站北广场,风景名胜,公园广场,城市广场,圣百街,北京市,北京市,延庆区,115.9789193,40.43648753
司家营龙王庙,风景名胜,风景名胜,寺庙道观,司连路附近,北京市,北京市,延庆区,115.9884632,40.44070415
郎各庄村文化广场,风景名胜,公园广场,城市广场,,北京市,北京市,延庆区,116.1231709,40.43989248
冰川绿谷,风景名胜,风景名胜相关,旅游景点,大庄科乡,北京市,北京市,延庆区,116.2368304,40.4311441
莲花山森林公园,风景名胜,风景名胜,风景名胜,大庄科乡汉家川村东北的山区内,北京市,北京市,延庆区,116.2765827,40.43723713
铁军纪念馆,风景名胜,风景名胜,纪念馆,兴水路附近,北京市,北京市,怀柔区,116.3852339,40.43189674
九公山长城纪念林,生活服务,丧葬设施,陵园|风景名胜,兴水路与怀黄公路交叉口西北50米,北京市,北京市,怀柔区,116.3879057,40.43185764
九公祭堂,风景名胜,风景名胜,风景名胜,安四路,北京市,北京市,怀柔区,116.3855605,40.43350095
慕田峪长城-牦牛,风景名胜,风景名胜,风景名胜,渤海镇慕田峪长城中华梦石城内,北京市,北京市,怀柔区,116.5589644,40.43269945
慕田峪长城-昆仑遗韵,风景名胜,风景名胜,风景名胜,渤海镇慕田峪长城中华梦石城内,北京市,北京市,怀柔区,116.5588723,40.43253039
慕田峪长城-神仙迎客,风景名胜,风景名胜,风景名胜,渤海镇慕田峪长城中华梦石城内,北京市,北京市,怀柔区,116.5590265,40.43270654
慕田峪长城-戚继光雕塑像,风景名胜,风景名胜,风景名胜,渤海镇慕田峪长城内,北京市,北京市,怀柔区,116.5587671,40.43214739
慕田峪长城-云岭雄阁,风景名胜,风景名胜,风景名胜,渤海镇慕田峪长城内,北京市,北京市,怀柔区,116.5583114,40.43175188
慕田峪长城-石塔凌云,风景名胜,风景名胜,风景名胜,渤海镇慕田峪长城中华梦石城内,北京市,北京市,怀柔区,116.5587561,40.43253822
慕田峪长城-北券门,风景名胜,风景名胜,风景名胜,渤海镇慕田峪长城内,北京市,北京市,怀柔区,116.5588542,40.44103497
慕田峪长城-八戒除妖,风景名胜,风景名胜,风景名胜,渤海镇慕田峪长城内,北京市,北京市,怀柔区,116.5588161,40.43261727
慕田峪长城-大鹏展翅,风景名胜,风景名胜,风景名胜,渤海镇慕田峪长城内,北京市,北京市,怀柔区,116.5590846,40.43269263
慕田峪长城-梁祝峰,风景名胜,风景名胜,风景名胜,渤海镇慕田峪长城内,北京市,北京市,怀柔区,116.5587761,40.43256424
慕田峪长城-狐狸,风景名胜,风景名胜,风景名胜,渤海镇慕田峪长城内,北京市,北京市,怀柔区,116.5592229,40.43248291
慕田峪长城-漫山红遍,风景名胜,风景名胜,风景名胜,渤海镇慕田峪长城中华梦石城内,北京市,北京市,怀柔区,116.5588202,40.43246434
慕田峪长城-神仙桌,风景名胜,风景名胜,风景名胜,渤海镇慕田峪长城中华梦石城内,北京市,北京市,怀柔区,116.5588021,40.43243133
慕田峪长城-索道滑道下站,风景名胜,风景名胜,风景名胜,渤海镇慕田峪长城内,北京市,北京市,怀柔区,116.5585949,40.43191023
慕田峪长城-敌楼,风景名胜,风景名胜,风景名胜,慕田峪长城敌楼,北京市,北京市,怀柔区,116.5571333,40.44005382
慕田峪长城-中华梦石城,风景名胜,风景名胜,风景名胜,渤海镇慕田峪长城内,北京市,北京市,怀柔区,116.558731,40.43240124
慕田峪长城-神龟,风景名胜,风景名胜,风景名胜,渤海镇慕田峪长城中华梦石城内,北京市,北京市,怀柔区,116.5588923,40.4325654
慕田峪长城-醉石亭,风景名胜,风景名胜,风景名胜,渤海镇慕田峪长城中华梦石城内,北京市,北京市,怀柔区,116.5592679,40.43255995
慕田峪长城-雄狮迎客,风景名胜,风景名胜,风景名胜,渤海镇慕田峪长城中华梦石城内,北京市,北京市,怀柔区,116.5590796,40.43246771
慕田峪长城国家级旅游景区-缆车公司销售部,风景名胜,风景名胜相关,旅游景点,渤海镇慕田峪长城风景区慕田峪长城国家级旅游景区内,北京市,北京市,怀柔区,116.5582982,40.43274947
慕田峪长城-龙头,风景名胜,风景名胜,风景名胜,渤海镇慕田峪长城中华梦石城内,北京市,北京市,怀柔区,116.5591727,40.43263278
慕田峪长城-百果石,风景名胜,风景名胜,风景名胜,渤海镇慕田峪长城中华梦石城内,北京市,北京市,怀柔区,116.558747,40.43251321
慕田峪长城-菇云峰,风景名胜,风景名胜,风景名胜,渤海镇慕田峪长城中华梦石城内,北京市,北京市,怀柔区,116.5588022,40.43237535
慕田峪长城-老鼠待食,风景名胜,风景名胜,风景名胜,渤海镇慕田峪长城中华梦石城内,北京市,北京市,怀柔区,116.5591968,40.43244889
慕田峪长城-鸣叫,风景名胜,风景名胜,风景名胜,渤海镇慕田峪长城中华梦石城内,北京市,北京市,怀柔区,116.5592409,40.43251892
慕田峪长城-城楼,风景名胜,风景名胜,风景名胜,渤海镇慕田峪长城内,北京市,北京市,怀柔区,116.5590615,40.44090532
慕田峪长城-石花横生,风景名胜,风景名胜,风景名胜,渤海镇慕田峪长城中华梦石城内,北京市,北京市,怀柔区,116.5587911,40.43258925
慕田峪长城-孵殖后代,风景名胜,风景名胜,风景名胜,渤海镇慕田峪长城中华梦石城内,北京市,北京市,怀柔区,116.5591958,40.43262782
慕田峪长城国家级旅游景区缆车上站-平台,风景名胜,风景名胜,风景名胜,渤海镇慕田峪长城内,北京市,北京市,怀柔区,116.5593391,40.44033994
慕田峪长城-黄曦基云,风景名胜,风景名胜,风景名胜,渤海镇慕田峪长城内,北京市,北京市,怀柔区,116.5606149,40.43432413
慕田峪长城-隐庐,风景名胜,风景名胜,风景名胜,渤海镇慕田峪长城内,北京市,北京市,怀柔区,116.5607413,40.43287288
慕田峪长城-松荫翳日,风景名胜,风景名胜,风景名胜,渤海镇慕田峪长城内,北京市,北京市,怀柔区,116.5608185,40.4323292
慕田峪长城-情侣亲吻,风景名胜,风景名胜,风景名胜,渤海镇慕田峪长城中华梦石城内,北京市,北京市,怀柔区,116.5594262,40.43265213
慕田峪长城-石林,风景名胜,风景名胜,风景名胜,渤海镇慕田峪长城中华梦石城内,北京市,北京市,怀柔区,116.5596005,40.43272835
慕田峪长城-外支城,风景名胜,风景名胜,风景名胜,渤海镇慕田峪长城风景区慕田峪长城国家级旅游景区内,北京市,北京市,怀柔区,116.5625887,40.4367248
慕田峪长城-千禧龙腾,风景名胜,风景名胜,风景名胜,渤海镇慕田峪长城内,北京市,北京市,怀柔区,116.5606652,40.43289477
慕田峪长城-阶前云海,风景名胜,风景名胜,风景名胜,渤海镇慕田峪长城风景区慕田峪长城国家级旅游景区内,北京市,北京市,怀柔区,116.5612549,40.43460289
慕田峪长城国家级旅游景区-6号敌楼,风景名胜,风景名胜,风景名胜,渤海镇慕田峪长城内,北京市,北京市,怀柔区,116.5645271,40.43160025
慕田峪长城国家级旅游景区-9号敌楼,风景名胜,风景名胜,风景名胜,渤海镇慕田峪长城内,北京市,北京市,怀柔区,116.5624807,40.4351183
慕田峪长城国家级旅游景区-14号敌楼,风景名胜,风景名胜,风景名胜,渤海镇慕田峪长城内,北京市,北京市,怀柔区,116.5601023,40.44060291
慕田峪长城国家级旅游景区-11号敌楼,风景名胜,风景名胜,风景名胜,渤海镇慕田峪长城内,北京市,北京市,怀柔区,116.5625887,40.4367248
慕田峪长城国家级旅游景区-13号敌楼,风景名胜,风景名胜,风景名胜,渤海镇慕田峪长城内,北京市,北京市,怀柔区,116.5608296,40.43954934
慕田峪长城-凌云瑶笛亭,风景名胜,风景名胜,风景名胜,渤海镇慕田峪长城内,北京市,北京市,怀柔区,116.5605929,40.4343221
慕田峪长城国家级旅游景区-12号敌楼,风景名胜,风景名胜,风景名胜,渤海镇慕田峪长城内,北京市,北京市,怀柔区,116.5614427,40.43841862
慕田峪长城国家级旅游景区-8号敌楼,风景名胜,风景名胜,风景名胜,渤海镇慕田峪长城内,北京市,北京市,怀柔区,116.5635153,40.4344069
慕田峪长城国家级旅游景区-7号敌楼,风景名胜,风景名胜,风景名胜,渤海镇慕田峪长城内,北京市,北京市,怀柔区,116.5641524,40.43316118
慕田峪长城国家级旅游景区-10号敌楼,风景名胜,风景名胜,风景名胜,渤海镇慕田峪长城内,北京市,北京市,怀柔区,116.5620359,40.43617231
慕田峪长城-石磨,风景名胜,风景名胜,风景名胜,慕田峪长城石磨,北京市,北京市,怀柔区,116.5601298,40.4372563
慕田峪长城-烽火台,风景名胜,风景名胜,风景名胜,慕田峪长城烽火台,北京市,北京市,怀柔区,116.5601335,40.43936746
慕田峪长城-愚公洞,风景名胜,风景名胜,风景名胜,渤海镇慕田峪长城中华梦石城内,北京市,北京市,怀柔区,116.5597317,40.43275852
慕田峪长城-鹰头峰,风景名胜,风景名胜,风景名胜,渤海镇慕田峪长城中华梦石城内,北京市,北京市,怀柔区,116.5594823,40.43257424
慕田峪长城国家级旅游景区-售卖亭,风景名胜,风景名胜相关,旅游景点,渤海镇慕田峪长城风景区慕田峪长城国家级旅游景区内,北京市,北京市,怀柔区,116.5620825,40.43200702
慕田峪长城-慕田水琳洞,风景名胜,风景名胜,风景名胜,渤海镇慕田峪长城中华梦石城内,北京市,北京市,怀柔区,116.5595113,40.43248332
慕田峪长城-大地书卷,风景名胜,风景名胜,风景名胜,渤海镇慕田峪长城中华梦石城内,北京市,北京市,怀柔区,116.5594752,40.4326682
神堂峪自然风景区-开莲关,风景名胜,风景名胜,风景名胜,范崎路东50米,北京市,北京市,怀柔区,116.5788008,40.43848621
神堂峪风景区-亓莲关,风景名胜,风景名胜,风景名胜,范崎路东50米,北京市,北京市,怀柔区,116.5788308,40.43838527
神堂峪自然风景区,风景名胜,风景名胜,风景名胜,石片村1号,北京市,北京市,怀柔区,116.6085281,40.43943834
神堂峪自然风景区-荣山丽水,风景名胜,风景名胜相关,旅游景点,神堂峪道西50米,北京市,北京市,怀柔区,116.6206713,40.4360224
河防口长城,风景名胜,风景名胜相关,旅游景点,河防口村(青龙峡),北京市,北京市,怀柔区,116.6686987,40.43344193
文达古镇,风景名胜,风景名胜相关,旅游景点,河防口533号,北京市,北京市,怀柔区,116.6686101,40.43201767
河防口民俗旅游村,风景名胜,风景名胜,风景名胜,京加路西50米,北京市,北京市,怀柔区,116.6690768,40.43177187
卸甲山法兴寺,风景名胜,风景名胜,风景名胜,017县道北50米,北京市,北京市,密云区,116.7625429,40.43125537
熙和轩,风景名胜,风景名胜相关,旅游景点,黑大路西100米,北京市,北京市,密云区,116.9209795,40.4409533
中华攀雀观鸟点,风景名胜,风景名胜,风景名胜,027县道路口,北京市,北京市,延庆区,115.8432102,40.4222587
夜鹭观鸟点,风景名胜,风景名胜,风景名胜,,北京市,北京市,延庆区,115.8417483,40.42133556
金翅雀观鸟点,风景名胜,风景名胜,风景名胜,,北京市,北京市,延庆区,115.8434709,40.4221162
莲花山森林公园(白龙潭桥),风景名胜,公园广场,公园,莲花山路和昌赤路的交叉口附近,北京市,北京市,延庆区,116.2388138,40.42150723
莲花山森林公园-黑龙潭(东杨路),风景名胜,风景名胜,风景名胜,东杨路东50米,北京市,北京市,延庆区,116.2535771,40.42229931
鹞子峪城堡,风景名胜,风景名胜,风景名胜,352乡道附近,北京市,北京市,怀柔区,116.3195563,40.42560862
画家村,风景名胜,风景名胜相关,旅游景点,九渡河镇二道关口楼,北京市,北京市,怀柔区,116.3247905,40.43040768
长城古堡旅游区,风景名胜,风景名胜,风景名胜,鹞子峪村,北京市,北京市,怀柔区,116.325285,40.42546565
板栗公园,风景名胜,公园广场,公园,安四路附近,北京市,北京市,怀柔区,116.3293518,40.42416037
黄花城野长城,风景名胜,风景名胜相关,旅游景点,安四路附近,北京市,北京市,怀柔区,116.342676,40.42478361
九公山长城纪念林办公室,风景名胜,风景名胜相关,旅游景点,兴隆城村桥北2000米,北京市,北京市,怀柔区,116.3954967,40.42180604
北京怀柔慕田峪长城清杨小院,风景名胜,风景名胜,风景名胜,慕田峪长城北沟村128号,北京市,北京市,怀柔区,116.5455129,40.43083217
慕田峪长城,风景名胜,风景名胜,国家级景点,渤海镇慕田峪村,北京市,北京市,怀柔区,116.5581614,40.42971645
慕田峪长城-警门,风景名胜,风景名胜,风景名胜,渤海镇慕田峪长城风景区慕田峪长城国家级旅游景区内,北京市,北京市,怀柔区,116.568166,40.42908732
慕田峪长城国家级旅游景区-1号敌楼,风景名胜,风景名胜,风景名胜,渤海镇慕田峪长城风景区慕田峪长城国家级旅游景区内,北京市,北京市,怀柔区,116.568166,40.42908732
慕田峪长城国家级旅游景区-3号敌楼,风景名胜,风景名胜,风景名胜,渤海镇慕田峪长城内,北京市,北京市,怀柔区,116.5662556,40.42954207
慕田峪长城国家级旅游景区-5号敌楼,风景名胜,风景名胜,风景名胜,渤海镇慕田峪长城内,北京市,北京市,怀柔区,116.5649558,40.43068112
慕田峪长城国家级旅游景区-2号敌楼,风景名胜,风景名胜,风景名胜,渤海镇慕田峪长城内,北京市,北京市,怀柔区,116.5669625,40.42924397
慕田峪长城-正关台,风景名胜,风景名胜,风景名胜,渤海镇慕田峪长城内,北京市,北京市,怀柔区,116.5681317,40.43076163
慕田峪长城-施必得滑道上站,风景名胜,风景名胜相关,旅游景点,渤海镇慕田峪长城内,北京市,北京市,怀柔区,116.5642087,40.43069322
慕田峪长城-大角楼,风景名胜,风景名胜,风景名胜,渤海镇慕田峪长城内,北京市,北京市,怀柔区,116.5721561,40.42938203
慕田峪长城-石臼,风景名胜,风景名胜,风景名胜,慕田峪长城,北京市,北京市,怀柔区,116.5711444,40.42756783
西辽阁,风景名胜,风景名胜相关,旅游景点,神堂峪道北50米,北京市,北京市,怀柔区,116.6246049,40.42803979
野长城探险点,风景名胜,风景名胜相关,旅游景点,神堂峪自然风景区的下官地村14号附近,北京市,北京市,怀柔区,116.6293136,40.42562443
怀北镇法制廉政公园,风景名胜,公园广场,公园,环镇路与007县道交叉口西南150米,北京市,北京市,怀柔区,116.6998895,40.42743623
全民健身广场,风景名胜,公园广场,城市广场,密西路,北京市,北京市,密云区,116.7623293,40.42752868
乡村俱乐部,风景名胜,风景名胜,风景名胜,密溪路附近,北京市,北京市,密云区,116.8260339,40.4248905
海角天涯,风景名胜,风景名胜,风景名胜,密关路东150米,北京市,北京市,密云区,116.8289281,40.42682514
云佛洞,风景名胜,风景名胜,风景名胜,溪翁庄镇云佛山旅游度假村,北京市,北京市,密云区,116.8328354,40.42687231
云佛山大溶洞,风景名胜,风景名胜相关,旅游景点,,北京市,北京市,密云区,116.8317041,40.42875851
回族村清真寺,风景名胜,风景名胜,回教寺,穆九路附近,北京市,北京市,密云区,116.9381546,40.42339431
白尾鹞观鸟点,风景名胜,风景名胜,风景名胜,,北京市,北京市,延庆区,115.8383661,40.42004016
短趾雕观鸟点,风景名胜,风景名胜,风景名胜,,北京市,北京市,延庆区,115.8387231,40.42022472
黑翅鸢观鸟点,风景名胜,风景名胜,风景名胜,,北京市,北京市,延庆区,115.8388374,40.41998601
文须雀活动区,风景名胜,风景名胜,风景名胜,,北京市,北京市,延庆区,115.8339466,40.41139048
鹭类繁殖地,风景名胜,风景名胜,风景名胜,027县道路口,北京市,北京市,延庆区,115.8383399,40.41299575
野鸭湖恢复区观鸟亭,风景名胜,风景名胜,风景名胜,,北京市,北京市,延庆区,115.8385862,40.41582413
文须雀生活区,风景名胜,风景名胜,风景名胜,,北京市,北京市,延庆区,115.834081,40.41132174
野鸭湖公益陆类繁殖地,风景名胜,风景名胜,风景名胜,,北京市,北京市,延庆区,115.8383359,40.41294076
东方鸭雀观鸟点,风景名胜,风景名胜,风景名胜,,北京市,北京市,延庆区,115.8387231,40.42022472
恢复区中路观鸟亭,风景名胜,风景名胜相关,旅游景点,,北京市,北京市,延庆区,115.8384448,40.41586287
非车站观景台,风景名胜,风景名胜,观景点,,北京市,北京市,延庆区,115.8384629,40.41598486
白尾海雕观鸟点,风景名胜,风景名胜,风景名胜,,北京市,北京市,延庆区,115.8446973,40.42110164
大鸨观鸟点,风景名胜,风景名胜,风景名胜,,北京市,北京市,延庆区,115.8446291,40.42106254
池鹭观鸟点,风景名胜,风景名胜,风景名胜,,北京市,北京市,延庆区,115.8469255,40.41889815
白腹鹞观鸟点,风景名胜,风景名胜,风景名胜,康野路附近,北京市,北京市,延庆区,115.8453913,40.41236306
苍鹭观鸟点,风景名胜,风景名胜,风景名胜,,北京市,北京市,延庆区,115.8445299,40.42119233
白眼潜鸭观鸟点,风景名胜,风景名胜,风景名胜,康野路附近,北京市,北京市,延庆区,115.8465402,40.41307069
中华宽鹊观鸟点,风景名胜,风景名胜,风景名胜,027县道路口,北京市,北京市,延庆区,115.8459158,40.41942929
棕眉山岩鹨观鸟点,风景名胜,风景名胜,风景名胜,,北京市,北京市,延庆区,115.8487745,40.41715178
草鹭观鸟点,风景名胜,风景名胜,风景名胜,,北京市,北京市,延庆区,115.8466237,40.4187717
乌雕观鸟点,风景名胜,风景名胜,风景名胜,,北京市,北京市,延庆区,115.8414154,40.42116805
楔尾伯劳观鸟点,风景名胜,风景名胜,风景名胜,,北京市,北京市,延庆区,115.8475057,40.41364505
牛背鹭观鸟点,风景名胜,风景名胜,风景名胜,,北京市,北京市,延庆区,115.8480842,40.41382791
骨顶鸡观鸟点,风景名胜,风景名胜,风景名胜,,北京市,北京市,延庆区,115.8458987,40.41941527
罗纹鸭观鸟点,风景名胜,风景名胜,风景名胜,,北京市,北京市,延庆区,115.845993,40.41928947
普通翠鸟观鸟点,风景名胜,风景名胜,风景名胜,,北京市,北京市,延庆区,115.8451867,40.42040572
黑卷尾观鸟点,风景名胜,风景名胜,风景名胜,,北京市,北京市,延庆区,115.8485243,40.41403254
燕雀观鸟点,风景名胜,风景名胜,风景名胜,,北京市,北京市,延庆区,115.8454956,40.42021231
东方大苇莺观鸟点,风景名胜,风景名胜,风景名胜,,北京市,北京市,延庆区,115.8414305,40.42093916
斑鸫观鸟点,风景名胜,风景名胜,风景名胜,,北京市,北京市,延庆区,115.8490514,40.41624156
大杜鹃观鸟点,风景名胜,风景名胜,风景名胜,,北京市,北京市,延庆区,115.8452519,40.42043782
毛白杨小雨淋,风景名胜,风景名胜,风景名胜,康野路附近,北京市,北京市,延庆区,115.844919,40.41223133
灰椋鸟观鸟点,风景名胜,风景名胜,风景名胜,,北京市,北京市,延庆区,115.8486335,40.41440258
鸳鸯鸟观鸟点,风景名胜,风景名胜,风景名胜,,北京市,北京市,延庆区,115.8484361,40.41407739
野鸭湖恢复区观景台,风景名胜,风景名胜,风景名胜,,北京市,北京市,延庆区,115.8401474,40.4168065
黑水鸡观鸟点,风景名胜,风景名胜,风景名胜,,北京市,北京市,延庆区,115.8485504,40.41409056
赤膀鸭观鸟点,风景名胜,风景名胜,风景名胜,,北京市,北京市,延庆区,115.845292,40.42042989
恢复区中路观景台,风景名胜,风景名胜,风景名胜,027县道路口,北京市,北京市,延庆区,115.8402247,40.41680463
黑翅长脚鹬观鸟点,风景名胜,风景名胜,风景名胜,康野路附近,北京市,北京市,延庆区,115.8453922,40.41260098
白骨顶,风景名胜,风景名胜,风景名胜,,北京市,北京市,延庆区,115.8466879,40.41868184
斑鸫,风景名胜,风景名胜,风景名胜,,北京市,北京市,延庆区,115.8485459,40.41730436
绿翅鸭,风景名胜,风景名胜,风景名胜,,北京市,北京市,延庆区,115.8483675,40.41678127
赤嘴潜鸭观鸟点,风景名胜,风景名胜,风景名胜,康野路附近,北京市,北京市,延庆区,115.8465132,40.41308264
黑耳鸢观鸟点,风景名胜,风景名胜,风景名胜,,北京市,北京市,延庆区,115.8413823,40.421164
红头潜鸭观鸟点,风景名胜,风景名胜,风景名胜,,北京市,北京市,延庆区,115.8465987,40.41870769
水鹨观鸟点,风景名胜,风景名胜,风景名胜,康野路附近,北京市,北京市,延庆区,115.8467859,40.41297913
北红尾观鸟点,风景名胜,风景名胜,风景名胜,康野路,北京市,北京市,延庆区,115.8448719,40.41230022
环颈雉观鸟点,风景名胜,风景名胜,风景名胜,,北京市,北京市,延庆区,115.8402144,40.41862493
鸣禽观鸟点,风景名胜,风景名胜相关,旅游景点,康野路附近,北京市,北京市,延庆区,115.8449431,40.41221337
北红尾鸲观鸟点,风景名胜,风景名胜相关,旅游景点,,北京市,北京市,延庆区,115.8415443,40.41696086
白杨树芦苇观鸟区,风景名胜,风景名胜相关,旅游景点,康野路附近,北京市,北京市,延庆区,115.8448509,40.41209726
野鸭湖宣教展示区,风景名胜,风景名胜相关,旅游景点,,北京市,北京市,延庆区,115.8426276,40.41409078
北京青年报(种植林),风景名胜,风景名胜相关,旅游景点,康野路附近,北京市,北京市,延庆区,115.8447275,40.41221202
斑嘴鸭观鸟点,风景名胜,风景名胜相关,旅游景点,,北京市,北京市,延庆区,115.8452589,40.42031587
野鸭湖湿地恢复区,风景名胜,风景名胜相关,旅游景点,康野路附近,北京市,北京市,延庆区,115.8445992,40.41241972
小Gf观鸟点,风景名胜,风景名胜相关,旅游景点,,北京市,北京市,延庆区,115.8458025,40.41935114
翠鸟观鸟点,风景名胜,风景名胜相关,旅游景点,,北京市,北京市,延庆区,115.8463681,40.41870531
绿头鸭观鸟点,风景名胜,风景名胜相关,旅游景点,027县道路口,北京市,北京市,延庆区,115.8458496,40.4193952
凤头Gf观鸟点,风景名胜,风景名胜相关,旅游景点,027县道路口,北京市,北京市,延庆区,115.8458777,40.41940724
斑鸠观鸟点,风景名胜,风景名胜相关,旅游景点,027县道路口,北京市,北京市,延庆区,115.8459517,40.42041798
绿翅鸭观鸟点,风景名胜,风景名胜相关,旅游景点,,北京市,北京市,延庆区,115.8462627,40.41928792
大\观鸟点,风景名胜,风景名胜相关,旅游景点,,北京市,北京市,延庆区,115.8479272,40.41804809
白鹭观鸟点,风景名胜,风景名胜相关,旅游景点,,北京市,北京市,延庆区,115.8454795,40.42047018
白骨顶观鸟点,风景名胜,风景名胜,风景名胜,康野路附近,北京市,北京市,延庆区,115.8457812,40.41289051
银喉长尾山雀观鸟点,风景名胜,风景名胜相关,旅游景点,,北京市,北京市,延庆区,115.8489421,40.41652928
红尾鸫观鸟点,风景名胜,风景名胜相关,旅游景点,康野路附近,北京市,北京市,延庆区,115.8453872,40.41258298
红鸟隼观鸟点,风景名胜,风景名胜,风景名胜,,北京市,北京市,延庆区,115.8495459,40.41443501
田c观鸟点,风景名胜,风景名胜,风景名胜,康野路,北京市,北京市,延庆区,115.8508942,40.41511886
山斑鸠观鸟点,风景名胜,风景名胜,风景名胜,,北京市,北京市,延庆区,115.8492017,40.41641473
三道眉草M观鸟点,风景名胜,风景名胜,风景名胜,,北京市,北京市,延庆区,115.8505213,40.41497934
扇尾沙锥观鸟点,风景名胜,风景名胜,风景名胜,,北京市,北京市,延庆区,115.849305,40.41618498
燕隼观鸟点,风景名胜,风景名胜,风景名胜,,北京市,北京市,延庆区,115.8491095,40.41631862
大斑啄木鸟观鸟点,风景名胜,风景名胜,风景名胜,,北京市,北京市,延庆区,115.8492048,40.41635476
凤头麦鸡观鸟点,风景名胜,风景名胜,风景名胜,,北京市,北京市,延庆区,115.8494714,40.41655511
灰头麦鸡观鸟点,风景名胜,风景名胜相关,旅游景点,,北京市,北京市,延庆区,115.8492098,40.41638876
莲花山森林公园-京北大峡谷,风景名胜,风景名胜相关,旅游景点,延庆水泉沟村边,北京市,北京市,延庆区,116.2515388,40.41873337
龙泉峪,风景名胜,风景名胜,风景名胜,363乡道西50米,北京市,北京市,延庆区,116.271313,40.41189966
黄花城水长城-碧玉潭,风景名胜,风景名胜,风景名胜,九渡河镇境内,北京市,北京市,怀柔区,116.2889871,40.41217497
黄花城水长城-黑龙潭,风景名胜,风景名胜相关,旅游景点,九渡河镇境内,北京市,北京市,延庆区,116.2807888,40.41442571
黄花城水长城,风景名胜,风景名胜,国家级景点,353乡道九渡河镇西水峪村,北京市,北京市,怀柔区,116.2975991,40.4116083
黄花城水长城-蜂山亭,风景名胜,风景名胜,风景名胜,九渡河镇境内,北京市,北京市,怀柔区,116.3057966,40.4149536
黄花城水库,地名地址信息,自然地名,湖泊|风景名胜,九渡河镇黄花城村,北京市,北京市,怀柔区,116.3388471,40.41868377
长城,风景名胜,风景名胜相关,旅游景点,长城溪溪小镇九渡河镇,北京市,北京市,怀柔区,116.3337331,40.413851
九眼楼长城,风景名胜,风景名胜,风景名胜,七队村西北,北京市,北京市,怀柔区,116.4611799,40.41368174
明清栗园,风景名胜,公园广场,城市广场,怀黄公路东50米,北京市,北京市,怀柔区,116.4618522,40.41318165
卧佛山,风景名胜,风景名胜,风景名胜,渤海镇境内,北京市,北京市,怀柔区,116.5191438,40.41296009
兴海广场,风景名胜,公园广场,城市广场,怀黄公路北50米,北京市,北京市,怀柔区,116.5101116,40.41312767
慕田峪长城国家级旅游景区-摆渡车下站,风景名胜,风景名胜相关,旅游景点,慕田峪路,北京市,北京市,怀柔区,116.5414333,40.41829566
神堂峪栈道,风景名胜,风景名胜相关,旅游景点,范崎路西50米,北京市,北京市,怀柔区,116.6403995,40.41141566
两弹一星纪念馆,风景名胜,风景名胜,纪念馆,雁栖湖校区内,北京市,北京市,怀柔区,116.6594781,40.41780969
康乾行宫,风景名胜,风景名胜,风景名胜,羊娄路西50米,北京市,北京市,密云区,116.9745445,40.41801811
从天楼,风景名胜,风景名胜,风景名胜,羊娄路西50米,北京市,北京市,密云区,116.9743026,40.41748402
八方广场,风景名胜,公园广场,城市广场,日月大道与羊娄路交叉口东北50米,北京市,北京市,密云区,116.9727656,40.41554618
荆子峪村健身广场,风景名胜,公园广场,城市广场,京密路西50米,北京市,北京市,密云区,116.9892052,40.41840614
山B观鸟点,风景名胜,风景名胜,风景名胜,,北京市,北京市,延庆区,115.8316294,40.40822141
湿地驿站,风景名胜,风景名胜,风景名胜,,北京市,北京市,延庆区,115.8324782,40.4056179
观鹤台,风景名胜,风景名胜,风景名胜,康西路路口,北京市,北京市,延庆区,115.8340532,40.40131131
观鸟台,风景名胜,风景名胜,风景名胜,,北京市,北京市,延庆区,115.8366245,40.40942901
棕灰鸦雀繁殖地,风景名胜,风景名胜,风景名胜,,北京市,北京市,延庆区,115.8315502,40.40744555
望湖楼,风景名胜,风景名胜,风景名胜,,北京市,北京市,延庆区,115.8291489,40.41021811
苍鹭草鹭繁殖地,风景名胜,风景名胜相关,旅游景点,,北京市,北京市,延庆区,115.8316274,40.40821541
燕鸥繁殖地,风景名胜,风景名胜相关,旅游景点,,北京市,北京市,延庆区,115.8330441,40.40335475
斑鸫观测点,风景名胜,风景名胜,风景名胜,,北京市,北京市,延庆区,115.8420807,40.40161538
红嘴鸥观鸟点,风景名胜,风景名胜,风景名胜,,北京市,北京市,延庆区,115.8466394,40.40617937
亲水平台,风景名胜,风景名胜,风景名胜,康野路附近,北京市,北京市,延庆区,115.8470572,40.40861517
G鹈观测点,风景名胜,风景名胜,风景名胜,,北京市,北京市,延庆区,115.8429191,40.40865727
皮啼观鸟点,风景名胜,风景名胜,风景名胜,,北京市,北京市,延庆区,115.8466394,40.40617937
曲桥观鸟点,风景名胜,风景名胜相关,旅游景点,,北京市,北京市,延庆区,115.8466213,40.40612036
翠鸟林,风景名胜,风景名胜相关,旅游景点,,北京市,北京市,延庆区,115.8464021,40.40340198
玉带海雕观鸟台,风景名胜,风景名胜相关,旅游景点,,北京市,北京市,延庆区,115.842564,40.40177215
长尾银喉山雀观鸟点,风景名胜,风景名胜相关,旅游景点,康野路附近,北京市,北京市,延庆区,115.8468755,40.41001936
棕头鸦雀观鸟点,风景名胜,风景名胜,风景名胜,,北京市,北京市,延庆区,115.8468585,40.41003233
星头啄木鸟观鸟点,风景名胜,风景名胜相关,旅游景点,,北京市,北京市,延庆区,115.8468544,40.40999034
灰喜鹊观鸟点,风景名胜,风景名胜相关,旅游景点,,北京市,北京市,延庆区,115.8468534,40.41000633
望海坨观景台,风景名胜,风景名胜,观景点,,北京市,北京市,延庆区,115.8434905,40.40988079
野鸭湖国家湿地公园(暂停营业),风景名胜,风景名胜,国家级景点,康野路,北京市,北京市,延庆区,115.8521623,40.40808739
黄喉c观鸟点,风景名胜,风景名胜,风景名胜,康野路附近,北京市,北京市,延庆区,115.8510263,40.40900532
金眶a观鸟点,风景名胜,风景名胜,风景名胜,康野路附近,北京市,北京市,延庆区,115.8510263,40.40901631
故裹庙,风景名胜,风景名胜,寺庙道观,,北京市,北京市,延庆区,115.9703458,40.40159654
世祖庙,风景名胜,风景名胜,风景名胜,,北京市,北京市,延庆区,115.9709878,40.40139079
元代谷,风景名胜,风景名胜相关,旅游景点,大榆树镇新宝庄村东山,北京市,北京市,延庆区,115.9696957,40.40328277
平北红色第一村,风景名胜,风景名胜,风景名胜,大庄科沙塘沟村(近昌平堆臼峪),北京市,北京市,延庆区,116.1608742,40.40885509
龙泉峪长城,风景名胜,风景名胜,风景名胜,大庄科乡龙泉峪4号,北京市,北京市,延庆区,116.265291,40.40847941
黄花城水长城-栗园亭,风景名胜,风景名胜,风景名胜,九渡河镇境内,北京市,北京市,怀柔区,116.2973178,40.41031326
黄花城水长城-栗树王,风景名胜,风景名胜,风景名胜,九渡河镇境内,北京市,北京市,怀柔区,116.2963277,40.41073077
水长城,风景名胜,风景名胜,省级景点,九渡河镇西水峪村,北京市,北京市,怀柔区,116.3069178,40.4099554
小西湖,风景名胜,风景名胜相关,旅游景点,西北原黄花城乡,北京市,北京市,怀柔区,116.3264753,40.40915649
驼岭隧峒,风景名胜,风景名胜相关,旅游景点,怀黄公路附近,北京市,北京市,怀柔区,116.3922423,40.40352614
沙峪抗日纪念碑,风景名胜,风景名胜,风景名胜,怀黄公路北50米,北京市,北京市,怀柔区,116.4744978,40.41080882
渤海板栗观光园,风景名胜,风景名胜,风景名胜,怀黄公路南50米,北京市,北京市,怀柔区,116.4964958,40.41109436
归故里,风景名胜,风景名胜,纪念馆,渤海镇苇店村(近鱼师傅),北京市,北京市,怀柔区,116.5496718,40.40424203
朝阳寺,风景名胜,风景名胜,寺庙道观,怀柔镇,北京市,北京市,怀柔区,116.575355,40.40321637
十八盘观光园,风景名胜,风景名胜相关,旅游景点,范崎路,北京市,北京市,怀柔区,116.6102395,40.41114898
古槐溪语公园,风景名胜,公园广场,公园,雁水路3号雁栖湖内,北京市,北京市,怀柔区,116.6534302,40.40905936
栖雁台,风景名胜,风景名胜,风景名胜,雁水路3号雁栖湖内,北京市,北京市,怀柔区,116.6678567,40.40527721
鸣雁台,风景名胜,风景名胜,风景名胜,雁水路3号雁栖湖内,北京市,北京市,怀柔区,116.6659122,40.40574179
荷花池(普岚山庄东南),风景名胜,风景名胜,风景名胜,雁秀路12号附近,北京市,北京市,怀柔区,116.6729934,40.40159368
雁栖湖-荷花池,风景名胜,风景名胜,风景名胜,雁秀路8附近,北京市,北京市,怀柔区,116.6729994,40.40159367
长城公园,风景名胜,公园广场,公园,长城公园(密关路东200米),北京市,北京市,密云区,116.845078,40.40175413
白石岭长城,风景名胜,风景名胜,风景名胜,密关路,北京市,北京市,密云区,116.8432369,40.401833
白河公园,风景名胜,公园广场,公园,溪翁庄,北京市,北京市,密云区,116.8415795,40.40721923
娄峪,风景名胜,风景名胜相关,旅游景点,久黄路与达峪大街交叉口西南50米,北京市,北京市,密云区,117.0494963,40.40189822
孝德广场,风景名胜,公园广场,城市广场,杨各庄村,北京市,北京市,密云区,117.1327976,40.40899532
\鹤观鸟点,风景名胜,风景名胜,风景名胜,,北京市,北京市,延庆区,115.8343772,40.40116195
赤麻鸭观鸟点,风景名胜,风景名胜,风景名胜,,北京市,北京市,延庆区,115.8343772,40.40116195
金雕观鸟点,风景名胜,风景名胜,风景名胜,,北京市,北京市,延庆区,115.8343772,40.40116195
灰鹉观鸟点,风景名胜,风景名胜,风景名胜,,北京市,北京市,延庆区,115.8354043,40.39987726
金雕、赤麻鸭观测点,风景名胜,风景名胜,风景名胜,,北京市,北京市,延庆区,115.8341385,40.40119051
湖区南路观鸟亭,风景名胜,风景名胜,风景名胜,,北京市,北京市,延庆区,115.8361123,40.39950966
尾鹜观测点,风景名胜,风景名胜,风景名胜,,北京市,北京市,延庆区,115.837776,40.39969755
灰头绿观测点,风景名胜,风景名胜相关,旅游景点,,北京市,北京市,延庆区,115.8348065,40.40020206
赤露白露观景点,风景名胜,风景名胜,风景名胜,,北京市,北京市,延庆区,115.8406779,40.40105816
凤头麦鸡观测点,风景名胜,风景名胜,风景名胜,,北京市,北京市,延庆区,115.8406739,40.40106815
灰鹤观鸟点,风景名胜,风景名胜相关,旅游景点,,北京市,北京市,延庆区,115.839603,40.40065143
北京阳光时代马球俱乐部,体育休闲服务,运动场馆,马术俱乐部|风景名胜,康庄镇小曹营村,北京市,北京市,延庆区,115.8554802,40.40101584
小张家口民俗旅游村,风景名胜,风景名胜相关,旅游景点,小张家口村,北京市,北京市,延庆区,116.0248246,40.39710477
红螺慧缘谷生态景区-朝阳禅寺,风景名胜,风景名胜,寺庙道观,怀柔镇甘涧峪风景区,北京市,北京市,怀柔区,116.576978,40.396104
朝阳寺流通处,风景名胜,风景名胜,寺庙道观,,北京市,北京市,怀柔区,116.5791675,40.39433994
中国佛塔艺术公园,风景名胜,公园广场,公园,怀柔镇红螺慧缘谷生态景区,北京市,北京市,怀柔区,116.5790443,40.39491867
灵慧山生态风景区,风景名胜,风景名胜,风景名胜,怀柔镇甘涧峪村灵慧山风景区,北京市,北京市,怀柔区,116.5791373,40.39512365
红螺慧缘谷生态景区-灵慧山生态景区,风景名胜,风景名胜,风景名胜,西北5公里处的怀柔镇甘涧峪村,北京市,北京市,怀柔区,116.5789463,40.39510855
甘涧禅修中心,风景名胜,风景名胜,风景名胜,甘涧村红螺慧缘谷生态景区山脚,北京市,北京市,怀柔区,116.5794155,40.39486689
红螺寺-红螺山顶,风景名胜,风景名胜,风景名胜,怀柔镇卢庄村北红螺东路2号红螺寺内,北京市,北京市,怀柔区,116.6166922,40.39441221
红螺山顶峰,风景名胜,风景名胜,风景名胜,红螺寺景区内,北京市,北京市,怀柔区,116.6164736,40.39452339
红螺寺景区红螺山,风景名胜,风景名胜,风景名胜,怀柔镇红螺山风景区,北京市,北京市,怀柔区,116.6149739,40.39482474
聆雁回鸣,风景名胜,风景名胜,风景名胜,范崎路附近,北京市,北京市,怀柔区,116.6478146,40.39322429
雁栖湖,风景名胜,风景名胜,国家级景点,雁水路3号,北京市,北京市,怀柔区,116.6627232,40.391369
雁栖岛观光大桥(暂停营业),风景名胜,风景名胜,风景名胜,x004雁栖岛内,北京市,北京市,怀柔区,116.6682781,40.39980736
稻香居,风景名胜,风景名胜相关,旅游景点,雁栖湖范崎路湖心岛凯宾斯基酒店别墅内,北京市,北京市,怀柔区,116.660624,40.40065078
雁栖湖-大黄鸭,风景名胜,风景名胜,风景名胜,雁水路3号雁栖湖游乐园内,北京市,北京市,怀柔区,116.6780944,40.39725559
雁栖湖-迷你漂流,风景名胜,风景名胜,风景名胜,雁水路3号雁栖湖游乐园内,北京市,北京市,怀柔区,116.6782029,40.39892579
雁栖湖-龙舟,风景名胜,风景名胜,风景名胜,雁水路3号雁栖湖游乐园内,北京市,北京市,怀柔区,116.6735599,40.40067093
木茅屋,风景名胜,风景名胜,风景名胜,京加路附近,北京市,北京市,怀柔区,116.6779755,40.39916813
雁栖湖-北台上水库,风景名胜,风景名胜,风景名胜,雁水路3号雁栖湖公园内,北京市,北京市,怀柔区,116.6709986,40.39732301
雁栖湖-滨水观,风景名胜,风景名胜,风景名胜,雁水路3号雁栖湖,北京市,北京市,怀柔区,116.6723385,40.39192532
雁栖湖-迎客松,风景名胜,风景名胜,风景名胜,雁水路3号雁栖湖游乐园内,北京市,北京市,怀柔区,116.6790778,40.39652101
雁栖湖-望湖亭,风景名胜,风景名胜,风景名胜,雁水路6号,北京市,北京市,怀柔区,116.6759829,40.3936778
雁栖湖-牵手,风景名胜,风景名胜,风景名胜,雁水路3号雁栖湖游乐园内,北京市,北京市,怀柔区,116.6793429,40.39718129
雁栖湖-银杏林,风景名胜,风景名胜,风景名胜,雁水路3号雁栖湖游乐园内,北京市,北京市,怀柔区,116.6795135,40.39720496
雁栖湖喷泉,风景名胜,风景名胜,风景名胜,雁水路3号雁栖湖游乐园内,北京市,北京市,怀柔区,116.6793241,40.39657654
北京冶仙塔旅游风景区,风景名胜,风景名胜,省级景点,檀营乡檀营村冶山,北京市,北京市,密云区,116.8609563,40.40030536
辛安庄鸡鸣山景区,风景名胜,风景名胜,风景名胜,辛沙路南200米,北京市,北京市,密云区,116.970402,40.39960672
沙厂水库,风景名胜,风景名胜相关,旅游景点,京承高速穆家寨出口附近(近羊山桥),北京市,北京市,密云区,116.9859429,40.39757566
康西草原,风景名胜,风景名胜,风景名胜,康庄镇西侧017县道旁,北京市,北京市,延庆区,115.8338121,40.38924507
冰川绿谷沟域,风景名胜,风景名胜,风景名胜,昌赤路南50米,北京市,北京市,延庆区,116.2498993,40.38414215
坏沙河山庄,风景名胜,风景名胜相关,旅游景点,渤三路南100米,北京市,北京市,怀柔区,116.5297504,40.38194764
红螺寺-景区天门,风景名胜,风景名胜,风景名胜,卢庄村北红螺东路2号红螺寺内,北京市,北京市,怀柔区,116.616901,40.38540608
红螺寺,风景名胜,风景名胜,国家级景点,红螺东路2号,北京市,北京市,怀柔区,116.6201718,40.38286842
雁栖湖畔,风景名胜,风景名胜相关,旅游景点,,北京市,北京市,怀柔区,116.6476736,40.38757548
雕塑公园,风景名胜,风景名胜相关,旅游景点,雁水路3号雁栖湖,北京市,北京市,怀柔区,116.6615469,40.38855622
滨河公园-康居社区文化广场,风景名胜,公园广场,城市广场,党校路与城后街交叉口南150米,北京市,北京市,密云区,116.8373103,40.38138373
密西公园,风景名胜,公园广场,公园,新北路21号,北京市,北京市,密云区,116.840242,40.3849677
云启公园,风景名胜,公园广场,公园,滨河路18号,北京市,北京市,密云区,116.8418249,40.38338697
白河护城古堤,风景名胜,风景名胜,风景名胜,滨河路东50米,北京市,北京市,密云区,116.8429235,40.38512726
法制公园,风景名胜,公园广场,公园,城后街与行宫街交叉口东150米,北京市,北京市,密云区,116.8577287,40.38254415
大致公园,风景名胜,公园广场,公园,行宫街43号,北京市,北京市,密云区,116.8562356,40.38397158
麻梨崖柏,风景名胜,风景名胜相关,旅游景点,百世城商业街5-115号附近,北京市,北京市,密云区,116.849523,40.38534203
澹泊敬诚,风景名胜,风景名胜相关,旅游景点,新东路25号附近,北京市,北京市,密云区,116.8520248,40.38426927
金鼎湖风景区(暂停营业),风景名胜,风景名胜,风景名胜,巨各庄镇沙厂村沙厂水库,北京市,北京市,密云区,117.031587,40.38704738
康馨公园,风景名胜,风景名胜,风景名胜,西官路南100米,北京市,北京市,延庆区,115.8930778,40.37181985
北京基督教会延庆堂康庄聚会点,风景名胜,风景名胜,教堂,兴隆商业街与文汇街交叉口北100米,北京市,北京市,延庆区,115.8955087,40.37544981
延寿寺盘龙松风景区,风景名胜,风景名胜,风景名胜,黑山寨村北,北京市,北京市,昌平区,116.3224949,40.37521386
延寿寺寺院,风景名胜,风景名胜相关,旅游景点,,北京市,北京市,昌平区,116.3204696,40.37521776
栗花沟,风景名胜,风景名胜,风景名胜,渤海镇三渡河路口西,北京市,北京市,怀柔区,116.5472808,40.37682297
红螺塔,风景名胜,风景名胜,风景名胜,卢庄村北红螺东路2号红螺寺内,北京市,北京市,怀柔区,116.6192793,40.37557482
红螺山山野公园,风景名胜,公园广场,公园,红螺路西50米,北京市,北京市,怀柔区,116.6146001,40.37370718
红螺寺-红螺山,风景名胜,风景名胜,风景名胜,红螺路2123号,北京市,北京市,怀柔区,116.6242017,40.37987961
红螺寺-柏树林区,风景名胜,风景名胜,风景名胜,怀柔镇卢庄村北红螺东路2号红螺寺内,北京市,北京市,怀柔区,116.6250952,40.37815804
红螺寺-红叶林区,风景名胜,风景名胜,风景名胜,怀柔镇卢庄村北红螺东路2号红螺寺内,北京市,北京市,怀柔区,116.6215827,40.37977583
红螺寺-岭上长廊,风景名胜,风景名胜,风景名胜,怀柔镇卢庄村北红螺东路2号红螺寺内,北京市,北京市,怀柔区,116.6250949,40.3807062
红螺寺-观景台,风景名胜,风景名胜,风景名胜,怀柔镇卢庄村北红螺东路2号红螺寺内,北京市,北京市,怀柔区,116.6275102,40.37932647
红螺寺-青龙山,风景名胜,风景名胜,风景名胜,怀柔镇卢庄村北红螺东路2号红螺寺内,北京市,北京市,怀柔区,116.6207269,40.37453953
红螺寺-紫藤寄松,风景名胜,风景名胜,风景名胜,怀柔镇卢庄村北红螺东路2号红螺寺护国资福禅寺内,北京市,北京市,怀柔区,116.6201917,40.37573675
红螺寺-青龙石雕,风景名胜,风景名胜,风景名胜,怀柔镇卢庄村北红螺东路2号红螺寺内,北京市,北京市,怀柔区,116.6211342,40.37423216
红螺寺-雌雄银杏,风景名胜,风景名胜,风景名胜,怀柔镇卢庄村北红螺东路2号红螺寺护国资福禅寺内,北京市,北京市,怀柔区,116.6201697,40.37544287
红螺寺-吉祥大钟,风景名胜,风景名胜,风景名胜,怀柔镇卢庄村北红螺东路2号红螺寺内,北京市,北京市,怀柔区,116.6213579,40.38120162
红螺寺-慈航观音,风景名胜,风景名胜,风景名胜,怀柔镇卢庄村北红螺东路2号红螺寺内,北京市,北京市,怀柔区,116.620295,40.37952039
红螺寺-普慈观音,风景名胜,风景名胜,风景名胜,怀柔镇卢庄村北红螺东路2号红螺寺内,北京市,北京市,怀柔区,116.6196445,40.37671804
红螺寺-三圣殿,风景名胜,风景名胜,风景名胜,怀柔镇卢庄村北红螺东路2号红螺寺护国资福禅寺内,北京市,北京市,怀柔区,116.6203035,40.3758106
红螺寺-甘露安养观音,风景名胜,风景名胜,风景名胜,怀柔镇卢庄村北红螺东路2号红螺寺内,北京市,北京市,怀柔区,116.6204158,40.37960523
红螺泉,风景名胜,风景名胜,风景名胜,怀柔镇卢庄村北红螺东路2号红螺寺内,北京市,北京市,怀柔区,116.6204374,40.37458885
红螺寺-般若修真观音,风景名胜,风景名胜,风景名胜,怀柔镇卢庄村北红螺东路2号红螺寺内,北京市,北京市,怀柔区,116.6196285,40.37684102
红螺寺-洒水观音,风景名胜,风景名胜,风景名胜,怀柔镇卢庄村北红螺东路2号红螺寺内,北京市,北京市,怀柔区,116.6202831,40.37937845
红螺寺-普陀岩上观音,风景名胜,风景名胜,风景名胜,卢庄村北红螺东路2号红螺寺内,北京市,北京市,怀柔区,116.6203012,40.37816183
红螺寺-送子观音,风景名胜,风景名胜,风景名胜,卢庄村北红螺东路2号红螺寺内,北京市,北京市,怀柔区,116.6204478,40.37869349
红螺寺-竹林,风景名胜,风景名胜,风景名胜,怀柔镇卢庄村北红螺东路2号红螺寺内,北京市,北京市,怀柔区,116.6207109,40.37490343
红螺寺-大慈大悲观音,风景名胜,风景名胜,风景名胜,卢庄村北红螺东路2号红螺寺内,北京市,北京市,怀柔区,116.6204846,40.37992405
红螺寺-合掌观音,风景名胜,风景名胜,风景名胜,卢庄村北红螺东路2号红螺寺内,北京市,北京市,怀柔区,116.6201016,40.37767222
红螺寺-紫云来,风景名胜,风景名胜相关,旅游景点,怀柔镇卢庄村北红螺东路2号红螺寺内,北京市,北京市,怀柔区,116.6207646,40.37611198
红螺寺-达摩祖师殿,风景名胜,风景名胜,风景名胜,卢庄村北红螺东路2号红螺寺护国资福禅寺内,北京市,北京市,怀柔区,116.6199551,40.37583099
红螺寺-赏叶亭,风景名胜,风景名胜,风景名胜,怀柔镇卢庄村北红螺东路2号红螺寺内,北京市,北京市,怀柔区,116.6248925,40.37861115
红螺寺-水月观音,风景名胜,风景名胜,风景名胜,怀柔镇卢庄村北红螺东路2号红螺寺内,北京市,北京市,怀柔区,116.6200737,40.37742033
红螺寺-鱼篮观音,风景名胜,风景名胜,风景名胜,怀柔镇卢庄村北红螺东路2号红螺寺内,北京市,北京市,怀柔区,116.6204698,40.37850253
红螺寺-普同堂,风景名胜,风景名胜,风景名胜,卢庄村北红螺东路2号红螺寺内,北京市,北京市,怀柔区,116.6198463,40.37552521
红螺寺-松海慈云,风景名胜,风景名胜,风景名胜,怀柔镇卢庄村北红螺东路2号红螺寺内,北京市,北京市,怀柔区,116.6215942,40.37505336
红螺寺-数珠观音,风景名胜,风景名胜,风景名胜,卢庄村北红螺东路2号红螺寺内,北京市,北京市,怀柔区,116.6198481,40.37722665
红螺寺-古松林,风景名胜,风景名胜,风景名胜,怀柔镇卢庄村北红螺东路2号红螺寺内,北京市,北京市,怀柔区,116.6213048,40.3744369
红螺寺-莲池观音,风景名胜,风景名胜,风景名胜,怀柔镇卢庄村北红螺东路2号红螺寺内,北京市,北京市,怀柔区,116.6200787,40.37736335
红螺寺-如意观音,风景名胜,风景名胜,风景名胜,怀柔镇卢庄村北红螺东路2号红螺寺内,北京市,北京市,怀柔区,116.6202234,40.37776705
红螺寺-观竹亭,风景名胜,风景名胜,风景名胜,卢庄村北红螺东路2号红螺寺内,北京市,北京市,怀柔区,116.6196308,40.37471071
红螺寺-持净观音,风景名胜,风景名胜,风景名胜,怀柔镇卢庄村北红螺东路2号红螺寺内,北京市,北京市,怀柔区,116.6203939,40.37925437
红螺寺-六时观音,风景名胜,风景名胜,风景名胜,怀柔镇卢庄村北红螺东路2号红螺寺内,北京市,北京市,怀柔区,116.6197203,40.37692989
红螺寺-竹林观音,风景名胜,风景名胜,风景名胜,怀柔镇卢庄村北红螺东路2号红螺寺内,北京市,北京市,怀柔区,116.6203351,40.37807782
红螺寺-佛法无边观音,风景名胜,风景名胜,风景名胜,怀柔镇卢庄村北红螺东路2号红螺寺内,北京市,北京市,怀柔区,116.6204428,40.37887044
红螺寺-罗汉园,风景名胜,风景名胜,风景名胜,怀柔镇卢庄村北红螺东路2号红螺寺内,北京市,北京市,怀柔区,116.6214224,40.37613221
红螺寺-弥勒大佛,风景名胜,风景名胜,风景名胜,怀柔镇卢庄村北红螺东路2号红螺寺内,北京市,北京市,怀柔区,116.6244477,40.37646742
红螺寺-莲叶观音,风景名胜,风景名胜,风景名胜,卢庄村北红螺东路2号红螺寺内,北京市,北京市,怀柔区,116.6206115,40.37905619
红螺寺-白衣观音,风景名胜,风景名胜,风景名胜,怀柔镇卢庄村北红螺东路2号红螺寺内,北京市,北京市,怀柔区,116.6202343,40.377898
红螺寺-福寿居,风景名胜,风景名胜,风景名胜,怀柔镇卢庄村北红螺东路2号红螺寺内,北京市,北京市,怀柔区,116.6212358,40.37549863
红螺寺-宝鼎赐福,风景名胜,风景名胜,风景名胜,怀柔镇卢庄村北红螺东路2号红螺寺内,北京市,北京市,怀柔区,116.619597,40.37373207
红螺寺-延命观音,风景名胜,风景名胜,风景名胜,卢庄村北红螺东路2号红螺寺内,北京市,北京市,怀柔区,116.6202792,40.37811487
红螺寺-德王观音,风景名胜,风景名胜,风景名胜,卢庄村北红螺东路2号红螺寺内,北京市,北京市,怀柔区,116.6202203,40.37797699
红螺寺-童子拜观音,风景名胜,风景名胜,风景名胜,卢庄村北红螺东路2号红螺寺内,北京市,北京市,怀柔区,116.6203531,40.37826274
红螺寺-大雄宝殿,风景名胜,风景名胜相关,旅游景点,卢庄村北红螺东路2号红螺寺护国资福禅寺内,北京市,北京市,怀柔区,116.6202156,40.37559977
红螺寺-净水观音,风景名胜,风景名胜,风景名胜,卢庄村北红螺东路2号红螺寺内,北京市,北京市,怀柔区,116.619891,40.37729058
红螺寺-牡丹园,风景名胜,风景名胜,风景名胜,卢庄村北红螺东路2号红螺寺内,北京市,北京市,怀柔区,116.6204224,40.37499573
红螺寺-观音菩萨,风景名胜,风景名胜,风景名胜,卢庄村北红螺东路2号红螺寺内,北京市,北京市,怀柔区,116.6204668,40.37874246
红螺寺-生肖园,风景名胜,风景名胜,风景名胜,卢庄村北红螺东路2号红螺寺内,北京市,北京市,怀柔区,116.6218358,40.37516304
红螺寺-叶衣观音,风景名胜,风景名胜,风景名胜,卢庄村北红螺东路2号红螺寺内,北京市,北京市,怀柔区,116.6202193,40.37797699
红螺寺-双喜大钟,风景名胜,风景名胜,风景名胜,卢庄村北红螺东路2号红螺寺内,北京市,北京市,怀柔区,116.6206879,40.37524535
红螺寺-伽蓝殿,风景名胜,风景名胜,风景名胜,卢庄村北红螺东路2号红螺寺护国资福禅寺内,北京市,北京市,怀柔区,116.6204223,40.37544958
红螺塔,风景名胜,风景名胜,风景名胜,卢庄村北红螺东路2号红螺寺内,北京市,北京市,怀柔区,116.6192793,40.37557482
红螺寺-云游观音,风景名胜,风景名胜,风景名胜,卢庄村北红螺东路2号红螺寺内,北京市,北京市,怀柔区,116.6197852,40.37714075
红螺寺-岩户观音,风景名胜,风景名胜,风景名胜,卢庄村北红螺东路2号红螺寺内,北京市,北京市,怀柔区,116.620362,40.3783487
红螺寺-龙海观音,风景名胜,风景名胜,风景名胜,卢庄村北红螺东路2号红螺寺内,北京市,北京市,怀柔区,116.6205884,40.38010987
红螺寺-天王殿,风景名胜,风景名胜,风景名胜,怀柔镇卢庄村北红螺东路2号红螺寺护国资福禅寺内,北京市,北京市,怀柔区,116.6202915,40.37529278
红螺寺-骑鲤观音,风景名胜,风景名胜,风景名胜,卢庄村北红螺东路2号红螺寺内,北京市,北京市,怀柔区,116.6204439,40.37848457
红螺寺-泷见观音,风景名胜,风景名胜,风景名胜,卢庄村北红螺东路2号红螺寺内,北京市,北京市,怀柔区,116.6199119,40.37757147
红螺寺-步步踏莲苍观音,风景名胜,风景名胜,风景名胜,卢庄村北红螺东路2号红螺寺内,北京市,北京市,怀柔区,116.6205884,40.38010987
红螺寺-普陀修持观音,风景名胜,风景名胜,风景名胜,卢庄村北红螺东路2号红螺寺内,北京市,北京市,怀柔区,116.6203531,40.37826274
红螺寺-千手观音殿,风景名胜,风景名胜,风景名胜,卢庄村北红螺东路2号红螺寺护国资福禅寺内,北京市,北京市,怀柔区,116.6204143,40.37584546
红螺寺-古茶树,风景名胜,公园广场,公园,圣泉山观音寺,北京市,北京市,怀柔区,116.6253768,40.37721499
红螺寺-牛,风景名胜,风景名胜,风景名胜,卢庄村北红螺东路2号红螺寺生肖园内,北京市,北京市,怀柔区,116.6212697,40.37642729
红螺寺-赐福桥,风景名胜,风景名胜,风景名胜,卢庄村北红螺东路2号红螺寺内,北京市,北京市,怀柔区,116.6203056,40.37453401
红螺寺-螺仙润,风景名胜,风景名胜,风景名胜,卢庄村北红螺东路2号红螺寺内,北京市,北京市,怀柔区,116.6206021,40.37474261
红螺寺-撞金钱眼,风景名胜,风景名胜,风景名胜,卢庄村北红螺东路2号红螺寺内,北京市,北京市,怀柔区,116.6202867,40.37452804
红螺寺-彩叶林,风景名胜,风景名胜,风景名胜,卢庄村北红螺东路2号红螺寺内,北京市,北京市,怀柔区,116.6240963,40.37707167
红螺寺-舍利文物馆,风景名胜,风景名胜,风景名胜,卢庄村北红螺东路2号红螺寺内,北京市,北京市,怀柔区,116.6204163,40.3757285
红螺寺-狗,风景名胜,风景名胜,风景名胜,卢庄村北红螺东路2号红螺寺生肖园内,北京市,北京市,怀柔区,116.6226211,40.37733639
红螺寺-羊,风景名胜,风景名胜,风景名胜,卢庄村北红螺东路2号红螺寺生肖园内,北京市,北京市,怀柔区,116.6233049,40.37650583
红螺寺-虎,风景名胜,风景名胜,风景名胜,卢庄村北红螺东路2号红螺寺生肖园内,北京市,北京市,怀柔区,116.6244476,40.37727116
红螺寺-猴,风景名胜,风景名胜,风景名胜,卢庄村北红螺东路2号红螺寺生肖园内,北京市,北京市,怀柔区,116.6226292,40.37611578
红螺寺-蛇,风景名胜,风景名胜,风景名胜,卢庄村北红螺东路2号红螺寺生肖园内,北京市,北京市,怀柔区,116.6233366,40.3780223
红螺寺-鼠,风景名胜,风景名胜,风景名胜,卢庄村北红螺东路2号红螺寺生肖园内,北京市,北京市,怀柔区,116.6224943,40.37713861
红螺寺-马,风景名胜,风景名胜,风景名胜,卢庄村北红螺东路2号红螺寺生肖园内,北京市,北京市,怀柔区,116.6224576,40.37557416
红螺寺-景区叠翠厅,风景名胜,风景名胜,风景名胜,红螺寺景区内,北京市,北京市,怀柔区,116.6256873,40.37566009
红螺寺-鸡,风景名胜,风景名胜,风景名胜,卢庄村北红螺东路2号红螺寺生肖园内,北京市,北京市,怀柔区,116.623701,40.37737406
红螺寺-猪,风景名胜,风景名胜,风景名胜,卢庄村北红螺东路2号红螺寺生肖园内,北京市,北京市,怀柔区,116.6228897,40.37647635
红螺寺-盛茂和尚塔,风景名胜,风景名胜,风景名胜,卢庄村北红螺东路2号红螺寺内,北京市,北京市,怀柔区,116.6245016,40.37657532
红螺寺-天门,风景名胜,风景名胜,风景名胜,怀柔镇卢庄村北红螺东路2号红螺寺内,北京市,北京市,怀柔区,116.6251122,40.37776615
红螺寺-呈秀园,风景名胜,风景名胜,风景名胜,红螺东路2号,北京市,北京市,怀柔区,116.6241318,40.37248811
红螺池,风景名胜,风景名胜,风景名胜,怀柔镇卢庄村北红螺东路2号红螺寺内,北京市,北京市,怀柔区,116.6203466,40.37446999
红螺寺-山门,风景名胜,风景名胜,风景名胜,,北京市,北京市,怀柔区,116.6251068,40.37287575
红螺寺-管理处,风景名胜,风景名胜,风景名胜,红螺路北100米,北京市,北京市,怀柔区,116.6199346,40.37185429
红螺寺-花房,风景名胜,风景名胜相关,旅游景点,卢庄村北红螺东路2号红螺寺内,北京市,北京市,怀柔区,116.6206129,40.37594021
红螺寺-钟楼,风景名胜,风景名胜相关,旅游景点,卢庄村北红螺东路2号红螺寺护国资福禅寺内,北京市,北京市,怀柔区,116.6205142,40.37527154
红螺寺-存香处,风景名胜,风景名胜相关,旅游景点,卢庄村北红螺东路2号红螺寺内,北京市,北京市,怀柔区,116.6194312,40.37393518
红螺寺-滑道上站,风景名胜,风景名胜相关,旅游景点,卢庄村北红螺东路2号红螺寺内,北京市,北京市,怀柔区,116.6216759,40.37666774
橡树林区,风景名胜,公园广场,植物园,怀柔镇卢庄村北红螺东路2号红螺寺内,北京市,北京市,怀柔区,116.6216903,40.38079636
北京红螺寺景区红螺山顶,风景名胜,公园广场,公园内部设施,,北京市,北京市,怀柔区,116.6272109,40.37863111
密虹公园-密虹文化广场,风景名胜,公园广场,城市广场,新西路与西门外大街交叉口东南50米,北京市,北京市,密云区,116.8290368,40.37609041
大公主府,风景名胜,风景名胜,风景名胜,美术馆后街23号,北京市,北京市,密云区,116.8335507,40.37960355
密虹公园,风景名胜,公园广场,公园,西滨河路,北京市,北京市,密云区,116.8299807,40.37478858
密云清真寺,风景名胜,风景名胜,回教寺,光明街与清真胡同交叉口东,北京市,北京市,密云区,116.8363187,40.372083
公园街与鼓楼西大街,风景名胜,公园广场,公园,密云路长安小区一号四门国家电网西北侧附近,北京市,北京市,密云区,116.8340903,40.37475412
滨河公园,风景名胜,公园广场,公园,公园街,北京市,北京市,密云区,116.8361162,40.38085077
天女散花,风景名胜,风景名胜,风景名胜,滨河路与鼓楼西大街交叉口西北50米,北京市,北京市,密云区,116.8341684,40.37508915
密云区清真寺管委会,风景名胜,风景名胜,风景名胜,南更大街77号附近,北京市,北京市,密云区,116.8363177,40.37208299
玉兰公园,风景名胜,公园广场,公园,新中街37号,北京市,北京市,密云区,116.8449916,40.37996446
时光公园,风景名胜,公园广场,公园,区公园街(密云二中对面),北京市,北京市,密云区,116.8397517,40.38071226
阳光公园,风景名胜,公园广场,公园,鼓楼南大街2号,北京市,北京市,密云区,116.8393447,40.37470252
大成殿,风景名胜,风景名胜相关,旅游景点,河西鼓楼东大街31号,北京市,北京市,密云区,116.8419962,40.37515197
张仲景雕像,风景名胜,风景名胜,风景名胜,新中街39号,北京市,北京市,密云区,116.8449768,40.37829299
长城环岛店,风景名胜,风景名胜,风景名胜,华冠大厦底商,北京市,北京市,密云区,116.8578982,40.37282157
行宫,风景名胜,风景名胜相关,旅游景点,行宫小区,北京市,北京市,密云区,116.8582217,40.37987471
北京张裕爱斐堡国际酒庄,风景名胜,风景名胜,国家级景点,巨各庄镇宁菜路与密三路交汇处东南侧,北京市,北京市,密云区,116.8948692,40.37533171
葡萄长廊,风景名胜,风景名胜,风景名胜,巨各庄东白岩(近蔡家洼)北京张裕爱斐堡国际酒庄内,北京市,北京市,密云区,116.8959558,40.37330837
酒韵公园,风景名胜,公园广场,公园,密三路南50米,北京市,北京市,密云区,116.9006377,40.37827518
首云国家矿山公园,风景名胜,公园广场,公园,巨各庄镇豆各庄村,北京市,北京市,密云区,117.0075366,40.37782383
城隍庙,风景名胜,风景名胜,寺庙道观,榆林堡小北街西100米,北京市,北京市,延庆区,115.8727496,40.37109446
榆林驿城遗址,风景名胜,风景名胜,风景名胜,榆林堡东大街与西官路交叉口西南50米,北京市,北京市,延庆区,115.8775203,40.36987379
阳关,风景名胜,风景名胜相关,旅游景点,216省道与G6京藏高速交叉口东南100米,北京市,北京市,延庆区,115.943441,40.36267019
城隍庙,风景名胜,风景名胜,寺庙道观,岔西环岛与岔道路交叉口东北200米,北京市,北京市,延庆区,115.9873568,40.36394594
岔西雄关,风景名胜,风景名胜,风景名胜,岔西环岛,北京市,北京市,延庆区,115.9871017,40.36392072
岔道古城民俗旅游度假区(暂停营业),风景名胜,风景名胜,风景名胜,八达岭关城西北八达岭镇岔道村,北京市,北京市,延庆区,115.9865148,40.36363859
岔道清真寺,风景名胜,风景名胜,回教寺,岔道村(近八达岭长城),北京市,北京市,延庆区,115.9884262,40.36335387
新长城庄园(原探戈坞音乐谷),风景名胜,风景名胜,风景名胜,八达岭高速水关长城出口东侧,北京市,北京市,延庆区,116.0362937,40.36782385
碓臼峪自然风景区,风景名胜,风景名胜,风景名胜,长陵镇碓臼峪村北,北京市,北京市,昌平区,116.2001934,40.36387058
碓臼峪自然风景区-大岭沟风景区,风景名胜,风景名胜,风景名胜,下大路北50米,北京市,北京市,昌平区,116.2184273,40.36841064
碓臼峪自然风景区-猕猴桃谷风景区,风景名胜,风景名胜,风景名胜,下大路东50米,北京市,北京市,昌平区,116.2187498,40.36815401
碓臼峪自然风景区-大岭沟民俗村,风景名胜,风景名胜,风景名胜,长陵镇大岭沟民俗村,北京市,北京市,昌平区,116.2197935,40.36730619
延寿寺,风景名胜,风景名胜,寺庙道观,乘345路到昌平北站换乘至九渡河长途车,北京市,北京市,昌平区,116.3244691,40.36970583
地藏院,风景名胜,风景名胜,寺庙道观,怀黄公路与005县道交叉口北200米,北京市,北京市,怀柔区,116.5543477,40.36221512
圣泉山山野公园,风景名胜,公园广场,公园,怀黄公路北50米,北京市,北京市,怀柔区,116.5650633,40.36266207
圣泉寺,风景名胜,风景名胜,寺庙道观,桥梓镇口头村,北京市,北京市,怀柔区,116.5759362,40.36437678
圣泉山滑道,风景名胜,风景名胜相关,旅游景点,,北京市,北京市,怀柔区,116.5722822,40.36520167
西三村灵慧山景区,风景名胜,风景名胜,风景名胜,怀黄公路与西甘路交叉口北100米,北京市,北京市,怀柔区,116.5899382,40.36331051
福彩文化主题公园,风景名胜,公园广场,公园,红螺路东50米,北京市,北京市,怀柔区,116.6137718,40.36921938
北京生存岛实践基地(暂停营业),风景名胜,风景名胜,省级景点,红螺东路6号生存岛内,北京市,北京市,怀柔区,116.6351273,40.36369238
爱国社,风景名胜,风景名胜,风景名胜,范各庄村路西50米,北京市,北京市,怀柔区,116.6569093,40.36279845
状元胡同,风景名胜,风景名胜相关,旅游景点,范各庄村路西50米,北京市,北京市,怀柔区,116.6573191,40.36329552
榨油房,风景名胜,风景名胜相关,旅游景点,范各庄村路西50米,北京市,北京市,怀柔区,116.6586182,40.36502551
关公庙,风景名胜,风景名胜,寺庙道观,雁栖范各庄村53号,北京市,北京市,怀柔区,116.6599113,40.36688446
刘泽故居,风景名胜,风景名胜,纪念馆,范各庄村路东50米,北京市,北京市,怀柔区,116.6597109,40.36630502
秘密多肉植物园,风景名胜,公园广场,植物园,京加路与工业小区路交叉口西100米,北京市,北京市,怀柔区,116.6594032,40.36286469
怀柔雁栖镇法治文化公园,风景名胜,公园广场,公园,雁栖河西路,北京市,北京市,怀柔区,116.6696615,40.36523923
风车广场,风景名胜,公园广场,公园广场,京加路附近,北京市,北京市,怀柔区,116.6698256,40.36876181
飞鸿世纪园,风景名胜,风景名胜,风景名胜,新南路与西大桥路交叉口南50米,北京市,北京市,密云区,116.8303543,40.36726067
奥林公园,风景名胜,公园广场,公园,滨河路26,北京市,北京市,密云区,116.8322435,40.3699233
密云全民体育健身园,风景名胜,公园广场,公园,光明街与滨河路交叉口西130米(近鼓楼西大街),北京市,北京市,密云区,116.831973,40.36973787
太扬公园,风景名胜,公园广场,公园,农机路与滨河路交叉口西南50米,北京市,北京市,密云区,116.8306113,40.36388721
檀州家园社区文化广场,风景名胜,公园广场,城市广场,京密路与南更大街交叉口西南100米,北京市,北京市,密云区,116.8360958,40.36770299
密之水,风景名胜,公园广场,城市广场,滨河路与西大桥路交汇处西北150米,北京市,北京市,密云区,116.8308851,40.36897711
中加公园,风景名胜,公园广场,公园,农机路1号,北京市,北京市,密云区,116.8292437,40.36356978
黄门,风景名胜,风景名胜相关,旅游景点,新中街179号-10,北京市,北京市,密云区,116.8462122,40.3668907
真马水峪,风景名胜,风景名胜相关,旅游景点,,北京市,北京市,密云区,117.0906173,40.36862852
梨花顶风景区,风景名胜,风景名胜,风景名胜,东寺峪村,北京市,北京市,平谷区,117.17734,40.36834084
核桃洼野狼谷,风景名胜,风景名胜相关,旅游景点,镇罗营镇核桃洼村,北京市,北京市,平谷区,117.1932476,40.36747834
八达岭里炮红苹果度假村,体育休闲服务,度假疗养场所,度假村|风景名胜,八达岭镇里炮村八达岭里,北京市,北京市,延庆区,115.9252232,40.35323704
八达岭长城-长城天地,风景名胜,风景名胜,风景名胜,八达岭高速路八达岭长城出口西侧,北京市,北京市,延庆区,115.9820914,40.36022597
八达岭野生动物世界-鸵鸟,风景名胜,风景名胜,风景名胜,八达岭镇八达岭野生动物园内,北京市,北京市,延庆区,115.993515,40.35195683
八达岭野生动物世界-孔雀园,风景名胜,风景名胜相关,旅游景点,八达岭镇八达岭野生动物园内,北京市,北京市,延庆区,115.9929778,40.35309713
八达岭野生动物世界-葵花凤头鹦鹉,风景名胜,风景名胜相关,旅游景点,八达岭镇八达岭野生动物园内,北京市,北京市,延庆区,115.9934253,40.35223702
八达岭索道,风景名胜,风景名胜,风景名胜,G6京藏高速与G6京藏高速出口交叉口北150米,北京市,北京市,延庆区,115.9948246,40.35919864
八达岭野生动物世界-琉璃金刚鹦鹉,风景名胜,风景名胜相关,旅游景点,八达岭镇八达岭野生动物园内,北京市,北京市,延庆区,115.9932658,40.35245844
八达岭野生动物世界-白虎,风景名胜,风景名胜,风景名胜,八达岭野生动物世界内,北京市,北京市,延庆区,115.9891289,40.35436948
八达岭野生动物世界-丹顶鹤,风景名胜,风景名胜,风景名胜,八达岭野生动物世界内,北京市,北京市,延庆区,115.9923948,40.35332884
八达岭野生动物世界-金毛扭角羚,风景名胜,风景名胜相关,旅游景点,八达岭镇八达岭野生动物园内,北京市,北京市,延庆区,115.9935439,40.35250657
八达岭野生动物世界-狼,风景名胜,风景名胜,风景名胜,青龙桥隧道,北京市,北京市,延庆区,115.9893295,40.35207855
八达岭野生动物世界-关隘,风景名胜,风景名胜相关,旅游景点,G6京藏高速58号出口八达岭长城,北京市,北京市,延庆区,115.9948602,40.35296342
八达岭长城-好汉碑,风景名胜,风景名胜,风景名胜,G6京藏高速58号出口八达岭长城内,北京市,北京市,延庆区,116.0063416,40.35378341
八达岭长城-詹天佑纪念馆,风景名胜,风景名胜,纪念馆,G6京藏高速58号出口八达岭长城北侧,北京市,北京市,延庆区,116.0006805,40.35697949
北二楼,风景名胜,风景名胜,风景名胜,G6京藏高速58号出口八达岭长城内,北京市,北京市,延庆区,116.0080536,40.35532685
八达岭长城-北一楼,风景名胜,风景名胜,风景名胜,G6京藏高速58号出口八达岭景区内,北京市,北京市,延庆区,116.0068079,40.35470074
八达岭长城-望京石,风景名胜,风景名胜,风景名胜,G6京藏高速58号出口八达岭长城内,北京市,北京市,延庆区,116.0077069,40.35395429
八达岭长城-瓮城,风景名胜,风景名胜,风景名胜,G6京藏高速58号出口八达岭长城内,北京市,北京市,延庆区,116.0071667,40.35404387
八达岭长城-神威大将军炮,风景名胜,风景名胜,风景名胜,G6京藏高速58号出口八达岭长城内,北京市,北京市,延庆区,116.0065469,40.35382878
八达岭长城-八达岭国际友谊林,风景名胜,风景名胜,风景名胜,G6京藏高速58号出口八达岭长城内,北京市,北京市,延庆区,116.0051465,40.3547317
八达岭长城-最美赏红箭窗,风景名胜,风景名胜,风景名胜,G6京藏高速58号出口八达岭长城内,北京市,北京市,延庆区,116.0061892,40.35322103
八达岭长城-红叶树王,风景名胜,风景名胜,风景名胜,G6京藏高速58号出口八达岭长城内,北京市,北京市,延庆区,116.0061512,40.35380197
八达岭长城炮台,风景名胜,风景名胜,风景名胜,G6京藏高速58号出口八达岭长城内,北京市,北京市,延庆区,116.0087531,40.35608055
八达岭长城-北门锁钥,风景名胜,风景名胜,风景名胜,G6京藏高速58号出口八达岭长城内,北京市,北京市,延庆区,116.0063823,40.35451706
八达岭长城-南二楼,风景名胜,风景名胜,风景名胜,G6京藏高速58号出口八达岭长城内,北京市,北京市,延庆区,116.005926,40.35336277
八达岭长城-南3楼,风景名胜,风景名胜,风景名胜,216省道八达岭长城内,北京市,北京市,延庆区,116.0059641,40.35205105
南一楼,风景名胜,风景名胜,风景名胜,G6京藏高速58号出口八达岭长城内,北京市,北京市,延庆区,116.0061243,40.35391002
八达岭长城-缘福驿,风景名胜,风景名胜,风景名胜,G6京藏高速58号出口八达岭长城内(詹天佑纪念馆对面),北京市,北京市,延庆区,116.0015138,40.35625119
八达岭长城-文化墙,风景名胜,风景名胜,风景名胜,八达岭长城景区内,北京市,北京市,延庆区,116.0070033,40.35431727
八达岭长城-烽火台,风景名胜,风景名胜,风景名胜,G6京藏高速58号出口八达岭长城内,北京市,北京市,延庆区,116.0085359,40.35612917
八达岭长城望京文化广场,风景名胜,公园广场,城市广场|风景名胜,G6京藏高速58号出口八达岭长城内,北京市,北京市,延庆区,116.0076272,40.35400351
八达岭长城导游讲解处,风景名胜,风景名胜相关,旅游景点|生活服务,G6京藏高速58号出口八达岭长城内,北京市,北京市,延庆区,116.0066395,40.35394947
八达岭上山缆车,风景名胜,风景名胜相关,旅游景点,,北京市,北京市,延庆区,116.0074869,40.35984915
八达岭长城-燕塞雄关,风景名胜,风景名胜,风景名胜,G6京藏高速58号出口八达岭长城内,北京市,北京市,延庆区,116.002015,40.35655258
八达岭长城-居庸外镇,风景名胜,风景名胜,风景名胜,天府大道南段2039号极地海洋世界公园内,北京市,北京市,延庆区,116.0077568,40.35368522
八达岭长城,风景名胜,风景名胜,国家级景点,G6京藏高速58号出口,北京市,北京市,延庆区,116.0105583,40.35487359
上口民俗村,风景名胜,风景名胜,风景名胜,长陵镇上口民俗村,北京市,北京市,昌平区,116.2414855,40.35460629
团泉观音寺,风景名胜,风景名胜,寺庙道观,怀长路北100米,北京市,北京市,怀柔区,116.4306293,40.35739231
栗子树艺术区,风景名胜,风景名胜相关,旅游景点,九渡河镇团泉怀长路栗子树艺术区,北京市,北京市,怀柔区,116.4405845,40.35902586
月牙湾,风景名胜,风景名胜,风景名胜,九渡河镇,北京市,北京市,怀柔区,116.4433774,40.35286918
云阳仙境自然风景区,风景名胜,风景名胜,风景名胜,渤海镇怀黄路云阳仙境,北京市,北京市,怀柔区,116.5544371,40.36032584
红螺湖公园,风景名胜,公园广场,公园,红螺路与中刘路交叉口北,北京市,北京市,怀柔区,116.6176712,40.35743424
燕城水韵,风景名胜,风景名胜相关,旅游景点,京加路,北京市,北京市,怀柔区,116.6553989,40.36002016
燕城古街,风景名胜,风景名胜相关,旅游景点,雁栖镇范各庄村,北京市,北京市,怀柔区,116.65537,40.3600782
明珠生态休闲公园,风景名胜,公园广场,公园,京密路十里堡河槽镇(明珠花园小区对面),北京市,北京市,密云区,116.7857334,40.35202095
绿岛公园,风景名胜,公园广场,公园,东吉路与云腾路交叉口东150米,北京市,北京市,密云区,116.8173024,40.35268482
京东鑫桃源,风景名胜,风景名胜,风景名胜,镇罗营镇桃园大街11号,北京市,北京市,平谷区,117.1413027,40.36080781
八达岭滑雪场,体育休闲服务,运动场馆,滑雪场|风景名胜,八达岭镇经济开发区66号,北京市,北京市,延庆区,115.9517834,40.34588684
八达岭残长城,风景名胜,风景名胜,风景名胜,八达岭镇东沟村,北京市,北京市,延庆区,115.9654337,40.34916619
八达岭古长城自然风景区-顺天寨,风景名胜,风景名胜,风景名胜,西残路西50米,北京市,北京市,延庆区,115.9808987,40.34187497
八达岭野生动物世界-动物表演馆,风景名胜,公园广场,动物园,八达岭野生动物世界动物表演馆,北京市,北京市,延庆区,115.9886851,40.34156358
八达岭野生动物世界-佛岩寺,风景名胜,风景名胜,风景名胜,八达岭野生动物世界佛岩寺,北京市,北京市,延庆区,115.9883742,40.34157552
八达岭野生动物世界,风景名胜,公园广场,动物园,京藏高速公路58号出口右转200米,北京市,北京市,延庆区,115.9906831,40.34992507
八达岭野生动物世界-秃鹫,风景名胜,风景名胜,风景名胜,八达岭镇八达岭野生动物园内,北京市,北京市,延庆区,116.0000439,40.34782815
八达岭长城南7楼,风景名胜,风景名胜,风景名胜,八达岭镇八达岭长城内,北京市,北京市,延庆区,116.004429,40.34698514
八达岭长城-贵州碑亭,风景名胜,风景名胜,风景名胜,G6京藏高速58号出口八达岭长城内,北京市,北京市,延庆区,116.0040819,40.34860072
八达岭长城南4楼,风景名胜,风景名胜,风景名胜,海滨东路1号,北京市,北京市,延庆区,116.0027811,40.35090296
八达岭长城-南五楼,风景名胜,风景名胜,风景名胜,八达岭镇八达岭长城内,北京市,北京市,延庆区,116.003179,40.34903931
八达岭野生动物世界-玉兔园,风景名胜,风景名胜相关,旅游景点,八达岭镇八达岭野生动物园内,北京市,北京市,延庆区,116.0003519,40.34748731
八达岭长城-南六楼,风景名胜,风景名胜,风景名胜,G6京藏高速58号出口八达岭长城内,北京市,北京市,延庆区,116.0040661,40.34805992
八达岭国家森林公园-青龙桥,风景名胜,风景名胜,风景名胜,216省道与G6京藏高速交叉口东150米,北京市,北京市,延庆区,116.015814,40.34728663
八达岭国家森林公园-红叶岭,风景名胜,风景名胜,风景名胜,八达岭森林公安派出所东,北京市,北京市,延庆区,116.0170211,40.34780905
八达岭国家森林公园-青龙谷,风景名胜,风景名胜,风景名胜,森林公安派出所南(八达岭长城登城口往南2公里),北京市,北京市,延庆区,116.0144745,40.34619878
八达岭国家森林公园,风景名胜,风景名胜,省级景点,999县道(八达岭森林派出所南),北京市,北京市,延庆区,116.0231686,40.34296345
八达岭长城-詹天佑像,风景名胜,风景名胜,风景名胜,京张铁路青龙桥老站内,北京市,北京市,延庆区,116.0200561,40.35096363
山京沟森林公园,风景名胜,公园广场,公园,京银路附近,北京市,北京市,延庆区,116.1306023,40.34317941
北京十三陵双龙山森林公园,风景名胜,风景名胜,风景名胜,长陵镇碓臼峪风景区门前往西3公里,北京市,北京市,昌平区,116.159571,40.34351194
十三陵碓臼峪自然风景区,风景名胜,风景名胜,风景名胜,长陵镇碓臼峪村北,北京市,北京市,昌平区,116.1847104,40.34828162
大象讲寺,风景名胜,风景名胜,寺庙道观,657乡道北200米,北京市,北京市,怀柔区,116.5236014,40.34409166
峪泉湖庄园,风景名胜,风景名胜相关,旅游景点,桥梓镇峪口村,北京市,北京市,怀柔区,116.5268692,40.34257857
水德广场,风景名胜,公园广场,城市广场,怀柔镇,北京市,北京市,怀柔区,116.5846986,40.34318653
望月庭,风景名胜,风景名胜,风景名胜,台关路东100米,北京市,北京市,怀柔区,116.5906616,40.34262073
刘仕绥烈士之墓,风景名胜,风景名胜,风景名胜,富乐大街9号,北京市,北京市,怀柔区,116.6304573,40.34433917
奥康达智慧体育公园,风景名胜,风景名胜相关,旅游景点,中高路与忙牛河路交汇处,北京市,北京市,怀柔区,116.6848143,40.34631464
庄禾屯公园,风景名胜,公园广场,公园,图腾街16号,北京市,北京市,密云区,116.7797068,40.34658268
庄禾屯印刷文化园,风景名胜,公园广场,公园,十里堡,北京市,北京市,密云区,116.7793211,40.34850865
碧水公园,风景名胜,公园广场,公园,兴盛南路与右堤路交叉口东100米,北京市,北京市,密云区,116.8096965,40.34940279
密云玫瑰情园,风景名胜,风景名胜相关,旅游景点,巨各庄镇蔡家洼村宁蔡路,北京市,北京市,密云区,116.8992745,40.3495504
八达岭古长城自然风景区,风景名胜,风景名胜,国家级景点,八达岭镇东沟村,北京市,北京市,延庆区,115.9714185,40.33774481
八达岭野生动物世界-孟加拉虎,风景名胜,风景名胜,风景名胜,八达岭镇八达岭野生动物园内,北京市,北京市,延庆区,115.9931786,40.34108902
八达岭野长城断头台,风景名胜,风景名胜,风景名胜,,北京市,北京市,延庆区,115.9917991,40.33578272
八达岭国家森林公园-丁香谷,风景名胜,风景名胜相关,旅游景点,京藏高速与二一六市道交叉口南,北京市,北京市,延庆区,116.024515,40.33218987
八达岭国家森林公园-八达岭水关长城,风景名胜,风景名胜,国家级景点,八达岭石佛寺村,北京市,北京市,延庆区,116.0316609,40.33696417
八达岭国家森林公园-詹天佑旧居,风景名胜,风景名胜,纪念馆,石佛寺村八达岭水关长城内,北京市,北京市,延庆区,116.0315662,40.33673547
八达岭国家森林公园-五郎像,风景名胜,风景名胜,风景名胜,G6京藏高速附近,北京市,北京市,延庆区,116.033755,40.33156156
八达岭国家森林公园-五桂头山洞,风景名胜,风景名胜,风景名胜,G6京藏高速附近,北京市,北京市,延庆区,116.0334079,40.3319393
八达岭国家森林公园-弹琴峡,风景名胜,风景名胜,风景名胜,G6京藏高速与G6京藏高速出口交叉口西南50米,北京市,北京市,延庆区,116.032615,40.33205819
八达岭国家森林公园-长城碑林,风景名胜,风景名胜,风景名胜,水关路东200米,北京市,北京市,延庆区,116.0310218,40.33621897
长城探戈坞艺术园区,风景名胜,风景名胜,风景名胜,八达岭镇水关长城入口,北京市,北京市,延庆区,116.0317417,40.33692599
虎峪自然风景区-土宅,风景名胜,风景名胜相关,旅游景点,虎峪自然风景区长城脚下的公社,北京市,北京市,延庆区,116.0513277,40.33613222
北京碓臼峪自然风景区思农院,风景名胜,风景名胜相关,旅游景点,碓臼峪村70号,北京市,北京市,昌平区,116.1875689,40.34053074
长寿村望宝川,风景名胜,风景名胜,风景名胜,怀长路与望宝川路交叉口东南150米,北京市,北京市,昌平区,116.2883222,40.33431409
撞道口关,风景名胜,风景名胜,风景名胜,城西北,北京市,北京市,怀柔区,116.4541897,40.33436618
小龙山公园,风景名胜,公园广场,公园,台关路与657乡道交叉口西100米,北京市,北京市,怀柔区,116.5450792,40.33943907
世纪公园,风景名胜,公园广场,公园,近郊北宅环岛,北京市,北京市,怀柔区,116.5539747,40.340293
明星公园-生育文化公园,风景名胜,公园广场,公园,台关路东50米,北京市,北京市,怀柔区,116.5590555,40.3357971
北宅生态民俗旅游村,风景名胜,风景名胜,风景名胜,台关路附近,北京市,北京市,怀柔区,116.5589091,40.33757239
明星公园,风景名胜,公园广场,公园,,北京市,北京市,怀柔区,116.55932,40.3353766
欢乐岛,风景名胜,公园广场,公园,台关路东100米,北京市,北京市,怀柔区,116.5628441,40.33943722
北京东方普罗旺斯薰衣草庄园,风景名胜,风景名胜,风景名胜,怀沙路,北京市,北京市,怀柔区,116.6136918,40.33840569
炎黄纪念馆,风景名胜,风景名胜,纪念馆,八达岭,北京市,北京市,延庆区,116.0328759,40.32767675
八达岭国家森林公园-礼祭厅,风景名胜,风景名胜,风景名胜,步云街与216省道交叉口北150米,北京市,北京市,延庆区,116.0344249,40.3265923
虎峪自然风景区,风景名胜,风景名胜,风景名胜,南口镇虎峪村北,北京市,北京市,昌平区,116.1004093,40.32375413
十三陵-泰陵,风景名胜,风景名胜,世界遗产,长陵镇西北部,北京市,北京市,昌平区,116.2166703,40.32349804
银山塔林-镇妖塔,风景名胜,风景名胜,风景名胜,银山塔林内,北京市,北京市,昌平区,116.3215301,40.32132854
银山塔林-水帘洞,风景名胜,风景名胜,风景名胜,银山塔林内,北京市,北京市,昌平区,116.3212577,40.32135705
银山塔林-京北第一瀑,风景名胜,风景名胜,风景名胜,银山塔林内,北京市,北京市,昌平区,116.3216208,40.32201118
银山塔林-钟亭,风景名胜,风景名胜,风景名胜,银山塔林内,北京市,北京市,昌平区,116.3208876,40.32172167
银山塔林-六角亭,风景名胜,风景名胜,风景名胜,银山塔林内,北京市,北京市,昌平区,116.321102,40.32184822
银山塔林-琢磨顶,风景名胜,风景名胜,风景名胜,银山塔林内,北京市,北京市,昌平区,116.320695,40.32197597
银山塔林-银山瀑布,风景名胜,风景名胜相关,旅游景点,兴寿西湖村银山塔林,北京市,北京市,昌平区,116.3216288,40.32200117
和寿园,风景名胜,风景名胜,风景名胜,安四路西50米,北京市,北京市,昌平区,116.3457678,40.33002034
百合普门寺,风景名胜,风景名胜,风景名胜,桃下路南100米,北京市,北京市,昌平区,116.3880076,40.32506776
绿林公园,风景名胜,公园广场,公园,北宅,北京市,北京市,怀柔区,116.5568964,40.33097023
青春路公园,风景名胜,公园广场,公园,滨湖北街58号,北京市,北京市,怀柔区,116.6274518,40.32729712
滨湖公园(滨湖中街),风景名胜,公园广场,公园,滨湖中街与滨湖北街交叉口东南200米,北京市,北京市,怀柔区,116.6307808,40.32633572
滨湖万米健身公园,风景名胜,公园广场,公园,怀柔镇,北京市,北京市,怀柔区,116.6341114,40.32566095
下元基督教堂,风景名胜,风景名胜,教堂,泉河路东50米,北京市,北京市,怀柔区,116.6439541,40.32654359
老爷庙,风景名胜,风景名胜相关,旅游景点,,北京市,北京市,密云区,116.9238123,40.32347213
平谷区百世仙人文纪念园,风景名胜,风景名胜,纪念馆,东四道岭村委会西北,北京市,北京市,平谷区,117.1378906,40.32174347
平谷桃花海-神龙潭,风景名胜,风景名胜,风景名胜,史家台路与胡关路交叉口东北100米,北京市,北京市,平谷区,117.2186238,40.32384998
中国玻璃台,风景名胜,风景名胜,风景名胜,镇罗营镇玻璃台村303号(近东指壶),北京市,北京市,平谷区,117.2276426,40.3285443
天子谷一线天(暂停营业),风景名胜,风景名胜,风景名胜,,北京市,北京市,平谷区,117.2200927,40.32427613
平谷桃花海-白龙庙,风景名胜,风景名胜,寺庙道观,史家台路与胡关路交叉口东北150米,北京市,北京市,平谷区,117.2193242,40.32423249
平谷桃花海-九曲十八湾,风景名胜,风景名胜,风景名胜,玻璃台村九曲十八弯景区内,北京市,北京市,平谷区,117.2518005,40.32125218
十三陵-康陵,风景名胜,风景名胜,世界遗产,长陵镇康陵村16号(近十三陵文物保护区),北京市,北京市,昌平区,116.2041466,40.31920077
北京康陵正德迎客松自然风景区,风景名胜,风景名胜,风景名胜,泰燕路南150米,北京市,北京市,昌平区,116.204524,40.31449149
康陵民俗村,风景名胜,风景名胜,风景名胜,十三陵风景区,北京市,北京市,昌平区,116.2104193,40.31671021
泰陵民俗村,风景名胜,风景名胜,风景名胜,长陵镇西北部,北京市,北京市,昌平区,116.2173267,40.32064942
十三陵-茂陵,风景名胜,风景名胜,世界遗产,明十三陵长陵,北京市,北京市,昌平区,116.2264939,40.31453517
十三陵-裕陵,风景名胜,风景名胜,世界遗产,长陵镇裕陵村,北京市,北京市,昌平区,116.2316883,40.3138601
铁壁银山(暂停营业),风景名胜,风景名胜,国家级景点,西湖村,北京市,北京市,昌平区,116.3216911,40.31833101
西湖民俗村,风景名胜,风景名胜,风景名胜,银山路1号,北京市,北京市,昌平区,116.3220302,40.31202897
海子生态观光园,风景名胜,风景名胜相关,旅游景点,安四路西50米,北京市,北京市,昌平区,116.3354096,40.31892977
张仙洞,风景名胜,风景名胜,风景名胜,,北京市,北京市,怀柔区,116.4848955,40.31730309
老君洞,风景名胜,风景名胜,风景名胜,,北京市,北京市,怀柔区,116.4859001,40.3183018
桃花岭,风景名胜,风景名胜,风景名胜,,北京市,北京市,怀柔区,116.4879092,40.3146087
青峰顶,风景名胜,风景名胜,风景名胜,,北京市,北京市,怀柔区,116.4959422,40.32023519
北清泉,风景名胜,风景名胜,风景名胜,,北京市,北京市,怀柔区,116.4979588,40.31275112
龟石,风景名胜,风景名胜,风景名胜,,北京市,北京市,怀柔区,116.4959546,40.317247
和尚坟,风景名胜,风景名胜,风景名胜,上王峪村西书法山旅游度假区书画山风景区,北京市,北京市,怀柔区,116.5009798,40.31585731
黄宝峪古庙遗址,风景名胜,风景名胜,风景名胜,,北京市,北京市,怀柔区,116.5029746,40.31436059
橡树林红叶风景区,风景名胜,风景名胜,风景名胜,,北京市,北京市,怀柔区,116.4999598,40.31755085
怀柔,风景名胜,风景名胜相关,旅游景点,环湖东路西50米,北京市,北京市,怀柔区,116.6161893,40.32002232
怀山柔水,风景名胜,公园广场,公园,府前西街与龙山东路交叉口西100米,北京市,北京市,怀柔区,116.6201544,40.31411464
秦门(新悦百货),风景名胜,风景名胜相关,旅游景点,府前西街2号新悦百货F5层,北京市,北京市,怀柔区,116.6238437,40.3132065
普法公园,风景名胜,公园广场,公园,迎宾路,北京市,北京市,怀柔区,116.6311855,40.31350049
快乐家族,风景名胜,风景名胜相关,旅游景点,东关二区112号,北京市,北京市,怀柔区,116.6352485,40.3114239
慈恩院,风景名胜,风景名胜相关,旅游景点,开放路东关一区,北京市,北京市,怀柔区,116.6387008,40.31467756
