名称,大类,中类,小类,地址,省,市,区,WGS84_经度,WGS84_纬度
环洲宾馆度假村,体育休闲服务,度假疗养场所,度假村,新洲村838,上海市,上海市,崇明区,121.2731735,31.83879521
新村敬老院,体育休闲服务,度假疗养场所,疗养院,新浜村新村1476号,上海市,上海市,崇明区,121.3275295,31.83305964
星光老年之家(长春路),体育休闲服务,度假疗养场所,疗养院,,上海市,上海市,崇明区,121.291315,31.82285901
丽丽棋牌室,体育休闲服务,娱乐场所,棋牌室,宏海公路7288,上海市,上海市,崇明区,121.2902524,31.81833283
新海居委会社区老年活动室,体育休闲服务,休闲场所,休闲场所,兴阔路165,上海市,上海市,崇明区,121.2912452,31.82248905
阳光之家,体育休闲服务,体育休闲服务场所,体育休闲服务场所,新海镇兴阔路181号,上海市,上海市,崇明区,121.2914268,31.82276082
牛棚港奔牛场,体育休闲服务,运动场馆,运动场所,跃进公路北50米,上海市,上海市,崇明区,121.2348083,31.81430643
崇明胖阿姨休闲农庄,体育休闲服务,休闲场所,休闲场所,绿华镇华西村,上海市,上海市,崇明区,121.1921861,31.78491047
上海市崇明区海桥敬老院,体育休闲服务,度假疗养场所,疗养院,海中村海桥公路海桥幼儿园,上海市,上海市,崇明区,121.3058425,31.78863705
顾家柑橘采摘园,体育休闲服务,休闲场所,采摘园,绿华镇华荣村建城1队113号,上海市,上海市,崇明区,121.2185163,31.77976785
上海市崇明区荣美农家乐,体育休闲服务,休闲场所,休闲场所,绿华镇华荣村建城207号,上海市,上海市,崇明区,121.2173051,31.77862549
崇明华荣家园农家乐,体育休闲服务,休闲场所,休闲场所,绿华镇华荣村,上海市,上海市,崇明区,121.2195349,31.78347936
汉忠柑橘采摘园,体育休闲服务,休闲场所,采摘园,绿华镇华荣村建城704号,上海市,上海市,崇明区,121.2167651,31.78337165
荣奕生态园,体育休闲服务,休闲场所,休闲场所,育新路,上海市,上海市,崇明区,121.237739,31.78127513
一德园,体育休闲服务,休闲场所,采摘园,绿华西路67号,上海市,上海市,崇明区,121.1857694,31.77127358
崇明区绿华敬老院,体育休闲服务,度假疗养场所,疗养院,绿华镇新建路894号,上海市,上海市,崇明区,121.2147871,31.77002265
网格中心,体育休闲服务,体育休闲服务场所,体育休闲服务场所,绿华镇绿华路518号,上海市,上海市,崇明区,121.216043,31.76437421
小陈螃蟹垂钓,体育休闲服务,休闲场所,垂钓园,育源宕逦会西北500米,上海市,上海市,崇明区,121.2527822,31.76952537
小林垂钓园,体育休闲服务,体育休闲服务场所,体育休闲服务场所,北沿公路附近,上海市,上海市,崇明区,121.384273,31.76507129
崇西农家乐,体育休闲服务,休闲场所,休闲场所,分水岭路,上海市,上海市,崇明区,121.1935106,31.76089424
绿源农庄,体育休闲服务,休闲场所,休闲场所,绿华镇绿港村建同637号,上海市,上海市,崇明区,121.2139013,31.75629485
蓓佳农家乐,体育休闲服务,体育休闲服务场所,体育休闲服务场所,三华公路和华星三路向前第二路右转100米,上海市,上海市,崇明区,121.2216399,31.76018996
榆和苑,体育休闲服务,休闲场所,休闲场所,绿华镇华星村,上海市,上海市,崇明区,121.2221284,31.75938527
沈锐(三毛)农家乐,体育休闲服务,休闲场所,休闲场所,绿华镇新建公路与三华公路交叉口往东500米北侧300米(近明珠湖),上海市,上海市,崇明区,121.219668,31.76152538
朕格农家乐,体育休闲服务,休闲场所,休闲场所,绿华镇华星村城北2队,上海市,上海市,崇明区,121.2303351,31.75981206
天鹅苑垂钓中心,体育休闲服务,休闲场所,垂钓园,三华公路南50米,上海市,上海市,崇明区,121.2449626,31.75501056
天鹅苑,体育休闲服务,休闲场所,休闲场所,三华公路777号,上海市,上海市,崇明区,121.2464615,31.75451546
明珠湖春楠农家乐,体育休闲服务,休闲场所,休闲场所,育德烈士村1201号(近明珠湖),上海市,上海市,崇明区,121.2571022,31.7546818
长征影剧院(延安路),体育休闲服务,影剧院,影剧院相关,会理路与延安路交叉口东北100米,上海市,上海市,崇明区,121.4101891,31.76405377
上海崇明西沙湿地农家乐(溪会所),体育休闲服务,休闲场所,休闲场所,绿华镇绿港村堡北路412号,上海市,上海市,崇明区,121.2208962,31.74865586
沁香农家旅馆,体育休闲服务,休闲场所,休闲场所,绿港村建同402号,上海市,上海市,崇明区,121.2164167,31.74968571
桔香园农家乐饭店,体育休闲服务,休闲场所,休闲场所,绿港生态村建民路713号,上海市,上海市,崇明区,121.2248041,31.75305259
湖西农庄,体育休闲服务,休闲场所,休闲场所,绿华镇绿港村建民102号,上海市,上海市,崇明区,121.2352171,31.74846489
滑索,体育休闲服务,休闲场所,游乐场,三华公路333号明珠湖公园内,上海市,上海市,崇明区,121.2498845,31.74453585
崇明西沙明珠湖农家乐,体育休闲服务,休闲场所,休闲场所,三华公路南50米,上海市,上海市,崇明区,121.2548366,31.75396464
星育农家乐茅家小院,体育休闲服务,休闲场所,休闲场所,三星镇三华公路403号,上海市,上海市,崇明区,121.257482,31.75387353
屋里人家3号绿色园饭店,体育休闲服务,休闲场所,休闲场所,三星镇三华公路411号(近陈海公路),上海市,上海市,崇明区,121.2563128,31.75334598
三毛农家乐,体育休闲服务,休闲场所,休闲场所,三星镇草棚镇海洪港村1337号陈海公路,上海市,上海市,崇明区,121.2711731,31.7450087
富氧农庄,体育休闲服务,休闲场所,休闲场所,海洪港村草棚141号,上海市,上海市,崇明区,121.275788,31.7468522
瀛春托老院,体育休闲服务,度假疗养场所,疗养院,协进村496号,上海市,上海市,崇明区,121.2860406,31.75254606
崇明区三星居家养老服务中心,体育休闲服务,度假疗养场所,疗养院,瀛春托老院附近,上海市,上海市,崇明区,121.2860416,31.75254706
上海民建三星敬老院,体育休闲服务,度假疗养场所,疗养院,协进村496,上海市,上海市,崇明区,121.2860406,31.75254606
梁家生态农庄,体育休闲服务,休闲场所,休闲场所,平安村安南113号,上海市,上海市,崇明区,121.3262855,31.75185244
上海崇明合作敬老院,体育休闲服务,度假疗养场所,疗养院,合作公路1318号,上海市,上海市,崇明区,121.362909,31.74462527
联联农家乐,体育休闲服务,休闲场所,休闲场所,庙镇永乐村,上海市,上海市,崇明区,121.3819691,31.74841357
秦大姐农家乐,体育休闲服务,休闲场所,休闲场所,绿华镇绿港村堡镇1队112号,上海市,上海市,崇明区,121.2127832,31.74130577
西来农庄,体育休闲服务,休闲场所,休闲场所,绿华镇绿港村堡镇五队525号,上海市,上海市,崇明区,121.2208139,31.7394277
杜娘娘农家乐,体育休闲服务,休闲场所,休闲场所,绿华镇绿港村堡镇408号,上海市,上海市,崇明区,121.2208319,31.74006279
康如农家乐,体育休闲服务,休闲场所,休闲场所,绿华镇绿港村410号(西来农庄对面),上海市,上海市,崇明区,121.2209621,31.73936183
国军农家乐,体育休闲服务,休闲场所,休闲场所,绿港村堡镇409号,上海市,上海市,崇明区,121.2207188,31.73980966
老陆农家乐,体育休闲服务,休闲场所,休闲场所,绿华镇绿港村堡镇404号,上海市,上海市,崇明区,121.2202423,31.74015728
西来农庄,体育休闲服务,休闲场所,休闲场所,,上海市,上海市,崇明区,121.2209943,31.73715961
小六农家乐,体育休闲服务,休闲场所,休闲场所,绿华镇绿港村堡镇903号,上海市,上海市,崇明区,121.2246631,31.73963888
西沙水秀舫休闲农庄,体育休闲服务,休闲场所,休闲场所,绿华镇绿港村堡湖路928号,上海市,上海市,崇明区,121.2284719,31.7378253
游乐园,体育休闲服务,休闲场所,游乐场,三华公路333号明珠湖公园内,上海市,上海市,崇明区,121.2478557,31.7372603
上海明珠湖生态服务中心(明珠湖度假村),体育休闲服务,度假疗养场所,度假村,三华公路333号(明珠湖公园内),上海市,上海市,崇明区,121.2484147,31.73547304
水上漂农庄,体育休闲服务,休闲场所,休闲场所,明珠湖公园附近,上海市,上海市,崇明区,121.2598159,31.73695734
上海兴瀛农庄,体育休闲服务,休闲场所,休闲场所,三星镇海洪港村427号,上海市,上海市,崇明区,121.2740589,31.73971122
白港鱼塘,体育休闲服务,体育休闲服务场所,体育休闲服务场所,星月路968号,上海市,上海市,崇明区,121.2829771,31.73677835
农惠农家乐,体育休闲服务,休闲场所,休闲场所,合中村新保611号(西沙湿地10分钟东平国家森林公园15分钟),上海市,上海市,崇明区,121.3447834,31.74396126
上海下乡瀛1977农家乐,体育休闲服务,休闲场所,休闲场所,庙镇合中村合中南路1204号,上海市,上海市,崇明区,121.3490461,31.73969951
崇明区庙镇江合养护院,体育休闲服务,度假疗养场所,疗养院,小星公路与民安路交叉口南50米,上海市,上海市,崇明区,121.3601756,31.74283477
合作影剧院,体育休闲服务,影剧院,影剧院相关,小星公路北50米,上海市,上海市,崇明区,121.3651019,31.74187213
孙老师草莓园,体育休闲服务,休闲场所,采摘园,北沿公路,上海市,上海市,崇明区,121.3951854,31.73575997
忠效农家乐饭店,体育休闲服务,休闲场所,休闲场所,西沙湿地绿湖村503号,上海市,上海市,崇明区,121.2347733,31.733436
崇明怡钦农家乐,体育休闲服务,体育休闲服务场所,体育休闲服务场所,堡湖路附近,上海市,上海市,崇明区,121.2369519,31.73343276
崇明郝来志草莓采摘园,体育休闲服务,休闲场所,采摘园,绿华镇大新村,上海市,上海市,崇明区,121.2429136,31.73391998
上海伟联草莓园(西沙湿地基地),体育休闲服务,体育休闲服务场所,体育休闲服务场所,堡湖路荷花博览园对面,上海市,上海市,崇明区,121.2352986,31.73196604
明珠湖公园游乐园,体育休闲服务,休闲场所,游乐场,三华公路333号明珠湖公园内,上海市,上海市,崇明区,121.2532935,31.72879027
角角落农渔部落,体育休闲服务,娱乐场所,网吧,星华路,上海市,上海市,崇明区,121.2610333,31.73243015
新白港农家乐,体育休闲服务,体育休闲服务场所,体育休闲服务场所,白港村701号(白港公路1号桥左拐弯10米),上海市,上海市,崇明区,121.2735894,31.72927757
米洪村老年活动室,体育休闲服务,休闲场所,休闲场所,宏海公路2850,上海市,上海市,崇明区,121.3203554,31.7250168
上海恒人农业合作社,体育休闲服务,休闲场所,休闲场所,建粮桥附近,上海市,上海市,崇明区,121.4782774,31.73174004
上海梅花岛,体育休闲服务,体育休闲服务场所,体育休闲服务场所,前卫村新光村路同良西侧,上海市,上海市,崇明区,121.4927093,31.72477986
红高粱火龙果草莓特色农业采摘园,体育休闲服务,休闲场所,采摘园,竖新镇纬四路西200米,上海市,上海市,崇明区,121.5006628,31.72805
瀛鼎农庄,体育休闲服务,休闲场所,休闲场所,竖新镇前卫村882号,上海市,上海市,崇明区,121.5046445,31.7247235
上海皓态农业科技有限公司火龙果生产2区,体育休闲服务,休闲场所,采摘园,Y665(纬三路),上海市,上海市,崇明区,121.5015431,31.72765958
空中飞椅,体育休闲服务,休闲场所,游乐场,前卫村前卫生态村内,上海市,上海市,崇明区,121.5075166,31.72629013
老前卫农家乐饭庄,体育休闲服务,休闲场所,休闲场所,村史馆路与纬三路交叉口东南100米,上海市,上海市,崇明区,121.5093229,31.72816061
碰碰车,体育休闲服务,休闲场所,游乐场,前卫村前卫生态村内,上海市,上海市,崇明区,121.5072808,31.7259454
前卫生态农业旅游景区-骑马场,体育休闲服务,运动场馆,赛马场,前卫村前卫生态村内,上海市,上海市,崇明区,121.5067651,31.72457575
上海崇明龙裔度假村,体育休闲服务,度假疗养场所,度假村,崇明岛前卫村1号,上海市,上海市,崇明区,121.5070049,31.72450345
知青之家,体育休闲服务,休闲场所,休闲场所,前卫村838-1,上海市,上海市,崇明区,121.5082362,31.72630924
崇明前卫海岛度假村,体育休闲服务,度假疗养场所,度假村,前卫村前卫生态村内,上海市,上海市,崇明区,121.5069668,31.72451633
前卫生态村-垂钓区,体育休闲服务,休闲场所,垂钓园,竖新镇前卫村前卫生态村内,上海市,上海市,崇明区,121.5106698,31.72568628
Conica红土网球中心,体育休闲服务,运动场馆,网球场,前卫村828号,上海市,上海市,崇明区,121.5093161,31.72485825
上海崇明前卫红土网球中心,体育休闲服务,运动场馆,网球场,东方农场北首前卫生态村,上海市,上海市,崇明区,121.5092699,31.72516015
生态岛主题公园垂钓区,体育休闲服务,休闲场所,垂钓园,竖新镇前卫村前卫生态村内,上海市,上海市,崇明区,121.5085554,31.72485503
生态岛主题公园游泳池,体育休闲服务,运动场馆,游泳馆,竖新镇前卫村前卫生态村内,上海市,上海市,崇明区,121.5073522,31.7247925
上海亲情游钓俱乐部(崇明基地),体育休闲服务,体育休闲服务场所,体育休闲服务场所,前卫村前卫生态村内前卫湿地道路,上海市,上海市,崇明区,121.5077234,31.72571868
蒙骏骑马场,体育休闲服务,运动场馆,马术俱乐部,纬二路与径八路交汇处,上海市,上海市,崇明区,121.5148294,31.72601626
小平农家乐,体育休闲服务,休闲场所,休闲场所,竖新镇前卫村579号(近森林公园),上海市,上海市,崇明区,121.5241566,31.72820723
沈镇村社区活动中心,体育休闲服务,休闲场所,休闲场所,东防汛路与沈镇路交叉口西北50米,上海市,上海市,崇明区,121.2966616,31.71999928
方顺养老院,体育休闲服务,度假疗养场所,疗养院,宏海公路2568号,上海市,上海市,崇明区,121.3310673,31.7208519
崇明岛宝岛农家乐度假村,体育休闲服务,度假疗养场所,度假村,崇明岛北沿公路3000号,上海市,上海市,崇明区,121.4226517,31.71914003
东平森林眚少牟活动基地,体育休闲服务,体育休闲服务场所,体育休闲服务场所,东平镇东风公路2363号,上海市,上海市,崇明区,121.4412545,31.71892903
江南三民文化村,体育休闲服务,度假疗养场所,度假村,林风公路2201号(近东平森林公园),上海市,上海市,崇明区,121.4946105,31.72100318
六加伊农家乐,体育休闲服务,休闲场所,休闲场所,"前卫村214号,近纬十路",上海市,上海市,崇明区,121.5020042,31.72164435
圣果农家乐,住宿服务,旅馆招待所,旅馆招待所|餐饮服务,前卫村208号(近东风农场北首),上海市,上海市,崇明区,121.5040657,31.72090841
囡囡农家乐,体育休闲服务,休闲场所,休闲场所,前卫村801号,上海市,上海市,崇明区,121.5014372,31.72185568
岳都饭店,体育休闲服务,休闲场所,休闲场所,前卫村207号,上海市,上海市,崇明区,121.504133,31.7208606
瀛欣农家乐,体育休闲服务,休闲场所,休闲场所,"前卫村419号,近村史馆路",上海市,上海市,崇明区,121.5043698,31.72120834
海上花岛生态度假村,体育休闲服务,度假疗养场所,度假村,竖新镇前卫村805号,上海市,上海市,崇明区,121.5047022,31.71902612
大铁树农家乐,体育休闲服务,休闲场所,休闲场所,竖新镇前卫村553号,上海市,上海市,崇明区,121.5035027,31.72114176
瀛宾农家乐,体育休闲服务,休闲场所,休闲场所,纬九路(前卫村326号森林公园北首),上海市,上海市,崇明区,121.5040405,31.72201744
骁泖轩农庄,体育休闲服务,度假疗养场所,度假村|餐饮服务,林风公路前卫大桥西,上海市,上海市,崇明区,121.5021853,31.71711546
香林丽舍农庄,体育休闲服务,休闲场所,休闲场所,前卫村878号(前卫生态景区门口),上海市,上海市,崇明区,121.5037636,31.72172059
叔季嘉苑,体育休闲服务,休闲场所,休闲场所,叔季嘉苑212-3,上海市,上海市,崇明区,121.5029477,31.72130813
小培农家乐,体育休闲服务,休闲场所,休闲场所,前卫生态村426号,上海市,上海市,崇明区,121.5044812,31.72118967
倩倩农家乐,体育休闲服务,休闲场所,休闲场所,前卫村554号,上海市,上海市,崇明区,121.510285,31.71958456
黄家花园别墅,体育休闲服务,休闲场所,休闲场所,前卫村320号,上海市,上海市,崇明区,121.5090858,31.71916203
悠然农家乐,体育休闲服务,休闲场所,休闲场所,前卫村517号,上海市,上海市,崇明区,121.5084746,31.71953227
丹凤庄园,体育休闲服务,休闲场所,休闲场所,前卫村501-2室,上海市,上海市,崇明区,121.5083893,31.71897697
佳嘉农家乐,体育休闲服务,休闲场所,休闲场所,崇明岛前卫生态村203号,上海市,上海市,崇明区,121.5051286,31.72045551
锦慧阁农家乐,体育休闲服务,休闲场所,休闲场所,前卫村414号,上海市,上海市,崇明区,121.5096699,31.71840866
舒欣农家乐,体育休闲服务,休闲场所,休闲场所,前卫村411号,上海市,上海市,崇明区,121.5098365,31.71830913
小威农家乐,体育休闲服务,休闲场所,休闲场所,区区崇明前卫村328号,上海市,上海市,崇明区,121.511361,31.71755349
祥瑞旅馆,体育休闲服务,休闲场所,休闲场所,前卫村801号(近东风农场北首)前卫生态村接待处,上海市,上海市,崇明区,121.5112303,31.7205724
黄家花苑饭庄,体育休闲服务,休闲场所,休闲场所,前卫农场崇明前卫生态村313号,上海市,上海市,崇明区,121.5107718,31.71827985
乐乐农家乐,体育休闲服务,休闲场所,休闲场所,前卫村571号(近前卫生态园),上海市,上海市,崇明区,121.5112303,31.7205724
禾乐门,体育休闲服务,度假疗养场所,度假村,前卫村前卫生态村内,上海市,上海市,崇明区,121.5101293,31.72101324
前卫善养苑,体育休闲服务,度假疗养场所,疗养院,同良路与纬九路交叉口北150米,上海市,上海市,崇明区,121.509171,31.72004136
帝乐农庄餐馆,餐饮服务,中餐厅,中餐厅|体育休闲服务,前卫生态村539号,上海市,上海市,崇明区,121.5073907,31.71989413
靖金饭庄,体育休闲服务,休闲场所,休闲场所,前卫村316号,上海市,上海市,崇明区,121.5118166,31.71756381
乐宾农家乐,体育休闲服务,休闲场所,休闲场所,前卫村556-1号,上海市,上海市,崇明区,121.5077108,31.72047713
前卫村精品葡萄采摘园,体育休闲服务,休闲场所,采摘园,同良路与纬九路交叉口东北150米,上海市,上海市,崇明区,121.5103703,31.71974782
岳都饭店,体育休闲服务,休闲场所,休闲场所,前卫村801号,上海市,上海市,崇明区,121.5112303,31.72056539
前卫村325号农家乐,体育休闲服务,休闲场所,休闲场所,崇明前卫村325号,上海市,上海市,崇明区,121.5135426,31.71769578
诚心酒店,住宿服务,旅馆招待所,旅馆招待所|住宿服务,竖新镇东风农庄北首前卫村543号,上海市,上海市,崇明区,121.507477,31.72035943
丽峰农庄,体育休闲服务,休闲场所,休闲场所,前卫村503-1,上海市,上海市,崇明区,121.5078313,31.71922936
水上游乐,体育休闲服务,休闲场所,游乐场,前卫村前卫生态村内,上海市,上海市,崇明区,121.5069819,31.72429636
红中农家乐,体育休闲服务,休闲场所,休闲场所,前卫村567号,上海市,上海市,崇明区,121.5064844,31.72052452
老范农家乐,体育休闲服务,休闲场所,休闲场所,前卫村538号,上海市,上海市,崇明区,121.507474,31.71986337
济平饭庄,体育休闲服务,休闲场所,休闲场所|餐饮服务,前卫村433号,上海市,上海市,崇明区,121.5114653,31.71829686
前卫生态村-采摘园,体育休闲服务,休闲场所,采摘园,竖新镇前卫村前卫生态村内,上海市,上海市,崇明区,121.5109322,31.72029151
美丽家园饭庄,体育休闲服务,休闲场所,休闲场所,前卫村526号(近东风农场北首),上海市,上海市,崇明区,121.5083491,31.72071702
云昌农家乐,体育休闲服务,休闲场所,休闲场所,前卫村573号,上海市,上海市,崇明区,121.507756,31.71979619
鑫乐庄园,体育休闲服务,休闲场所,休闲场所|住宿服务,前卫村312号,上海市,上海市,崇明区,121.5126014,31.71695601
云生农家乐,体育休闲服务,休闲场所,休闲场所,前卫村519,上海市,上海市,崇明区,121.5081274,31.71954026
大铁树农家乐,体育休闲服务,休闲场所,休闲场所,前卫村553号,上海市,上海市,崇明区,121.5074097,31.72054925
佳程之星(前卫村店),体育休闲服务,休闲场所,休闲场所,前卫村513号(近东平国家森林公园),上海市,上海市,崇明区,121.5062918,31.7199779
庭鹤农家乐,体育休闲服务,休闲场所,休闲场所,前卫生态村505号3室,上海市,上海市,崇明区,121.5076708,31.71929689
香草花园,体育休闲服务,休闲场所,采摘园,崇明岛前卫村村南,上海市,上海市,崇明区,121.5102337,31.72132058
多平饭庄,体育休闲服务,休闲场所,休闲场所,前卫村405号(近东平国家森林公园),上海市,上海市,崇明区,121.5108712,31.7178721
阿三头农家乐,体育休闲服务,休闲场所,休闲场所,前卫村412号,上海市,上海市,崇明区,121.5096077,31.71839648
崇明佳妮农家乐,体育休闲服务,休闲场所,休闲场所,前卫村559号(近林风公路),上海市,上海市,崇明区,121.5069812,31.72059799
锦洪农家乐(纬九路),体育休闲服务,休闲场所,休闲场所,前卫村532号,上海市,上海市,崇明区,121.5078543,31.72020552
佳程之星农家乐(前卫村店),体育休闲服务,休闲场所,休闲场所,竖新镇前卫村513号(近国家AAAA级东平森林公园),上海市,上海市,崇明区,121.5068056,31.71988741
上海瀛昌农家乐,体育休闲服务,休闲场所,休闲场所,前卫生态村七区573号,上海市,上海市,崇明区,121.5053706,31.71901009
故乡小酌农家乐,体育休闲服务,休闲场所,休闲场所,竖新镇前卫村506号,上海市,上海市,崇明区,121.5074891,31.71964939
瀛昌农家乐,体育休闲服务,休闲场所,休闲场所,前卫村573-1,上海市,上海市,崇明区,121.5070734,31.72157136
美丽家园农家乐,体育休闲服务,休闲场所,休闲场所,前卫村526号,上海市,上海市,崇明区,121.5082257,31.71958855
悠哉农庄,体育休闲服务,休闲场所,采摘园,前卫村810号,上海市,上海市,崇明区,121.5141233,31.72205086
紫薇农家乐,体育休闲服务,休闲场所,休闲场所,前卫村421号(近同良路),上海市,上海市,崇明区,121.5053463,31.72110822
渔民人家,体育休闲服务,休闲场所,休闲场所,前卫村402号,上海市,上海市,崇明区,121.5114764,31.71750382
蛮灵格农家休闲中心,体育休闲服务,休闲场所,休闲场所,前卫村568号,上海市,上海市,崇明区,121.5067514,31.72070633
乐乐农家饭,体育休闲服务,休闲场所,休闲场所,林风公路与纬九路交叉口东150米,上海市,上海市,崇明区,121.506928,31.72113189
崇明前卫村214号农家乐,体育休闲服务,休闲场所,休闲场所,上海前卫村214号,上海市,上海市,崇明区,121.5053063,31.71933293
小平农家乐园,体育休闲服务,休闲场所,休闲场所,林风公路与纬九路交叉口东50米,上海市,上海市,崇明区,121.5059134,31.72080187
浩波农家乐,体育休闲服务,休闲场所,休闲场所,前卫村515号(进村右手边第二家),上海市,上海市,崇明区,121.5059746,31.720358
悠然农家乐(林风公路),体育休闲服务,休闲场所,休闲场所,林风公路与纬十路交叉口东北50米,上海市,上海市,崇明区,121.5055079,31.72036063
前卫村综合服务活动中心,体育休闲服务,休闲场所,休闲场所,林风公路东100米,上海市,上海市,崇明区,121.5054429,31.71836024
草莓葡萄火龙果等采摘,体育休闲服务,休闲场所,采摘园,林风公路与纬十路交叉口东50米,上海市,上海市,崇明区,121.5056946,31.72021116
锦洪农家乐,体育休闲服务,休闲场所,休闲场所,前卫村532号,上海市,上海市,崇明区,121.5112303,31.72056539
天鹤有机蔬菜园,体育休闲服务,休闲场所,采摘园,径八路与村史馆路交叉口西北50米,上海市,上海市,崇明区,121.5132291,31.72240933
红高粱捉鸡林,体育休闲服务,休闲场所,休闲场所,竖新镇前卫村前卫生态村内,上海市,上海市,崇明区,121.5137479,31.72298688
冬英棋牌,体育休闲服务,娱乐场所,棋牌室,前卫村564-1,上海市,上海市,崇明区,121.5064684,31.72029745
龙裔福满苑,体育休闲服务,休闲场所,休闲场所,亚苗公路与村史馆路交叉口南100米,上海市,上海市,崇明区,121.5069428,31.72393521
红房子农家乐(纬九路),体育休闲服务,休闲场所,休闲场所,东平国家森林公园北首前卫生态村574号,上海市,上海市,崇明区,121.5061081,31.72044841
亚琴农家乐,体育休闲服务,休闲场所,休闲场所,前卫村557号近同良路,上海市,上海市,崇明区,121.5068739,31.72011363
竖新镇前卫村健身点,体育休闲服务,运动场馆,户外健身场所,林风公路与纬九路交叉口东150米,上海市,上海市,崇明区,121.5069511,31.72072392
前卫村健身点,体育休闲服务,运动场馆,户外健身场所,林风公路与纬十路交叉口西50米,上海市,上海市,崇明区,121.5052621,31.72027789
上海孝庄养老院,体育休闲服务,度假疗养场所,疗养院,庙镇庙南北路路249号,上海市,上海市,崇明区,121.3227512,31.71030684
智宸农庄,体育休闲服务,休闲场所,休闲场所,庙南村1437号,上海市,上海市,崇明区,121.3393913,31.70422293
崇明西岸氧吧农家乐酒店,体育休闲服务,休闲场所,休闲场所,庙南村1438号,上海市,上海市,崇明区,121.3384961,31.70529365
阳光之家,体育休闲服务,体育休闲服务场所,体育休闲服务场所,庙中村566号,上海市,上海市,崇明区,121.3443684,31.70779634
上海殷杰家庭农场,体育休闲服务,休闲场所,休闲场所,庙镇民华村,上海市,上海市,崇明区,121.3649403,31.70595177
上海崇明庙镇敬老院,体育休闲服务,度假疗养场所,疗养院,民华村624号,上海市,上海市,崇明区,121.3649723,31.70546769
七家村农庄,体育休闲服务,休闲场所,休闲场所,庙镇民华村江民路888号,上海市,上海市,崇明区,121.3757693,31.70920433
协兴养老院,体育休闲服务,度假疗养场所,疗养院,港西镇三双公路2005号,上海市,上海市,崇明区,121.4168467,31.70937243
东平度假村,住宿服务,住宿服务相关,住宿服务相关|体育休闲服务,东风公路555号,上海市,上海市,崇明区,121.4890014,31.70840527
张清棋牌室,体育休闲服务,娱乐场所,棋牌室,东平镇东风公路506号,上海市,上海市,崇明区,121.4902549,31.70874704
红子农家乐,体育休闲服务,休闲场所,休闲场所,区崇明前卫村574号,上海市,上海市,崇明区,121.5043594,31.7135746
长江河口渔家乐,体育休闲服务,休闲场所,休闲场所,北新公路附近,上海市,上海市,崇明区,121.5508151,31.70618119
上海伟联草莓园(庙南基地),体育休闲服务,休闲场所,采摘园,庙南村庙南南路与鹗鸪港路交叉口西150米,上海市,上海市,崇明区,121.331761,31.6947624
上海市崇明区港西第一敬老院,体育休闲服务,度假疗养场所,疗养院,协津公路与富盘公路交叉口西北100米,上海市,上海市,崇明区,121.3992286,31.69892546
上海春风得意楼农家乐,体育休闲服务,休闲场所,休闲场所,新光村101号(近前卫村、森林公园、薰衣草庄园),上海市,上海市,崇明区,121.5475975,31.70435292
宁静湾乡村度假农庄,体育休闲服务,度假疗养场所,度假村,港西镇北双村湾北1352号,上海市,上海市,崇明区,121.3820367,31.6852947
上海润心田果蔬采摘园,体育休闲服务,休闲场所,采摘园,港西镇北双村11队1197号,上海市,上海市,崇明区,121.3869095,31.68611303
小马草莓采摘园,体育休闲服务,休闲场所,采摘园,盘双北路171号,上海市,上海市,崇明区,121.4037286,31.68772043
港西影剧院,体育休闲服务,影剧院,影剧院相关,三双公路与盘南河路交叉口西北100米,上海市,上海市,崇明区,121.4114846,31.68919095
高家庄生态园,体育休闲服务,度假疗养场所,度假村,港东公路999号,上海市,上海市,崇明区,121.416083,31.68539901
东村社区老年活动室,体育休闲服务,休闲场所,休闲场所,东村红梅路北,上海市,上海市,崇明区,121.4446672,31.68757016
月亮湖度假村,体育休闲服务,度假疗养场所,度假村,效东村红梅12队,上海市,上海市,崇明区,121.4546077,31.69344918
崇明佳居农家乐,体育休闲服务,休闲场所,休闲场所,建设镇东红梅村1114号,上海市,上海市,崇明区,121.4527301,31.68652639
彩云农家乐,体育休闲服务,休闲场所,休闲场所,建设镇东村红梅1106号,上海市,上海市,崇明区,121.4518116,31.68592227
施家小姨,体育休闲服务,休闲场所,休闲场所,建设公路3589号,上海市,上海市,崇明区,121.4591341,31.68918878
上海袁家二舅农家乐,体育休闲服务,休闲场所,休闲场所,建设镇建设公路3583号,上海市,上海市,崇明区,121.4589887,31.68912742
外婆农家乐朱家娘舅,体育休闲服务,休闲场所,休闲场所,建设镇东村北沿公路红梅3563号(北沿公路),上海市,上海市,崇明区,121.458762,31.68883984
施家大舅农家乐,体育休闲服务,休闲场所,休闲场所,建设镇效东村红梅14队1418号,上海市,上海市,崇明区,121.4581854,31.68806738
崇明人家(熊大叔开心农场),体育休闲服务,休闲场所,休闲场所,北沿公路2179号,上海市,上海市,崇明区,121.4599256,31.68803267
外婆农家乐倪家大姨,体育休闲服务,休闲场所,休闲场所,建设公路3599号,上海市,上海市,崇明区,121.4592745,31.68938514
外婆农家乐,体育休闲服务,休闲场所,休闲场所,"效东十二队十四小队1403号,近建设公路",上海市,上海市,崇明区,121.4581463,31.68788427
汤汤农家乐,体育休闲服务,休闲场所,休闲场所|住宿服务,虹桥村924号,上海市,上海市,崇明区,121.4597263,31.68420393
丹红桃园农庄,体育休闲服务,休闲场所,休闲场所,建设公路3425号,上海市,上海市,崇明区,121.4566951,31.68725571
崇明户外真人CS,体育休闲服务,运动场馆,运动场所,东平国家森林公园西500米熊大叔开心农场内,上海市,上海市,崇明区,121.4608353,31.68863299
崇明熊大叔真人cs基地,体育休闲服务,娱乐场所,娱乐场所,建设镇北沿公路,上海市,上海市,崇明区,121.460764,31.68864281
田英居农家乐,体育休闲服务,休闲场所,休闲场所,虹桥村富民路1601号附近,上海市,上海市,崇明区,121.4594425,31.68428023
云姐农家乐,体育休闲服务,休闲场所,休闲场所|体育休闲服务,建设公路红梅路南10米,上海市,上海市,崇明区,121.4561548,31.68449225
上海鎏园易居民宿崇明轰趴馆,体育休闲服务,体育休闲服务场所,体育休闲服务场所,虹桥村,上海市,上海市,崇明区,121.4602156,31.68586326
东平国家森林公园真人cs,体育休闲服务,休闲场所,休闲场所,森林北路,上海市,上海市,崇明区,121.4737526,31.68981255
滑索,体育休闲服务,休闲场所,游乐场,北沿公路2288号东平国家森林公园内,上海市,上海市,崇明区,121.4825301,31.68845265
转转马,体育休闲服务,休闲场所,游乐场,北沿公路2288号东平国家森林公园内,上海市,上海市,崇明区,121.4836573,31.6859728
东平国家森林公园-水上乐园,体育休闲服务,休闲场所,游乐场,北沿公路2288号东平国家森林公园内,上海市,上海市,崇明区,121.484475,31.68718528
东平森林公园卡丁车场,体育休闲服务,休闲场所,游乐场,北沿公路2288号东平国家森林公园内,上海市,上海市,崇明区,121.4799343,31.68473186
赛车,体育休闲服务,休闲场所,游乐场,北沿公路2288号东平国家森林公园内,上海市,上海市,崇明区,121.4836674,31.68478276
天旋地转,体育休闲服务,体育休闲服务场所,体育休闲服务场所,北沿公路2288号东平国家森林公园内,上海市,上海市,崇明区,121.4832961,31.68494168
金龙滑车,体育休闲服务,休闲场所,游乐场,北沿公路2288号东平国家森林公园内,上海市,上海市,崇明区,121.4836974,31.68644295
碰碰车,体育休闲服务,休闲场所,游乐场,北沿公路2288号东平国家森林公园内,上海市,上海市,崇明区,121.4841993,31.68456431
东平国家森林公园-足球场,体育休闲服务,运动场馆,足球场,北沿公路2288号东平国家森林公园内,上海市,上海市,崇明区,121.479699,31.69007452
上海东平国家森林公园房车营地,体育休闲服务,休闲场所,休闲场所,北沿公路2188号东平国家森林公园,上海市,上海市,崇明区,121.4766348,31.68529241
崇明房车露营地,体育休闲服务,休闲场所,露营地,北沿公路2188号东平国家森林公园1号门,上海市,上海市,崇明区,121.4754214,31.68846017
高架车,体育休闲服务,休闲场所,游乐场,北沿公路2288号东平国家森林公园内,上海市,上海市,崇明区,121.4837296,31.68456293
攀岩,体育休闲服务,运动场馆,运动场所,北沿公路2288号东平国家森林公园内,上海市,上海市,崇明区,121.4854805,31.68908437
近江开心农场(崇明店),体育休闲服务,休闲场所,休闲场所,庙镇南星村庆华中路304号,上海市,上海市,崇明区,121.3161709,31.68053928
上海市崇明江龙老年公寓,体育休闲服务,度假疗养场所,疗养院,庙镇宏海公路88号,上海市,上海市,崇明区,121.3630714,31.6805444
鸿华度假酒店-酒吧,体育休闲服务,娱乐场所,酒吧,陈海公路4897,上海市,上海市,崇明区,121.3729245,31.67472466
崇明假日岛农庄,体育休闲服务,休闲场所,休闲场所,港西镇三湾公路18号,上海市,上海市,崇明区,121.4031765,31.67540657
团结农家乐客栈,体育休闲服务,休闲场所,休闲场所,港东三路运粮河路交叉口,上海市,上海市,崇明区,121.4121004,31.67454948
团结农家乐,体育休闲服务,休闲场所,休闲场所,港东三路运粮河路交叉口,上海市,上海市,崇明区,121.4121004,31.67454948
仕南度假村,住宿服务,住宿服务相关,住宿服务相关|体育休闲服务,港东公路888号(港西派出所对面),上海市,上海市,崇明区,121.421492,31.67578257
吉祥度假村,体育休闲服务,度假疗养场所,度假村|住宿服务,港西镇港东公路999号,上海市,上海市,崇明区,121.4216307,31.68123001
恬绿农庄,体育休闲服务,休闲场所,休闲场所,港东公路888号,上海市,上海市,崇明区,121.4212947,31.67638339
建设敬老院,体育休闲服务,度假疗养场所,疗养院,建设镇虹桥路312号,上海市,上海市,崇明区,121.450605,31.67917818
上海崇明建设老年日托所,体育休闲服务,度假疗养场所,疗养院,虹桥路北50米,上海市,上海市,崇明区,121.4508647,31.67889874
大灶头农家乐,体育休闲服务,休闲场所,休闲场所,虹桥村1118号,上海市,上海市,崇明区,121.4531541,31.67650978
八方聚友农家乐,体育休闲服务,休闲场所,休闲场所,建设镇虹桥村1128号,上海市,上海市,崇明区,121.4523801,31.67522394
久香农家乐,体育休闲服务,体育休闲服务场所,体育休闲服务场所,虹桥村1114号,上海市,上海市,崇明区,121.453093,31.67547958
虹桥葡萄园,体育休闲服务,休闲场所,采摘园|公司企业,建设公路与红梅二路交叉口南150米,上海市,上海市,崇明区,121.4548594,31.68146301
大雄农家乐,体育休闲服务,休闲场所,休闲场所,虹桥村306室,上海市,上海市,崇明区,121.4629476,31.67862876
崇明日租素心农家乐别墅,体育休闲服务,休闲场所,休闲场所,建设镇虹桥村317号,上海市,上海市,崇明区,121.4630519,31.67829901
顾伯伯草莓采摘园,体育休闲服务,休闲场所,采摘园,建设镇虹桥村301号,上海市,上海市,崇明区,121.4626547,31.67880502
顾伯伯农家乐草莓采摘园(森林公园店)(森林公园店),体育休闲服务,休闲场所,采摘园,虹桥路北50米,上海市,上海市,崇明区,121.461795,31.67895183
上海市崇明县航航农家乐,体育休闲服务,休闲场所,休闲场所,建设镇虹桥村1495号,上海市,上海市,崇明区,121.4573985,31.6837872
嘉成农家乐,体育休闲服务,休闲场所,休闲场所,虹桥村513号东平森林公园2号门南侧,上海市,上海市,崇明区,121.4645973,31.68314229
崇明人家草莓园,体育休闲服务,休闲场所,采摘园,建设镇虹桥村附近,上海市,上海市,崇明区,121.4614305,31.68388919
要要吃农家乐,体育休闲服务,休闲场所,休闲场所,建设镇北沿公路虹桥村117号,上海市,上海市,崇明区,121.4664795,31.68097613
龙香缘农家菜馆,体育休闲服务,休闲场所,休闲场所,建设镇虹桥村136号,上海市,上海市,崇明区,121.4667302,31.68157283
前卫村琴乐农家乐,体育休闲服务,休闲场所,休闲场所,前卫村322号,上海市,上海市,崇明区,121.4667001,31.68166275
缘辉农家乐,体育休闲服务,休闲场所,休闲场所,建设镇虹桥村12号(近东平国家森林公园2号门东侧),上海市,上海市,崇明区,121.4672288,31.68135015
笑乐园农家乐,体育休闲服务,休闲场所,休闲场所|体育休闲服务,东平国家森林公园2号门斜对面50米,上海市,上海市,崇明区,121.465419,31.68268142
田米米农家乐,体育休闲服务,休闲场所,休闲场所,"虹桥村斜桥2233-2235号,近东平国家森林公园2号门",上海市,上海市,崇明区,121.4664607,31.67747988
金慧敏农家乐,体育休闲服务,休闲场所,休闲场所,虹桥村223号近森林公园2号门,上海市,上海市,崇明区,121.4660191,31.67948582
金地湾农家乐,体育休闲服务,休闲场所,休闲场所,虹桥村221号,上海市,上海市,崇明区,121.4659018,31.6793095
崇明金大妈农家乐(森林公园店),体育休闲服务,休闲场所,休闲场所,虹桥村237号,上海市,上海市,崇明区,121.4663069,31.68120668
森虹农家乐西区,体育休闲服务,休闲场所,休闲场所,北沿公路西50米,上海市,上海市,崇明区,121.4655644,31.6826468
虹桥农家乐,体育休闲服务,休闲场所,休闲场所,近郊崇明建设镇虹桥村239号(东平国家森林公园2号门东侧),上海市,上海市,崇明区,121.4664483,31.68160308
龙之缘农家乐,体育休闲服务,休闲场所,休闲场所,建设镇虹桥村145号(森林公园2号门向东30米),上海市,上海市,崇明区,121.4667533,31.6817089
好时光农家乐,体育休闲服务,休闲场所,休闲场所,"虹桥村243号,近国家森林公园2号门",上海市,上海市,崇明区,121.465419,31.68268042
丰丰农家乐,体育休闲服务,休闲场所,休闲场所,建设镇虹桥村512号,上海市,上海市,崇明区,121.4650347,31.68305643
崇明根宝足球基地,体育休闲服务,体育休闲服务场所,体育休闲服务场所,东平林场国家东平森林公园南首,上海市,上海市,崇明区,121.4740466,31.67821568
森虹农家乐,体育休闲服务,休闲场所,休闲场所,北沿公路,上海市,上海市,崇明区,121.4657771,31.68270437
虹宇农家乐,体育休闲服务,休闲场所,休闲场所,北沿公路西100米,上海市,上海市,崇明区,121.4655033,31.68228962
虹桥村休闲健身广场,体育休闲服务,运动场馆,户外健身场所,虹桥村244号附近(近东平国家森林公园2号门),上海市,上海市,崇明区,121.4655414,31.68262874
上海宝岛度假村,体育休闲服务,度假疗养场所,度假村,北沿公路2097号,上海市,上海市,崇明区,121.4751998,31.67517076
崇明cs基地,体育休闲服务,娱乐场所,娱乐场所,东平南大道与贞薇路交叉口南100米,上海市,上海市,崇明区,121.4810336,31.67922173
骑马场,体育休闲服务,运动场馆,赛马场,棕榈路与贞薇路交叉口西50米,上海市,上海市,崇明区,121.4814688,31.68317422
紫海鹭缘浪漫爱情主题庄园,体育休闲服务,度假疗养场所,度假村,东平镇北沿公路2018号(蟠龙公路口),上海市,上海市,崇明区,121.4916698,31.67561999
函田度假村,体育休闲服务,度假疗养场所,度假村,东平镇北沿公路2038号,上海市,上海市,崇明区,121.4874918,31.67513451
风伟健身苑,体育休闲服务,运动场馆,户外健身场所,林风公路251号,上海市,上海市,崇明区,121.4863143,31.67906123
德丽苑度假村,体育休闲服务,度假疗养场所,度假村,东平国家森林公园东首北沿公路2038号,上海市,上海市,崇明区,121.4870994,31.67536736
祟明人家农家乐,体育休闲服务,休闲场所,休闲场所,北沿公路(建设路口),上海市,上海市,崇明区,121.5084366,31.6825443
上海市崇明东平养老院,体育休闲服务,度假疗养场所,疗养院,东平镇北沿公路1725弄728号,上海市,上海市,崇明区,121.5293474,31.67884282
长江影剧院(育才路),体育休闲服务,影剧院,影剧院相关,长江公路与黄河路交叉口南100米,上海市,上海市,崇明区,121.5342585,31.67693787
瀛都歌舞厅,体育休闲服务,娱乐场所,KTV,长江农场黄河路8号瀛都宾馆附近,上海市,上海市,崇明区,121.5357328,31.67768942
崇明布衣翠冠梨采摘园,体育休闲服务,休闲场所,采摘园,万安北路东100米,上海市,上海市,崇明区,121.3408725,31.66510887
上海盛氏果业采摘园,体育休闲服务,休闲场所,采摘园,陈海公路东50米,上海市,上海市,崇明区,121.3817831,31.67158212
玉丰果园草莓采摘基地,体育休闲服务,休闲场所,采摘园,协津公路东200米,上海市,上海市,崇明区,121.3887727,31.67331953
上海外婆家农家乐,体育休闲服务,休闲场所,休闲场所,建设公路3589号(近北沿公路),上海市,上海市,崇明区,121.450563,31.66590044
建设镇虹桥村健身点,体育休闲服务,运动场馆,户外健身场所,斜桥北路与斜桥路交叉口东150米,上海市,上海市,崇明区,121.4568159,31.67071609
怡沁园度假村,体育休闲服务,度假疗养场所,度假村,北沿公路2089号,上海市,上海市,崇明区,121.4733417,31.67299143
怡沁园(虹富路),体育休闲服务,度假疗养场所,度假村,北沿公路2089号附近,上海市,上海市,崇明区,121.4733417,31.67299143
东平桂花园,体育休闲服务,休闲场所,采摘园|公司企业,卫家河路与斜桥路交叉口东北200米,上海市,上海市,崇明区,121.4664844,31.67026559
建设镇运南村第二老年活动室,体育休闲服务,休闲场所,休闲场所,界山路与虹富路交叉口北200米,上海市,上海市,崇明区,121.4681973,31.66572297
根宝足球基地,体育休闲服务,运动场馆,足球场,建设镇嘉和苑度假村,上海市,上海市,崇明区,121.4806377,31.67298425
嘉和苑度假村,住宿服务,住宿服务相关,住宿服务相关|体育休闲服务,秀林路188号(东平国家森林公园南侧),上海市,上海市,崇明区,121.4809319,31.67199406
龙群度假村,住宿服务,宾馆酒店,宾馆酒店|体育休闲服务,上海建设镇秀林路218号(根宝基地对面),上海市,上海市,崇明区,121.4814074,31.67293949
绿岛四季度假村,体育休闲服务,度假疗养场所,度假村,建设镇秀林路188号,上海市,上海市,崇明区,121.4785148,31.66737586
上海东亚足球俱乐部,体育休闲服务,运动场馆,足球场,建设镇秀林路191号上海根宝足球基地,上海市,上海市,崇明区,121.4790161,31.67247553
红安明人会所,体育休闲服务,体育休闲服务场所,体育休闲服务场所,建设镇根宝足球基地南首,上海市,上海市,崇明区,121.4806377,31.67298325
上海根宝足球基地-室外足球场,体育休闲服务,运动场馆,足球场,秀林路191号上海根宝足球基地内,上海市,上海市,崇明区,121.4788918,31.67183514
上海东亚足球俱乐部-多功能室,体育休闲服务,体育休闲服务场所,体育休闲服务场所,秀林路191号上海根宝足球基地上海东亚足球俱乐部内,上海市,上海市,崇明区,121.4790161,31.67249853
上海东亚足球俱乐部-室内足球场,体育休闲服务,运动场馆,足球场,秀林路191号上海根宝足球基地上海东亚足球俱乐部内,上海市,上海市,崇明区,121.4790161,31.67249053
上海东亚足球俱乐部健身房,体育休闲服务,运动场馆,健身中心,秀林路191号上海根宝足球基地上海东亚足球俱乐部内,上海市,上海市,崇明区,121.4790081,31.67248951
小宋草莓采摘园(垂钓甜瓜西瓜),体育休闲服务,休闲场所,采摘园,蟠龙公路(近森林公园紫海鹭缘),上海市,上海市,崇明区,121.4870958,31.67069512
文佳农家乐,体育休闲服务,休闲场所,休闲场所,桂林路,上海市,上海市,崇明区,121.5353994,31.67066128
崇明区水木坊农家乐,体育休闲服务,体育休闲服务场所,体育休闲服务场所,庙镇崇安一队(万安路),上海市,上海市,崇明区,121.334225,31.65450373
万安村社区老年活动室,体育休闲服务,休闲场所,休闲场所,万安路与江万公路交叉口东50米,上海市,上海市,崇明区,121.3436416,31.65455357
万安村崇安305号,体育休闲服务,体育休闲服务场所,体育休闲服务场所,江万公路东100米,上海市,上海市,崇明区,121.3356479,31.65447207
羽彤草莓园,体育休闲服务,休闲场所,采摘园,城桥镇马桥村斜港425号(居委会北行150米处),上海市,上海市,崇明区,121.3822771,31.65552217
奶油草莓采摘园,体育休闲服务,休闲场所,采摘园,城桥镇马桥村岱山路,上海市,上海市,崇明区,121.3837312,31.65443124
夏记垂钓中心,体育休闲服务,休闲场所,垂钓园,团城公路与港东公路交叉口西北50米,上海市,上海市,崇明区,121.4159755,31.65622356
微微旅馆(镇中路),体育休闲服务,休闲场所,休闲场所|住宿服务,建设镇镇南路21号(电信营业厅旁),上海市,上海市,崇明区,121.4493225,31.65806243
陈家小姨农家乐,体育休闲服务,休闲场所,休闲场所,建设镇红梅村十四队建设公路北沿路口南边西边第一家,上海市,上海市,崇明区,121.4498327,31.65865756
百草源生态农庄,体育休闲服务,休闲场所,采摘园,镇中路与虹富路运南村528号,上海市,上海市,崇明区,121.4672291,31.655405
三耘火龙果采摘园,体育休闲服务,休闲场所,采摘园,建设镇浜西北中心路8号,上海市,上海市,崇明区,121.4816102,31.66046255
蟠龙生态草莓园,体育休闲服务,体育休闲服务场所,体育休闲服务场所,蟠龙公路2688,上海市,上海市,崇明区,121.4910331,31.65772633
盆景采摘,体育休闲服务,体育休闲服务场所,体育休闲服务场所,蟠龙公路2688号上海名阳生态园内,上海市,上海市,崇明区,121.4977928,31.65460747
上海蟠龙生态园垂钓区,体育休闲服务,休闲场所,垂钓园,蟠龙公路2688号上海蟠龙生态园,上海市,上海市,崇明区,121.4966464,31.65750313
金足苑棋牌,体育休闲服务,娱乐场所,棋牌室,城桥镇高岛路228号,上海市,上海市,崇明区,121.4075271,31.64451697
禹翼大圣棋牌室,体育休闲服务,娱乐场所,棋牌室,城桥镇东引路877弄金珠花园A区大门口,上海市,上海市,崇明区,121.4078442,31.64465311
三星村老年活动室,体育休闲服务,休闲场所,休闲场所,建设镇,上海市,上海市,崇明区,121.441957,31.65106321
富安村老年活动室,体育休闲服务,休闲场所,休闲场所,富星路与长侯公路交叉口西南150米,上海市,上海市,崇明区,121.4724171,31.64459589
崇明农家乐,体育休闲服务,休闲场所,休闲场所,浜东中路与浜东路交叉口东100米,上海市,上海市,崇明区,121.4987294,31.6518802
源大森林艺术农庄,体育休闲服务,体育休闲服务场所,体育休闲服务场所,新河镇民生村民主1243号,上海市,上海市,崇明区,121.5124208,31.64658144
星光老年之家(海鸥二村西南),体育休闲服务,娱乐场所,娱乐场所,前进大街28号附近,上海市,上海市,崇明区,121.5951986,31.64512104
贤达会所,体育休闲服务,娱乐场所,棋牌室,城桥镇三沙洪路338号,上海市,上海市,崇明区,121.3843893,31.63646251
皇都KTV(中津桥路),体育休闲服务,娱乐场所,KTV,城桥镇中津桥路116号,上海市,上海市,崇明区,121.3944944,31.63446792
君豪国际,体育休闲服务,娱乐场所,KTV,崇明西门路81号,上海市,上海市,崇明区,121.3941641,31.63914001
上海玉峰度假村,体育休闲服务,度假疗养场所,度假村,崇明西门路689甲,上海市,上海市,崇明区,121.3917246,31.63931252
上海崇明区城桥第一敬老院,体育休闲服务,度假疗养场所,疗养院,岛城桥镇油车湾街67号,上海市,上海市,崇明区,121.4034998,31.63890948
利民托老院,体育休闲服务,度假疗养场所,疗养院,利民村179,上海市,上海市,崇明区,121.3986475,31.64257481
佳腾棋牌,体育休闲服务,娱乐场所,棋牌室,城桥镇中津桥路74号,上海市,上海市,崇明区,121.3963212,31.63506774
圆管娱乐厅,体育休闲服务,娱乐场所,娱乐场所,中津桥路55-6号,上海市,上海市,崇明区,121.3956783,31.63442878
伟东尔曼网吧,体育休闲服务,娱乐场所,网吧,城桥镇育麟桥路188弄亚尔培13室,上海市,上海市,崇明区,121.409853,31.63859102
新崇大酒店-行政酒廊,体育休闲服务,娱乐场所,酒吧,鼓浪屿路777号新崇大酒店12层,上海市,上海市,崇明区,121.4126489,31.63963672
上海市崇明中学体育馆,体育休闲服务,运动场馆,综合体育馆,城桥镇鼓浪屿路801号,上海市,上海市,崇明区,121.4119552,31.6416993
崇明区青少年游泳馆,体育休闲服务,运动场馆,游泳馆,城桥镇团城公路7398,上海市,上海市,崇明区,121.4188992,31.63810776
上海市崇明东平瀛润敬老院,体育休闲服务,度假疗养场所,疗养院,北沿公路1323号,上海市,上海市,崇明区,121.5951398,31.642407
北湖湾度假村KTV,体育休闲服务,娱乐场所,KTV,北沿公路1288号(近国家东平森林公园),上海市,上海市,崇明区,121.6049436,31.64353521
上海北湖湾度假村,住宿服务,宾馆酒店,宾馆酒店|体育休闲服务,北沿公路1288号,上海市,上海市,崇明区,121.6054034,31.64395098
崇明小石钓场,体育休闲服务,体育休闲服务场所,体育休闲服务场所,G40(沪陕高速),上海市,上海市,崇明区,121.6948011,31.63438332
施翘河包瀛棋牌室,体育休闲服务,娱乐场所,棋牌室,崇明人民路672号附近,上海市,上海市,崇明区,121.3794619,31.62838473
雪琴梦芭蕾舞厅,体育休闲服务,娱乐场所,迪厅,城桥镇三沙洪路118号,上海市,上海市,崇明区,121.3803351,31.62819208
乐鑫棋牌室(崇明人民路店),体育休闲服务,娱乐场所,棋牌室,城桥镇崇明人民路651号,上海市,上海市,崇明区,121.3824146,31.62693866
燕皇棋牌室,体育休闲服务,娱乐场所,棋牌室,城桥镇北门路518号,上海市,上海市,崇明区,121.3823382,31.63121572
汇潮休闲会所,体育休闲服务,娱乐场所,娱乐场所,崇明人民路636,上海市,上海市,崇明区,121.3814532,31.6276533
崇明影剧院,体育休闲服务,影剧院,电影院,八一路488号(近北门路),上海市,上海市,崇明区,121.3921955,31.62794233
无双网吧(崇明西门路),体育休闲服务,娱乐场所,网吧,成桥镇北门路288号2层,上海市,上海市,崇明区,121.390098,31.62956293
好运来糖果,体育休闲服务,娱乐场所,KTV,崇明北门路279-31号附近,上海市,上海市,崇明区,121.3891855,31.62822724
凯歌夜总会,体育休闲服务,娱乐场所,夜总会,城桥镇八一路600(近西门路),上海市,上海市,崇明区,121.393525,31.63027906
信闲网吧,体育休闲服务,娱乐场所,网吧,城桥镇八一路456号,上海市,上海市,崇明区,121.3921476,31.62700734
瀛通大酒店KTV,体育休闲服务,娱乐场所,KTV,北门路190号上海瀛通大酒店B1层,上海市,上海市,崇明区,121.3925943,31.62880924
凯歌KTV,体育休闲服务,娱乐场所,KTV,城桥镇八一路6百号,上海市,上海市,崇明区,121.393277,31.6303611
闽江网吧(川心街),体育休闲服务,娱乐场所,网吧,城桥镇八一路600号,上海市,上海市,崇明区,121.3938659,31.630132
网鱼网咖(上海八一路店),体育休闲服务,娱乐场所,网吧,八一路328号3层,上海市,上海市,崇明区,121.3917839,31.62506444
动漫城,体育休闲服务,娱乐场所,游戏厅,崇明北门路与掘头街交叉口西南50米,上海市,上海市,崇明区,121.3924404,31.62816328
崇明区机关事业单位退休人员活动室,体育休闲服务,休闲场所,休闲场所,新崇西路125号,上海市,上海市,崇明区,121.3894535,31.62661315
休闲棋牌(崇明西门路),体育休闲服务,娱乐场所,棋牌室,区西门路318号,上海市,上海市,崇明区,121.3886959,31.62620943
飞飞网咖(崇明吴家弄),体育休闲服务,娱乐场所,网吧,城桥镇八一路335号原文化馆内,上海市,上海市,崇明区,121.3909051,31.62536168
飞顺棋牌室,体育休闲服务,娱乐场所,棋牌室,西门北村46号西楼梯对面,上海市,上海市,崇明区,121.3868356,31.62868122
鑫鑫棋牌(崇明北门路),体育休闲服务,娱乐场所,棋牌室,城桥镇北门路357号2,上海市,上海市,崇明区,121.3872254,31.62890704
崇映台球,体育休闲服务,运动场馆,台球厅,崇明北门路219号附近,上海市,上海市,崇明区,121.3921915,31.62789433
聚友棋牌(崇明青年路),体育休闲服务,娱乐场所,棋牌室,青年路22,上海市,上海市,崇明区,121.392529,31.63224627
强强棋牌室(崇明西门路),体育休闲服务,娱乐场所,棋牌室,城桥镇西门路250号,上海市,上海市,崇明区,121.388504,31.62547751
嘻哈儿童梦幻乐园,体育休闲服务,体育休闲服务场所,体育休闲服务场所,城桥镇八一路328号精品商厦二楼(莫泰168隔壁),上海市,上海市,崇明区,121.3917089,31.62505546
龙珠电玩动漫城,体育休闲服务,娱乐场所,游戏厅,城桥镇八一路338号,上海市,上海市,崇明区,121.3918378,31.62532642
军顺棋牌室,体育休闲服务,娱乐场所,棋牌室,城桥镇北门路169号后面北门菜场2层,上海市,上海市,崇明区,121.3937052,31.62781702
姐妹棋牌室(崇明青年路),体育休闲服务,娱乐场所,棋牌室,崇明青年路26,上海市,上海市,崇明区,121.3924081,31.63227529
顺豪娱乐城,体育休闲服务,娱乐场所,娱乐场所,城桥镇新崇西路188号,上海市,上海市,崇明区,121.390437,31.62811482
炬石健身,体育休闲服务,运动场馆,健身中心,城桥镇八一路308号(迪欧咖啡三楼),上海市,上海市,崇明区,121.3917469,31.62473045
良茂娱乐城,体育休闲服务,娱乐场所,游戏厅,八一路476号2层,上海市,上海市,崇明区,121.3922565,31.62734132
兴兴娱乐室,体育休闲服务,娱乐场所,棋牌室,青年路12号,上海市,上海市,崇明区,121.3930849,31.63207415
好友林棋牌室,体育休闲服务,娱乐场所,棋牌室,崇明青年路25,上海市,上海市,崇明区,121.3923301,31.63209431
欢乐棋牌(西引路),体育休闲服务,娱乐场所,棋牌室,西引路229号附近,上海市,上海市,崇明区,121.3848587,31.62921421
爱善水上乐园,体育休闲服务,休闲场所,水上活动中心,城桥镇北门路98,上海市,上海市,崇明区,121.394552,31.62849389
金廷KTV,体育休闲服务,娱乐场所,KTV,城桥镇北门路363号,上海市,上海市,崇明区,121.3870524,31.62920812
上海崇明gdp建设者农家乐分店,体育休闲服务,体育休闲服务场所,体育休闲服务场所,齐成村6组,上海市,上海市,崇明区,121.3927596,31.62456421
益友棋牌(新崇中路),体育休闲服务,娱乐场所,棋牌室,新崇中路407号2楼,上海市,上海市,崇明区,121.3895097,31.62417914
贝尼尔健身会所(崇明体育馆店),体育休闲服务,运动场馆,健身中心,北门路98号,上海市,上海市,崇明区,121.3948259,31.62832085
城桥镇社区文化活动中心分中心,体育休闲服务,娱乐场所,娱乐场所,八一路488,上海市,上海市,崇明区,121.3921845,31.62778134
e网情深(崇明东门路),体育休闲服务,娱乐场所,网吧,城桥镇东门路246号,上海市,上海市,崇明区,121.399022,31.62625271
崇明县人民体育场,体育休闲服务,运动场馆,综合体育馆,近郊城内北门路88号(八一路),上海市,上海市,崇明区,121.3955707,31.62975077
绝对浩迪量贩式歌城,体育休闲服务,娱乐场所,KTV,东门路177号,上海市,上海市,崇明区,121.3974391,31.62490968
鼎神娱乐,体育休闲服务,娱乐场所,KTV,东门路246号,上海市,上海市,崇明区,121.399279,31.62616273
江山居委社区老年活动室,体育休闲服务,休闲场所,休闲场所,一江山路562号2楼,上海市,上海市,崇明区,121.4017323,31.62738203
快活林棋牌(一江山路),体育休闲服务,娱乐场所,棋牌室,一江山路1678号,上海市,上海市,崇明区,121.4004251,31.62763384
崇明区老干部活动室,体育休闲服务,休闲场所,休闲场所,城桥镇北门路3号,上海市,上海市,崇明区,121.3984519,31.62723968
三毛养老院,体育休闲服务,度假疗养场所,疗养院,寒山寺路208号,上海市,上海市,崇明区,121.4004793,31.62490185
欣亮舞厅,体育休闲服务,娱乐场所,迪厅,城桥镇北门路88号,上海市,上海市,崇明区,121.3959328,31.62892974
佳贝爱亲子乐园,体育休闲服务,休闲场所,游乐场,城桥镇东门路156号,上海市,上海市,崇明区,121.3978501,31.62503568
欣亮休闲健身中心,体育休闲服务,运动场馆,健身中心,城桥镇北门路88号,上海市,上海市,崇明区,121.3957458,31.62865576
百顺棋牌休闲品茶,体育休闲服务,娱乐场所,棋牌室,东门路181号-105室,上海市,上海市,崇明区,121.3978561,31.62500468
宾宾棋牌室,体育休闲服务,娱乐场所,棋牌室,城桥镇酱园弄4号,上海市,上海市,崇明区,121.3966089,31.6271127
崇明体育馆,体育休闲服务,运动场馆,综合体育馆,北门路98号体育馆(八一路),上海市,上海市,崇明区,121.3954528,31.62853078
百顺,体育休闲服务,娱乐场所,棋牌室,东门路182,上海市,上海市,崇明区,121.3978181,31.62497868
尚武精英跆拳道俱乐部,体育休闲服务,运动场馆,跆拳道场馆,北门路88号,上海市,上海市,崇明区,121.3954509,31.62831378
天赐景城61号,体育休闲服务,娱乐场所,酒吧,湄洲路与玉环路交叉口东北200米,上海市,上海市,崇明区,121.4069229,31.63151256
天赐景城163号,体育休闲服务,娱乐场所,KTV,湄洲路与花鸟路交叉口东南100米,上海市,上海市,崇明区,121.4068257,31.63341353
淘气堡网吧,体育休闲服务,娱乐场所,网吧,城桥镇翠竹路1588弄2号,上海市,上海市,崇明区,121.4231514,31.62798113
动漫城网吧,体育休闲服务,娱乐场所,网吧,松翠路与紫檀路交叉口西南50米,上海市,上海市,崇明区,121.4233487,31.62765936
红掌969,体育休闲服务,娱乐场所,酒吧,翠竹路附近,上海市,上海市,崇明区,121.4239787,31.62719509
瀛定娱乐会所,体育休闲服务,娱乐场所,娱乐场所,绿海路408号(近海岛新城),上海市,上海市,崇明区,121.430549,31.62737771
大同村社区老年活动室,体育休闲服务,休闲场所,休闲场所,蟠龙公路1399,上海市,上海市,崇明区,121.4849968,31.63052291
上海施宅半院民宿,体育休闲服务,休闲场所,休闲场所,建设镇大同村蟠龙1327号大同敬老院旁,上海市,上海市,崇明区,121.4861772,31.62870939
璞然童趣营,体育休闲服务,娱乐场所,娱乐场所,向蟠公路(东南路向西150米),上海市,上海市,崇明区,121.4945264,31.6264473
上海缘福生态庄园,体育休闲服务,度假疗养场所,度假村,建设镇大同村蟠南548号,上海市,上海市,崇明区,121.4958722,31.62646633
崇明东瀛村农家乐,体育休闲服务,休闲场所,休闲场所,东瀛村(近东滩),上海市,上海市,崇明区,121.5245362,31.62959791
新河篮球点,体育休闲服务,体育休闲服务场所,体育休闲服务场所,北新公路与永民路交叉口西南200米,上海市,上海市,崇明区,121.5354055,31.63406632
永丰村社区老年活动室,体育休闲服务,休闲场所,休闲场所,永民路688,上海市,上海市,崇明区,121.5594389,31.62979232
设计丰收民宿,体育休闲服务,休闲场所,休闲场所,竖新镇仙桥村930号(近前竖公路),上海市,上海市,崇明区,121.6136318,31.63246032
施门种地农家乐,体育休闲服务,休闲场所,休闲场所,竖新镇仙桥村547号,上海市,上海市,崇明区,121.6054342,31.63388885
森苗木屋庄园,体育休闲服务,休闲场所,休闲场所,竖新镇,上海市,上海市,崇明区,121.680849,31.62954576
崇明小石钓场,体育休闲服务,休闲场所,垂钓园,,上海市,上海市,崇明区,121.7033145,31.63374219
城桥镇观潮新村居委会老年活动室,体育休闲服务,休闲场所,休闲场所,观潮新村43幢101-102室,上海市,上海市,崇明区,121.3821961,31.62328782
焦点KTV(崇明西门路),体育休闲服务,娱乐场所,KTV,城桥镇西门路100号(近新崇南路),上海市,上海市,崇明区,121.3879905,31.62284073
大发棋牌(新崇南路),体育休闲服务,娱乐场所,棋牌室,新崇南路38号2层,上海市,上海市,崇明区,121.3916501,31.62224049
迪乐尼游乐园,体育休闲服务,休闲场所,游乐场,城桥镇新崇南路89号(锦绣宾馆斜对面),上海市,上海市,崇明区,121.3937237,31.62164004
好享来量贩式KTV,体育休闲服务,娱乐场所,KTV,朝阳门路17号3层,上海市,上海市,崇明区,121.3945716,31.62129491
天天乐棋牌室(新崇中路住宅区南),体育休闲服务,娱乐场所,棋牌室,城桥镇新崇西路1号,上海市,上海市,崇明区,121.3888092,31.6224214
飞捷网吧,体育休闲服务,娱乐场所,网吧,新崇南路178号,上海市,上海市,崇明区,121.392295,31.62225033
新大棋牌,体育休闲服务,娱乐场所,棋牌室,崇安路5,上海市,上海市,崇明区,121.3914105,31.61939958
Edge Bar,体育休闲服务,娱乐场所,酒吧,城桥镇新崇南路128号,上海市,上海市,崇明区,121.3929338,31.62194419
欢游谷游艺世界,体育休闲服务,娱乐场所,游戏厅,八一路206号8壹广场3层,上海市,上海市,崇明区,121.3917771,31.62267845
崇明区农业委员会文化活动中心,体育休闲服务,休闲场所,休闲场所,南门路286-1号,上海市,上海市,崇明区,121.3869372,31.6213152
城桥镇崇安路健身点,体育休闲服务,运动场馆,户外健身场所,崇安路10号附近,上海市,上海市,崇明区,121.3916624,31.61950651
天鹤棋牌,体育休闲服务,娱乐场所,棋牌室,南门路178号天鹤大酒店6层,上海市,上海市,崇明区,121.3919071,31.62170643
天天乐休闲室,体育休闲服务,娱乐场所,棋牌室,新崇南路与新崇西路交叉口西北50米,上海市,上海市,崇明区,121.3888002,31.62240741
淘气堡(8壹广场),体育休闲服务,休闲场所,游乐场|餐饮服务,八一路206号8壹广场F2层050,上海市,上海市,崇明区,121.392048,31.62267838
8壹游艺世界,体育休闲服务,娱乐场所,游戏厅,八一路204号附近,上海市,上海市,崇明区,121.392121,31.62286337
上野Lounge Bar,体育休闲服务,娱乐场所,酒吧,富民街与新崇中路交叉口西50米,上海市,上海市,崇明区,121.3920199,31.62381339
8壹动漫世界,体育休闲服务,娱乐场所,游戏厅,八一路206号8壹广场F3层037,上海市,上海市,崇明区,121.3918891,31.62249343
绿洲棋牌(富民街),体育休闲服务,娱乐场所,棋牌室,八一路248-5号附近,上海市,上海市,崇明区,121.391868,31.62342443
小燕子棋牌室,体育休闲服务,娱乐场所,棋牌室,崇明吴家弄与新崇中路交叉口西南50米,上海市,上海市,崇明区,121.3902814,31.62392788
锦绣棋牌(兴贤街),体育休闲服务,娱乐场所,棋牌室,新崇南路68号锦绣宾馆,上海市,上海市,崇明区,121.3938736,31.62257701
儿童乐园,体育休闲服务,休闲场所,游乐场,鳌山路679号瀛洲公园内,上海市,上海市,崇明区,121.3964206,31.61875176
恋鑫娱乐,体育休闲服务,娱乐场所,KTV,学宫路287-1号,上海市,上海市,崇明区,121.4025461,31.62103022
顺利量贩KTV,体育休闲服务,娱乐场所,KTV,新崇南路38号顺利大酒店1层,上海市,上海市,崇明区,121.3949824,31.62258385
夕阳乐园,体育休闲服务,度假疗养场所,疗养院,鳌山路623号附近,上海市,上海市,崇明区,121.4015961,31.61862906
瀛洲公园-百姓健身步道,体育休闲服务,运动场馆,运动场所,鳌山路679号瀛洲公园内,上海市,上海市,崇明区,121.3972595,31.61949772
盛时商务会所,体育休闲服务,休闲场所,休闲场所,所有县学宫路339号,上海市,上海市,崇明区,121.3989634,31.62217373
南门社区居委会老年活动室,体育休闲服务,休闲场所,休闲场所,新崇东路与新崇南路交叉口西南50米,上海市,上海市,崇明区,121.3950815,31.62142985
网格中心,体育休闲服务,体育休闲服务场所,体育休闲服务场所,城桥镇寒山寺路164号,上海市,上海市,崇明区,121.4036212,31.62352046
来发棋牌(湄洲路),体育休闲服务,娱乐场所,棋牌室,湄洲路236号2层,上海市,上海市,崇明区,121.4039444,31.62260155
向明活动室,体育休闲服务,娱乐场所,棋牌室,东门路38-1号,上海市,上海市,崇明区,121.3975072,31.62286969
鑫旺棋牌室(崇明东门路),体育休闲服务,娱乐场所,棋牌室,城桥镇东门路142号,上海市,上海市,崇明区,121.3971092,31.62355669
康乐托老所(寒山寺路),体育休闲服务,度假疗养场所,疗养院,东门村1123号寒山寺路,上海市,上海市,崇明区,121.4077322,31.62200193
紫金KTV,体育休闲服务,娱乐场所,KTV,城桥镇寒山寺路88号,上海市,上海市,崇明区,121.405584,31.62282006
紫京娱乐会所,体育休闲服务,娱乐场所,娱乐场所,城桥镇寒山寺路88号,上海市,上海市,崇明区,121.4059482,31.6226552
上海崇明宝岛冬泳队训练基地,体育休闲服务,运动场馆,游泳馆,定澜路北200米,上海市,上海市,崇明区,121.4158102,31.623598
崇明瀛洲风剧场,体育休闲服务,影剧院,剧场,崇明大道7887号,上海市,上海市,崇明区,121.4254925,31.62024594
上海崇明区城桥第三敬老院,体育休闲服务,度假疗养场所,疗养院,城桥镇长侯路29号,上海市,上海市,崇明区,121.4563071,31.61787992
小丁草莓园,体育休闲服务,体育休闲服务场所,体育休闲服务场所,强民路与进隆路交叉口西南角,上海市,上海市,崇明区,121.5035843,31.62428437
新河镇阳光之家,体育休闲服务,体育休闲服务场所,体育休闲服务场所,新河镇新晨路69号,上海市,上海市,崇明区,121.5326004,31.61986358
新民镇棋牌室,体育休闲服务,娱乐场所,棋牌室,新晨路35号附近,上海市,上海市,崇明区,121.5341089,31.61935225
欢欢棋牌室(新民社区卫生服务分中心北),体育休闲服务,娱乐场所,棋牌室,北新公路418号,上海市,上海市,崇明区,121.5336655,31.62101616
钟先生的果园,体育休闲服务,休闲场所,采摘园,新河镇新建村云港路8队,上海市,上海市,崇明区,121.5519173,31.61530801
奇果农庄,体育休闲服务,休闲场所,休闲场所,新新路东50米,上海市,上海市,崇明区,121.5561225,31.61465524
上海Bene农家乐,体育休闲服务,休闲场所,休闲场所,育才村,上海市,上海市,崇明区,121.5835979,31.61964189
上海龚家花园农家乐休闲别墅,体育休闲服务,休闲场所,休闲场所,竖新镇光明中路1032号,上海市,上海市,崇明区,121.591786,31.61965395
崇明区竖新镇大新敬老院,体育休闲服务,度假疗养场所,疗养院,富民路与草港公路交叉口西150米,上海市,上海市,崇明区,121.5923656,31.61473805
轩瑞农家乐饭庄,体育休闲服务,休闲场所,休闲场所,前竖公路与春风二路交叉口西北50米,上海市,上海市,崇明区,121.5986039,31.61973341
八仙酒家,体育休闲服务,休闲场所,休闲场所,"跃进新南1269号,近响椿路,515县道",上海市,上海市,崇明区,121.5978972,31.61573061
德利农庄,体育休闲服务,休闲场所,休闲场所,春风村256号,上海市,上海市,崇明区,121.6042608,31.62014345
崇明普仙坊农家乐,体育休闲服务,休闲场所,休闲场所,竖新镇前竖公路七号桥北首(近仙桥村),上海市,上海市,崇明区,121.5979773,31.6151976
响L村社区老年活动室,体育休闲服务,休闲场所,休闲场所,响L中路西50米,上海市,上海市,崇明区,121.6177177,31.61764068
鸿利钓场,体育休闲服务,休闲场所,垂钓园,城桥镇张港村13队(张港路与海堤交接处),上海市,上海市,崇明区,121.4254364,31.60904304
老沈农家乐,体育休闲服务,体育休闲服务场所,体育休闲服务场所,团城公路6184号,上海市,上海市,崇明区,121.4635988,31.60798326
小杨草莓园,体育休闲服务,休闲场所,采摘园,团城公路与南建路交叉口处,上海市,上海市,崇明区,121.4774775,31.60721427
瀛居轩农家乐,体育休闲服务,体育休闲服务场所,体育休闲服务场所,建设村东平1108-1号,上海市,上海市,崇明区,121.4801097,31.60611388
康馨养老院,体育休闲服务,度假疗养场所,疗养院,新进公路与义化路交叉口西北100米,上海市,上海市,崇明区,121.5192004,31.60733267
强民村社区老年活动室,体育休闲服务,娱乐场所,娱乐场所,中心路与时进路交叉口东50米,上海市,上海市,崇明区,121.527409,31.6119376
沐雨农庄,体育休闲服务,休闲场所,休闲场所,竖新镇大东村680号,上海市,上海市,崇明区,121.611454,31.6117372
嘉龙养老院,体育休闲服务,度假疗养场所,疗养院,竖新镇大东村1003号,上海市,上海市,崇明区,121.6125263,31.61164137
德利农家乐,体育休闲服务,休闲场所,休闲场所,大东村304号,上海市,上海市,崇明区,121.6126908,31.60474341
龙鱼休闲垂钓基地,体育休闲服务,体育休闲服务场所,体育休闲服务场所,插乌路与草港公路交叉口东150米,上海市,上海市,崇明区,121.6223956,31.61014484
上海市淙明县高老虎农家乐,体育休闲服务,休闲场所,休闲场所,港沿镇富国齐乐村624号,上海市,上海市,崇明区,121.6315026,31.60650727
上海纯田休闲度假基地,体育休闲服务,休闲场所,休闲场所,港沿镇港沿公路1619号,上海市,上海市,崇明区,121.6630136,31.60483499
龙轩生态园,体育休闲服务,休闲场所,采摘园,北港北路,上海市,上海市,崇明区,121.7716276,31.60818492
上海华源・健绿生态农业园,体育休闲服务,休闲场所,采摘园,向化镇六公路北端,上海市,上海市,崇明区,121.7797337,31.60530456
上海忱园农家乐,体育休闲服务,休闲场所,休闲场所,城桥镇侯南村901号,上海市,上海市,崇明区,121.4569752,31.60398979
甜甜草莓园,体育休闲服务,休闲场所,休闲场所,井亭西路与团城公路交叉口东北100米,上海市,上海市,崇明区,121.4894553,31.60111655
天新村社区老年活动室,体育休闲服务,休闲场所,休闲场所,天一路与新艺公路交叉口西北50米,上海市,上海市,崇明区,121.5008252,31.60236353
上海崇明gdp建设者农家乐,体育休闲服务,休闲场所,休闲场所,五一零县道齐成村,上海市,上海市,崇明区,121.662352,31.6032033
崇明草莓农家乐,体育休闲服务,休闲场所,休闲场所,北沿公路洪效村,上海市,上海市,崇明区,121.7270091,31.59501693
一农生态农庄,体育休闲服务,休闲场所,休闲场所,向化镇北六路6000号晟槟生态创业园内,上海市,上海市,崇明区,121.755545,31.60422757
上海崇明泰生农场酒店,体育休闲服务,休闲场所,休闲场所,北七现代农业开发区园区南路,上海市,上海市,崇明区,121.7998655,31.59887577
上海好骑运马术庄园,体育休闲服务,休闲场所,休闲场所,汲浜公路999号(近园区南路),上海市,上海市,崇明区,121.803371,31.59528583
上海爱久马术俱乐部,体育休闲服务,运动场馆,马术俱乐部,汲浜公路999号,上海市,上海市,崇明区,121.803365,31.59528782
益品果蔬庄园,体育休闲服务,休闲场所,采摘园,上海崇明现代农业园区附近,上海市,上海市,崇明区,121.8074919,31.59593801
崇明岛老徐垂钓场,体育休闲服务,体育休闲服务场所,体育休闲服务场所,,上海市,上海市,崇明区,121.8358992,31.59512265
中数网络家园大东店,体育休闲服务,娱乐场所,网吧,城桥镇蟠龙公路11号,上海市,上海市,崇明区,121.4590443,31.59282922
童心乐园,体育休闲服务,休闲场所,游乐场,新中路733号附近,上海市,上海市,崇明区,121.5190769,31.58493316
上海高升旅馆农家乐,体育休闲服务,休闲场所,休闲场所,新河镇新景路与北新支路交叉口,上海市,上海市,崇明区,121.5227843,31.58456532
新河敬老院(招呼站团城公路公交站),体育休闲服务,度假疗养场所,疗养院,石路村1158,上海市,上海市,崇明区,121.5299401,31.58563097
东港网咖,体育休闲服务,娱乐场所,网吧,港沿公路1164号2楼,上海市,上海市,崇明区,121.6512954,31.58806954
港沿敬老院,体育休闲服务,度假疗养场所,疗养院,港沿镇港沿公路1101号,上海市,上海市,崇明区,121.6501666,31.58711762
港沿镇社区文化活动中心,体育休闲服务,休闲场所,休闲场所,港沿镇港沿公路1198号,上海市,上海市,崇明区,121.6524581,31.58940236
中荣军(上海)老年疗养中心,体育休闲服务,度假疗养场所,疗养院,港沿公路1290号附近,上海市,上海市,崇明区,121.6552246,31.59330709
艾薇丽生态农庄,体育休闲服务,休闲场所,休闲场所,港沿镇齐成村小漾公路1688号,上海市,上海市,崇明区,121.6794816,31.59322903
原始生态园,体育休闲服务,体育休闲服务场所,体育休闲服务场所,向化镇合兴镇路827号,上海市,上海市,崇明区,121.7038868,31.58558343
北洋度假村,体育休闲服务,度假疗养场所,度假村,合五公路4077号,上海市,上海市,崇明区,121.7060929,31.58511837
崇明永久网球场,体育休闲服务,运动场馆,网球场,北港4号路齐西5队桥附近,上海市,上海市,崇明区,121.7505735,31.58444703
一亩田有机农庄,体育休闲服务,休闲场所,休闲场所,北港路,上海市,上海市,崇明区,121.7627663,31.58589884
唱嗨纯K俱乐部,体育休闲服务,娱乐场所,KTV,新河镇新开河路623号,上海市,上海市,崇明区,121.5207326,31.58319281
东方网点(新河店),体育休闲服务,娱乐场所,网吧,新河镇新开河路629-647号,上海市,上海市,崇明区,121.5201697,31.58321527
朗诗台球会所,体育休闲服务,运动场馆,台球厅,新河镇新开河路689号,上海市,上海市,崇明区,121.5184268,31.58373942
新河敬老院(招呼站),体育休闲服务,度假疗养场所,疗养院,石路村1158号,上海市,上海市,崇明区,121.5351712,31.58205298
天乐果蔬草莓园,体育休闲服务,休闲场所,采摘园,新河镇石路村7队(团城公路旁),上海市,上海市,崇明区,121.5404645,31.5790643
天雅度假村,体育休闲服务,度假疗养场所,度假村,新河镇石路村塔东路149号,上海市,上海市,崇明区,121.5441936,31.5776044
石路村休闲广场,体育休闲服务,运动场馆,户外健身场所,团城公路与新河公路交叉口东50米,上海市,上海市,崇明区,121.538527,31.5800179
静捷旅游休闲度假农庄,体育休闲服务,度假疗养场所,度假村,竖新镇惠民村竖新456号,上海市,上海市,崇明区,121.5859241,31.57532438
堡镇人民村槐荫老年活动中心,体育休闲服务,休闲场所,休闲场所,人财路与大丈河路交叉口西北100米,上海市,上海市,崇明区,121.6096866,31.58157958
多多家庭农场蓝莓采摘园,体育休闲服务,休闲场所,采摘园,,上海市,上海市,崇明区,121.6308038,31.5789364
上海聚银庄园度假村,体育休闲服务,度假疗养场所,度假村,港沿村建业1135号(港沿镇东首),上海市,上海市,崇明区,121.6651584,31.58123886
蔬菜采摘区,体育休闲服务,休闲场所,采摘园,港沿镇东首上海聚银庄园度假村内,上海市,上海市,崇明区,121.6641363,31.58233076
聚银庄园,体育休闲服务,度假疗养场所,度假村|体育休闲服务,港沿村建业1135号,上海市,上海市,崇明区,121.6665277,31.58079426
聚银庄园度假村-会务中心,体育休闲服务,体育休闲服务场所,体育休闲服务场所,港沿镇东首上海聚银庄园度假村内,上海市,上海市,崇明区,121.6661325,31.58061703
上海聚银庄园度假村-篮球场,体育休闲服务,运动场馆,篮球场馆,港沿镇东首上海聚银庄园度假村内,上海市,上海市,崇明区,121.6660696,31.58063215
家园老年文体中心,体育休闲服务,休闲场所,休闲场所,合东南路与大港公路交叉口西南200米,上海市,上海市,崇明区,121.7236676,31.57577545
爱哝哝崇明田园休闲度假轰趴,体育休闲服务,体育休闲服务场所,体育休闲服务场所,北沿公路201号,上海市,上海市,崇明区,121.7449607,31.57790902
原野敬老院,体育休闲服务,度假疗养场所,疗养院,向化镇北沿公路六效河旁阜康村齐东714号,上海市,上海市,崇明区,121.7665542,31.5795538
五福养老,体育休闲服务,度假疗养场所,疗养院,向化镇阜康村齐东714号,上海市,上海市,崇明区,121.7664391,31.57931672
上海崇明区布衣农家乐休闲观光服务部,体育休闲服务,休闲场所,休闲场所,中兴镇富]村永北721号,上海市,上海市,崇明区,121.7942799,31.57607487
黄家花园农家乐,体育休闲服务,休闲场所,休闲场所,中兴镇富圩,上海市,上海市,崇明区,121.8127332,31.58078519
包阿姨农家草莓园,体育休闲服务,体育休闲服务场所,体育休闲服务场所,团城公路北100米,上海市,上海市,崇明区,121.5700017,31.56835687
崇明区竖河敬老院,体育休闲服务,度假疗养场所,疗养院,竖新镇朱桥路211号,上海市,上海市,崇明区,121.565566,31.5685468
鲜优农场,体育休闲服务,休闲场所,休闲场所,竖新镇竖新环路68号,上海市,上海市,崇明区,121.5823965,31.5655036
上海万果果蔬专业合作社,公司企业,农林牧渔基地,其它农林牧渔基地|体育休闲服务,竖新镇惠民村1007号,上海市,上海市,崇明区,121.5933299,31.56573327
崇明旺仕玖度假村,体育休闲服务,度假疗养场所,度假村,堡镇北路800号与陈海公路交叉路口处(旺仕玖4S店旁、加油站旁),上海市,上海市,崇明区,121.6317846,31.56524293
上海崇明岛稻和湾生态园,体育休闲服务,休闲场所,采摘园,堡镇北路800号与陈海公路交叉路口处(旺仕玖4S店旁、加油站旁),上海市,上海市,崇明区,121.6317846,31.56524193
华岛草莓采摘乐园,体育休闲服务,体育休闲服务场所,体育休闲服务场所,建中村877号,上海市,上海市,崇明区,121.6367333,31.56572055
上海金沈泽农家乐专业合作社,体育休闲服务,休闲场所,休闲场所,港沿村建业118号,上海市,上海市,崇明区,121.6716744,31.57204993
柳庄静舍,体育休闲服务,休闲场所,休闲场所,港沿镇鲁_村850号,上海市,上海市,崇明区,121.6913905,31.56720819
友录农家乐,体育休闲服务,体育休闲服务场所,体育休闲服务场所,园艺村大港206号,上海市,上海市,崇明区,121.7200521,31.56576833
沁雅亲子休闲中心,体育休闲服务,休闲场所,休闲场所,中兴镇北兴村12队,上海市,上海市,崇明区,121.7817593,31.56972671
崇明心悦酒店-度假村,体育休闲服务,度假疗养场所,度假村,中兴镇汲浜公路3129号(北沿公路口),上海市,上海市,崇明区,121.7822956,31.5666566
上海崇明心悦颐养园,体育休闲服务,度假疗养场所,疗养院,汲浜公路3129,上海市,上海市,崇明区,121.7822926,31.5665366
海岛人家农家乐,体育休闲服务,休闲场所,休闲场所,中兴镇北兴村832号(北沿公路近北兴中路),上海市,上海市,崇明区,121.7923757,31.56540768
张家外婆草莓农家草莓采摘,体育休闲服务,休闲场所,采摘园,竖新镇明强村新生七队717号(竖桥路团城公路路口南侧),上海市,上海市,崇明区,121.5747883,31.56372671
沈阿姨农家草莓园,体育休闲服务,休闲场所,采摘园,竖新镇明强新生村7队722号(竖桥路团城公路路口南侧),上海市,上海市,崇明区,121.5749275,31.56366983
宜加庄园,体育休闲服务,休闲场所,休闲场所,堡镇财贸村石桥777号,上海市,上海市,崇明区,121.6037433,31.55579275
上海沈平家庭农场,体育休闲服务,休闲场所,休闲场所,堡镇财贸村6队(堡路人财东路往西200米处),上海市,上海市,崇明区,121.6145053,31.5591264
懒人健身,体育休闲服务,运动场馆,健身中心,堡北路与堡镇支路交叉口东南50米,上海市,上海市,崇明区,121.6319736,31.56203991
夏尔喜丽庄园,体育休闲服务,度假疗养场所,度假村,彷徨村738号,上海市,上海市,崇明区,121.6737795,31.55776899
丽岛果园,体育休闲服务,休闲场所,采摘园,岛堡镇彷徨村,上海市,上海市,崇明区,121.6739443,31.55738571
丽岛农庄,体育休闲服务,休闲场所,采摘园,堡镇彷徨村,上海市,上海市,崇明区,121.6722657,31.55526709
佳银果蔬农家乐采摘,体育休闲服务,休闲场所,采摘园,向化镇向化公路2000号,上海市,上海市,崇明区,121.7366224,31.55925698
崇明布衣西瓜采摘,体育休闲服务,休闲场所,采摘园,向化公路2000号(佳银果蔬5号基地布衣农场),上海市,上海市,崇明区,121.7367313,31.55999388
上海一苇农庄,体育休闲服务,休闲场所,休闲场所,阜南9号里阜康10-2号桥,上海市,上海市,崇明区,121.7481902,31.56255114
兴牧农家乐,体育休闲服务,休闲场所,休闲场所,北兴村兴西840号,上海市,上海市,崇明区,121.7735242,31.563002
上海崇明笙平农家乐,体育休闲服务,休闲场所,休闲场所,中兴镇北兴村兴西125号,上海市,上海市,崇明区,121.7822004,31.55527639
上海顾建周家庭农场,体育休闲服务,休闲场所,休闲场所,中兴镇北兴村兴西六队,上海市,上海市,崇明区,121.7799388,31.56205907
崇明君宁居农家乐,体育休闲服务,休闲场所,休闲场所,北兴村9队920号(北沿公路),上海市,上海市,崇明区,121.7889478,31.56278583
姚家宅农庄,体育休闲服务,休闲场所,休闲场所,中兴镇北兴村312号,上海市,上海市,崇明区,121.7873692,31.55603816
君宁居休闲垂钓摘(农家乐),体育休闲服务,休闲场所,休闲场所,北兴村920号,上海市,上海市,崇明区,121.7861425,31.55903322
刘家村农家乐,体育休闲服务,休闲场所,休闲场所,永西路325号,上海市,上海市,崇明区,121.7893342,31.55496703
雨曦蓝莓农家乐,体育休闲服务,休闲场所,休闲场所,中兴镇永隆村1528号陈公路旁,上海市,上海市,崇明区,121.8008972,31.55960776
前裕钓场,体育休闲服务,体育休闲服务场所,体育休闲服务场所,,上海市,上海市,崇明区,121.8610937,31.55926175
佰H园,体育休闲服务,体育休闲服务场所,体育休闲服务场所,堡镇黄豪路,上海市,上海市,崇明区,121.5861088,31.54517488
上海市崇明逸达敬老院,体育休闲服务,度假疗养场所,疗养院,桃源村568号,上海市,上海市,崇明区,121.5958288,31.54811863
月亮湖老年公寓,体育休闲服务,度假疗养场所,疗养院,堡镇大通路388号,上海市,上海市,崇明区,121.6137348,31.54806504
上海崇明区堡镇敬老院,体育休闲服务,度假疗养场所,疗养院,堡镇大通路555号,上海市,上海市,崇明区,121.6074272,31.55277611
小林棋牌室(堡港路),体育休闲服务,娱乐场所,棋牌室,堡港路239-15号附近,上海市,上海市,崇明区,121.6139948,31.54530209
君临娱乐会所,体育休闲服务,娱乐场所,娱乐场所,堡镇北路10号(近老车站),上海市,上海市,崇明区,121.6206589,31.54555963
东方百姓影院(德兴路),体育休闲服务,影剧院,电影院,堡镇镇花园村村委会附近,上海市,上海市,崇明区,121.6343101,31.55168539
堡镇羽毛球馆,体育休闲服务,体育休闲服务场所,体育休闲服务场所,,上海市,上海市,崇明区,121.6267578,31.54718927
豪羽羽毛球馆,体育休闲服务,运动场馆,羽毛球场,花永路,上海市,上海市,崇明区,121.6268847,31.5472771
花园村乒乓室,体育休闲服务,运动场馆,乒乓球馆,德兴路与花永路交叉口东南50米,上海市,上海市,崇明区,121.6344759,31.55188912
沈公馆,体育休闲服务,休闲场所,休闲场所,小漾二路与陈漾路交叉口西100米,上海市,上海市,崇明区,121.6598297,31.54687365
小漾村社区老年活动室,体育休闲服务,休闲场所,休闲场所,彷漾路与纺发路交叉口北50米,上海市,上海市,崇明区,121.6686751,31.55003444
觅甜采摘园,体育休闲服务,休闲场所,采摘园,合五公路1800号,上海市,上海市,崇明区,121.6787159,31.54815853
上海市崇明区向化敬老院,体育休闲服务,度假疗养场所,疗养院,向化公路与向蟠公路交叉口北100米,上海市,上海市,崇明区,121.7247186,31.545869
春心农家私房菜(春心农家别墅轰趴馆),体育休闲服务,休闲场所,休闲场所,向化镇春光村512号,上海市,上海市,崇明区,121.7563765,31.54791236
俊翔水岸农家乐,体育休闲服务,休闲场所,休闲场所,永胜路993号,上海市,上海市,崇明区,121.7678472,31.55226182
上海崇明胜超农家乐,体育休闲服务,休闲场所,休闲场所,永西南路201-203号,上海市,上海市,崇明区,121.7831584,31.55205889
上海茅家宅农家乐,体育休闲服务,休闲场所,休闲场所,中兴镇北兴村永西南路203号,上海市,上海市,崇明区,121.7825923,31.55272011
上海崇明岛特色胜超农家乐,体育休闲服务,休闲场所,休闲场所,永西南路201号,上海市,上海市,崇明区,121.7844929,31.55173865
凯豪农家乐,体育休闲服务,体育休闲服务场所,体育休闲服务场所,永西南路与界子路交叉口东南50米,上海市,上海市,崇明区,121.7887495,31.54925171
上海兰馨康复养老公寓,体育休闲服务,度假疗养场所,疗养院,陈家镇锦陈路裕西村5队668号,上海市,上海市,崇明区,121.8084134,31.54581806
上海崇明德云养老院,体育休闲服务,度假疗养场所,疗养院,"德云村11队(近清静庵,广良寺)",上海市,上海市,崇明区,121.8303649,31.54985642
谦年农舍,体育休闲服务,体育休闲服务场所,体育休闲服务场所,德云村11队,上海市,上海市,崇明区,121.8299199,31.54923465
德云村老年活动室,体育休闲服务,休闲场所,休闲场所,新出港路东50米,上海市,上海市,崇明区,121.8307639,31.55040012
红杉谷农家乐,体育休闲服务,体育休闲服务场所,体育休闲服务场所,陈家镇北沿公路1584号,上海市,上海市,崇明区,121.8288224,31.54470304
候鸟度假村(暂停营业),体育休闲服务,度假疗养场所,度假村,陈家镇前裕公路888号(崇明岛),上海市,上海市,崇明区,121.8496091,31.54957244
惠春蟹庄,体育休闲服务,休闲场所,休闲场所,堡镇桃源村8队856号,上海市,上海市,崇明区,121.5981463,31.54281979
向阳社区老年活动室,体育休闲服务,休闲场所,休闲场所,育英路43,上海市,上海市,崇明区,121.6111852,31.54069578
马飞娱乐KTV,体育休闲服务,娱乐场所,KTV,堡镇镇工农路218号,上海市,上海市,崇明区,121.6147447,31.54016597
红瑚KTV,体育休闲服务,娱乐场所,KTV,堡镇中路102号,上海市,上海市,崇明区,121.614597,31.53727441
正大社区象棋活动室,体育休闲服务,休闲场所,休闲场所,堡兴路88号,上海市,上海市,崇明区,121.613159,31.53858848
宝港游艺城,体育休闲服务,娱乐场所,游戏厅,堡港路197号,上海市,上海市,崇明区,121.6110731,31.54215672
堡镇镇工农新村居委会老年活动室,体育休闲服务,休闲场所,休闲场所,堡兴路与银行弄交叉口东50米,上海市,上海市,崇明区,121.613188,31.53867444
宝城棋牌,体育休闲服务,娱乐场所,棋牌室,堡港路197号,上海市,上海市,崇明区,121.6108163,31.54176394
正宫电玩城,体育休闲服务,娱乐场所,游戏厅,堡镇工农路218号二楼,上海市,上海市,崇明区,121.6148496,31.54028687
IMA酒吧,体育休闲服务,娱乐场所,酒吧,堡镇中路102号1室,上海市,上海市,崇明区,121.6151516,31.53705295
浙C动漫城,体育休闲服务,娱乐场所,游戏厅,堡镇中路25号附近,上海市,上海市,崇明区,121.6129054,31.53604396
松鹤棋牌,体育休闲服务,娱乐场所,棋牌室,堡镇中路121号3层,上海市,上海市,崇明区,121.6147648,31.53873211
上海红利游戏机娱乐有限公司,体育休闲服务,娱乐场所,游戏厅,堡镇工农路218号10号楼,上海市,上海市,崇明区,121.6152703,31.5401825
方顺娱乐城,体育休闲服务,娱乐场所,娱乐场所,堡镇中路193号,上海市,上海市,崇明区,121.6148466,31.54030887
中韩跆拳道,体育休闲服务,运动场馆,跆拳道场馆,堡镇中路25号,上海市,上海市,崇明区,121.6128854,31.53601598
开心岛儿童乐园,体育休闲服务,休闲场所,游乐场,堡镇商业广场石岛路617弄83号,上海市,上海市,崇明区,121.6208531,31.54061093
纽菲思量贩式KTV,体育休闲服务,娱乐场所,KTV,堡镇中路201号,上海市,上海市,崇明区,121.6157838,31.54052701
红红网吧(工农路)(装修中),体育休闲服务,娱乐场所,网吧,堡镇镇工农路218号3号楼,上海市,上海市,崇明区,121.6152932,31.54023148
环球国际影城(崇明店),体育休闲服务,影剧院,电影院,堡镇中路193号,上海市,上海市,崇明区,121.615623,31.54039617
神采娱乐城,体育休闲服务,娱乐场所,夜总会,堡镇工农路155号一楼,上海市,上海市,崇明区,121.6153753,31.53922351
炬石健身,体育休闲服务,运动场馆,健身中心,堡镇商业广场石岛路617号3楼,上海市,上海市,崇明区,121.6208531,31.54061093
e吧网咖,体育休闲服务,娱乐场所,网吧,堡镇中路166号二楼,上海市,上海市,崇明区,121.6153143,31.53882361
工人俱乐部游戏厅,体育休闲服务,娱乐场所,游戏厅,堡镇中路201-4号附近,上海市,上海市,崇明区,121.6158558,31.54049094
恋动健身会所(堡镇中路店),体育休闲服务,运动场馆,健身中心,堡镇中路193号4层,上海市,上海市,崇明区,121.6155231,31.54010029
凯顺娱乐,体育休闲服务,娱乐场所,娱乐场所,堡镇中路182,上海市,上海市,崇明区,121.6159318,31.539306
鸿辰娱乐,体育休闲服务,娱乐场所,娱乐场所,堡镇中路174号三楼,上海市,上海市,崇明区,121.6156231,31.53917829
敬德农庄,体育休闲服务,休闲场所,休闲场所,花永东路东50米,上海市,上海市,崇明区,121.6451198,31.5375254
璞苑农家乐,体育休闲服务,休闲场所,休闲场所,堡镇五村1148号,上海市,上海市,崇明区,121.6606964,31.54207449
五效影剧院,体育休闲服务,影剧院,影剧院相关,三号横河沿北路与合五公路交叉口西北100米,上海市,上海市,崇明区,121.6709806,31.53836419
灶花堂,体育休闲服务,休闲场所,休闲场所,向化镇向化公路1789号(近陈海公路),上海市,上海市,崇明区,121.7214421,31.54194016
上海锦佰垂钓俱乐部(游来鱼往),体育休闲服务,休闲场所,垂钓园,向化镇向化公路1688号,上海市,上海市,崇明区,121.7225255,31.53920249
上海进达果园,体育休闲服务,休闲场所,采摘园,向化镇向化村万龙528号,上海市,上海市,崇明区,121.7257298,31.53687816
伊莓庄园,体育休闲服务,体育休闲服务场所,体育休闲服务场所,春光村二堡老街路,上海市,上海市,崇明区,121.7411342,31.53916765
扬名农庄,体育休闲服务,体育休闲服务场所,体育休闲服务场所,春光村二堡826号,上海市,上海市,崇明区,121.7392937,31.54327263
上海伊莓农业科技有限公司,体育休闲服务,休闲场所,采摘园|公司企业,二堡老街路,上海市,上海市,崇明区,121.7409733,31.53787282
知谷1984民宿,体育休闲服务,休闲场所,休闲场所|住宿服务,向化镇春光村二堡826号,上海市,上海市,崇明区,121.7392067,31.54299568
上海市崇明县知谷农家乐,体育休闲服务,休闲场所,休闲场所,春光村二堡826号,上海市,上海市,崇明区,121.7392947,31.54327263
紫荆农庄,体育休闲服务,休闲场所,休闲场所,二堡老街路(近陈海公路),上海市,上海市,崇明区,121.7374429,31.54089741
竹由农家乐,体育休闲服务,休闲场所,休闲场所,中兴镇永南村721,上海市,上海市,崇明区,121.7864297,31.5390105
晨光农业生态园,体育休闲服务,休闲场所,采摘园,晨光村419号,上海市,上海市,崇明区,121.8021982,31.53628619
付桂垂钓园,体育休闲服务,休闲场所,垂钓园,北陈公路与北沿公路交汇处,上海市,上海市,崇明区,121.8378136,31.53963313
上海朱超西家庭农场,体育休闲服务,休闲场所,休闲场所,陈家镇五垦区,上海市,上海市,崇明区,121.8843807,31.5435569
堡渔村综合活动室,体育休闲服务,休闲场所,休闲场所,崇明新港路东100米,上海市,上海市,崇明区,121.6015647,31.53356684
娱乐养老健康服务中心,体育休闲服务,度假疗养场所,疗养院,堡镇南路194号,上海市,上海市,崇明区,121.6085705,31.53047972
新港居委社区老年活动室,体育休闲服务,休闲场所,休闲场所,堡镇南路195,上海市,上海市,崇明区,121.6083066,31.53069386
堡镇阳光心园,体育休闲服务,度假疗养场所,疗养院,化工路21,上海市,上海市,崇明区,121.6064803,31.53269571
堡镇社区文化活动中心体育场,体育休闲服务,运动场馆,运动场所,堡镇南路269号,上海市,上海市,崇明区,121.6098816,31.53280458
乃昌老年之家,体育休闲服务,度假疗养场所,疗养院,四村村1053,上海市,上海市,崇明区,121.6443017,31.53125251
瀛杏湾农庄,体育休闲服务,休闲场所,休闲场所,堡镇四村1030号,上海市,上海市,崇明区,121.6440451,31.53177589
崇明岛稻和湾生态园,体育休闲服务,休闲场所,采摘园,Y013(向堡路),上海市,上海市,崇明区,121.6446074,31.52873329
宇瀛度假村,住宿服务,住宿服务相关,住宿服务相关|体育休闲服务,向化公路18号(近陈彷公路),上海市,上海市,崇明区,121.7125531,31.52983478
上海崇明农家乐休闲旅游度假别墅,体育休闲服务,休闲场所,休闲场所,向民路300号-1号楼-3楼,上海市,上海市,崇明区,121.7169131,31.52654731
崇明爱游度假别墅农家乐,体育休闲服务,休闲场所,休闲场所,向民路310号,上海市,上海市,崇明区,121.7165975,31.52531679
爱游崇明乡村度假轰趴,体育休闲服务,体育休闲服务场所,体育休闲服务场所,汲浜公路305号,上海市,上海市,崇明区,121.7526506,31.52754637
阳光敬老院,体育休闲服务,度假疗养场所,疗养院,汲浜4队403室,上海市,上海市,崇明区,121.745815,31.53001723
阳光度假中心,体育休闲服务,体育休闲服务场所,体育休闲服务场所,汲康路,上海市,上海市,崇明区,121.745426,31.52914634
心慧PS超级电玩,体育休闲服务,娱乐场所,游戏厅,兴工路与广福路交叉口西南50米,上海市,上海市,崇明区,121.7529659,31.52567168
崇明区中兴镇广福健康教育活动室,体育休闲服务,休闲场所,休闲场所,振业路90号,上海市,上海市,崇明区,121.7557749,31.52571156
崇明区中兴镇广福老年活动室,体育休闲服务,休闲场所,休闲场所,振业路90,上海市,上海市,崇明区,121.7557749,31.52571156
永昌生态农庄,体育休闲服务,休闲场所,休闲场所,锦陈公路晨光村334号,上海市,上海市,崇明区,121.7985001,31.53076564
顾斌农家乐,体育休闲服务,体育休闲服务场所,体育休闲服务场所,晨光村徐家汇北路805号,上海市,上海市,崇明区,121.7964855,31.53174527
裕晨农家乐,体育休闲服务,休闲场所,休闲场所,徐家汇北路808号,上海市,上海市,崇明区,121.797206,31.53315127
杨氏生态农庄,体育休闲服务,休闲场所,休闲场所,陈家镇裕安西路168号,上海市,上海市,崇明区,121.8234707,31.53238232
上海松颖电玩城,体育休闲服务,娱乐场所,游戏厅,陈家镇裕民路13号,上海市,上海市,崇明区,121.8314767,31.52727292
上海村明农家乐,体育休闲服务,休闲场所,休闲场所,陈家镇裕安村906号,上海市,上海市,崇明区,121.8332548,31.53212164
云悦庄民宿,体育休闲服务,休闲场所,休闲场所,陈家镇裕安村928号,上海市,上海市,崇明区,121.833001,31.53422493
腾而皇农家园,体育休闲服务,休闲场所,休闲场所,陈家镇裕民路20号,上海市,上海市,崇明区,121.8316161,31.52674524
云悦庄农家乐餐馆,体育休闲服务,休闲场所,休闲场所,陈家镇裕安村928号,上海市,上海市,崇明区,121.833005,31.53415294
平衡瑜伽(裕安店),体育休闲服务,体育休闲服务场所,体育休闲服务场所,陈家镇安寓路100弄35号102室,上海市,上海市,崇明区,121.8489806,31.52601098
恋动跆拳道(裕安分馆),体育休闲服务,运动场馆,跆拳道场馆,裕展路与裕洲路交叉口北150米,上海市,上海市,崇明区,121.8475539,31.53055208
崇明区东平镇前哨新村文体活动室,体育休闲服务,休闲场所,休闲场所,前哨公路40弄2号,上海市,上海市,崇明区,121.8677007,31.52657737
姐弟农家乐,体育休闲服务,休闲场所,休闲场所,陈家镇立新村954号,上海市,上海市,崇明区,121.884224,31.52622176
聪明农家乐,体育休闲服务,休闲场所,休闲场所,陈家镇立新村903号,上海市,上海市,崇明区,121.884119,31.52531082
上海市崇明区锦鸿休闲农庄,体育休闲服务,休闲场所,休闲场所,陈家镇立新村968号,上海市,上海市,崇明区,121.8890266,31.52489815
孟瀛农家乐,体育休闲服务,休闲场所,休闲场所,四村392号,上海市,上海市,崇明区,121.6394634,31.52404441
合五湾农庄,体育休闲服务,休闲场所,休闲场所,,上海市,上海市,崇明区,121.63983,31.52267599
瀛南村社区老年活动室,体育休闲服务,休闲场所,休闲场所,瀛南路东50米,上海市,上海市,崇明区,121.6689371,31.52070021
南海村社区老年活动室,体育休闲服务,休闲场所,休闲场所,二号河沿路与米南路交叉口南100米,上海市,上海市,崇明区,121.6843836,31.52161008
崇明可儿休闲农庄,体育休闲服务,休闲场所,休闲场所,南江村闸西1429号-1,上海市,上海市,崇明区,121.6967831,31.51618059
上海璋娣水产休闲垂钓合作社,体育休闲服务,休闲场所,休闲场所,向化镇花仓丕林947号,上海市,上海市,崇明区,121.7207845,31.51920943
崇明生态草莓采摘园,体育休闲服务,休闲场所,采摘园,陈彷公路北50米,上海市,上海市,崇明区,121.7270053,31.52247994
乐乐生态草莓采摘园,体育休闲服务,休闲场所,采摘园,陈彷公路与兴移路交叉口,上海市,上海市,崇明区,121.7383955,31.52235427
椿绒农家乐,体育休闲服务,休闲场所,休闲场所,陈彷公路716号,上海市,上海市,崇明区,121.7449974,31.52340106
宇凡农家乐(崇明中兴镇店),餐饮服务,中餐厅,中餐厅|体育休闲服务,中兴镇中兴村532号,上海市,上海市,崇明区,121.7451289,31.51719186
东翔宾馆(北公路),体育休闲服务,休闲场所,休闲场所,中兴镇建材市场21号楼,上海市,上海市,崇明区,121.7551098,31.52159584
大指头农庄,体育休闲服务,休闲场所,休闲场所,中心镇中心村1358号(北公路近陈彷公路路口),上海市,上海市,崇明区,121.7556363,31.51993824
羊羊羊山庄,体育休闲服务,休闲场所,休闲场所,中兴镇汲浜大公村168号,上海市,上海市,崇明区,121.7605483,31.52331804
天养康健缘,体育休闲服务,休闲场所,休闲场所,北公路西50米,上海市,上海市,崇明区,121.7556734,31.51993026
成冠时尚生活休闲馆,体育休闲服务,休闲场所,休闲场所,北公路与良辰路交叉口西南100米,上海市,上海市,崇明区,121.7586896,31.52381503
上海崇明区广福养老院,体育休闲服务,度假疗养场所,疗养院,陈家镇陈彷公路2130号,上海市,上海市,崇明区,121.7677339,31.51851948
黄冠杰农家乐,体育休闲服务,休闲场所,休闲场所,撖缰路与陈彷公路交叉口北100米,上海市,上海市,崇明区,121.772073,31.51653753
上海王志林姚根发活动中心,体育休闲服务,休闲场所,休闲场所,红星村198,上海市,上海市,崇明区,121.7734311,31.51535999
上海老陈草莓葡萄采摘园,体育休闲服务,休闲场所,采摘园,陈仿公路八桥西桥头,上海市,上海市,崇明区,121.7745449,31.51441024
花漂村社区老年活动室,体育休闲服务,休闲场所,休闲场所,花漂中路西50米,上海市,上海市,崇明区,121.7843236,31.51688135
海福老人会所,体育休闲服务,休闲场所,休闲场所,兴旺115号,上海市,上海市,崇明区,121.7943189,31.51744064
附近的家农家乐,体育休闲服务,休闲场所,休闲场所,裕中北路东50米,上海市,上海市,崇明区,121.8010792,31.51734361
锦欣农庄,体育休闲服务,休闲场所,休闲场所,陈家镇先晨路7717号,上海市,上海市,崇明区,121.7993116,31.52299293
晶龙农家乐,体育休闲服务,体育休闲服务场所,体育休闲服务场所,晨光村兴旺南路,上海市,上海市,崇明区,121.7966141,31.51673636
崇明农家乐(小弟庄园),体育休闲服务,休闲场所,休闲场所,陈家镇先晨路裕中村224号,上海市,上海市,崇明区,121.8090606,31.51564475
大鸿大快乐家庭农庄,体育休闲服务,休闲场所,休闲场所,鸿田村16队1603号附近,上海市,上海市,崇明区,121.8273309,31.5169825
精英网吧,体育休闲服务,娱乐场所,网吧,陈家镇裕盛路3弄4号,上海市,上海市,崇明区,121.8351204,31.52175033
上海崇明大鸿葡萄采摘园,体育休闲服务,休闲场所,采摘园,鸿田村1603号,上海市,上海市,崇明区,121.8274322,31.51704868
上海佳裕度假村,体育休闲服务,度假疗养场所,度假村,鸿田引水河路与鸿田路交叉口东100米,上海市,上海市,崇明区,121.8310736,31.5154037
极光私人影院(陈家镇店),体育休闲服务,影剧院,电影院,陈家镇裕鸿佳苑一期裕盛路三弄五号二楼B区B1,上海市,上海市,崇明区,121.8354131,31.52219881
吉美商务会所KTV,体育休闲服务,娱乐场所,KTV,裕盛路3弄5号3层,上海市,上海市,崇明区,121.8353329,31.52223166
凯盛娱乐城,体育休闲服务,娱乐场所,娱乐场所,裕盛路3弄4号2楼,上海市,上海市,崇明区,121.8353048,31.52220861
陈家镇跆拳道,体育休闲服务,运动场馆,跆拳道场馆,裕盛路3弄-2,上海市,上海市,崇明区,121.8360407,31.52156004
上实东滩果蔬采摘园,体育休闲服务,休闲场所,采摘园,东旺西路168号,上海市,上海市,崇明区,121.9038031,31.51528312
君悦棋牌室,体育休闲服务,娱乐场所,棋牌室,东滩东旺路风车处东滩湿地公园内,上海市,上海市,崇明区,121.9379171,31.51879928
扬子鳄活动区-垂钓区,体育休闲服务,体育休闲服务场所,体育休闲服务场所,东滩东旺路风车处东滩湿地公园扬子鳄活动区内,上海市,上海市,崇明区,121.9541705,31.51583799
南江风韵度假村,体育休闲服务,度假疗养场所,度假村,南江村657号,上海市,上海市,崇明区,121.698768,31.50520803
梅苑山庄,体育休闲服务,度假疗养场所,度假村,南江村向堡公路上海晓瀛艺术馆,上海市,上海市,崇明区,121.7015852,31.51332959
上海崇明南江风韵老年公寓,体育休闲服务,度假疗养场所,疗养院,南江村南江风韵度假村,上海市,上海市,崇明区,121.6983696,31.50511966
范姐民宿,体育休闲服务,休闲场所,休闲场所,中兴镇爱国村红旗1395号,上海市,上海市,崇明区,121.7582288,31.50487642
老滋味农家乐,体育休闲服务,休闲场所,休闲场所,"陈西村1699号(上海新纪元双语学校对面,原大通中学)",上海市,上海市,崇明区,121.7796187,31.50951452
彭氏农家乐,体育休闲服务,休闲场所,休闲场所,陈家镇花漂村1412号,上海市,上海市,崇明区,121.7845475,31.51118843
上海老许草莓葡萄采摘园,体育休闲服务,休闲场所,采摘园,锦陈路1548号,上海市,上海市,崇明区,121.7831767,31.51382028
田望,体育休闲服务,体育休闲服务场所,体育休闲服务场所,陈彷公路1199号,上海市,上海市,崇明区,121.784728,31.50865703
畅游天下度假基地,体育休闲服务,体育休闲服务场所,体育休闲服务场所,陈彷公路与陈西中心路交叉口西50米,上海市,上海市,崇明区,121.7860526,31.50826686
先晨农庄,体育休闲服务,休闲场所,休闲场所,陈家镇裕丰路先晨村893号,上海市,上海市,崇明区,121.8202295,31.50734151
依恋园农家乐(陈家镇店),体育休闲服务,休闲场所,休闲场所,裕丰村1238号,上海市,上海市,崇明区,121.8160425,31.5107802
菜篮子农家乐,体育休闲服务,休闲场所,休闲场所,中滨路东新路路口,上海市,上海市,崇明区,121.8456746,31.50584421
宇红农家乐,体育休闲服务,休闲场所,休闲场所,罗泾镇洋桥村杨路9号,上海市,上海市,宝山区,121.3022171,31.50310666
洋桥村老年活动中心,体育休闲服务,休闲场所,休闲场所,洋桥村沈家宅35,上海市,上海市,宝山区,121.3074101,31.50086475
亿琳垂钓园,体育休闲服务,休闲场所,垂钓园,集宁东路60号,上海市,上海市,宝山区,121.3328859,31.49547536
上海老季农家乐,体育休闲服务,体育休闲服务场所,体育休闲服务场所,中兴镇七村西2队294号,上海市,上海市,崇明区,121.7263687,31.49822985
陈南村农家菜,体育休闲服务,休闲场所,休闲场所,中兴镇陈公路,上海市,上海市,崇明区,121.7613088,31.50401813
休闲时光垂钓中心,体育休闲服务,休闲场所,垂钓园,陈家镇陈西村陈南公路北,上海市,上海市,崇明区,121.7775752,31.49779194
仙琴农家乐,体育休闲服务,体育休闲服务场所,体育休闲服务场所,陈西路东200米,上海市,上海市,崇明区,121.7856214,31.5008084
万豪网吧,体育休闲服务,娱乐场所,网吧,陈家镇陈彷公路155号,上海市,上海市,崇明区,121.8010094,31.50161375
陈家镇陈南村老年活动室,体育休闲服务,休闲场所,休闲场所,裕陈路与陈南北路交叉口东北150米,上海市,上海市,崇明区,121.7986972,31.4997362
博瀛量贩KTV,体育休闲服务,娱乐场所,KTV,陈海公路北陈公路小转向南500米(雄耀农庄),上海市,上海市,崇明区,121.8036591,31.4956632
小港湾农家乐,体育休闲服务,休闲场所,休闲场所,陈海公路与裕陈路交叉口向南88米右转88米,上海市,上海市,崇明区,121.8002364,31.50392911
银河电玩城,体育休闲服务,娱乐场所,网吧,陈家镇正大街3,上海市,上海市,崇明区,121.8029681,31.49992434
雄风网吧(名岛生活广场西南),体育休闲服务,娱乐场所,网吧,陈家镇陈彷公路1号8栋,上海市,上海市,崇明区,121.8048276,31.49921067
恒鑫动漫城,体育休闲服务,娱乐场所,游戏厅,陈彷公路89-9号附近,上海市,上海市,崇明区,121.8033801,31.50010402
凯都国际会所,体育休闲服务,娱乐场所,娱乐场所,陈家镇陈彷公路1弄8号,上海市,上海市,崇明区,121.8047655,31.49914057
裕南草莓,体育休闲服务,休闲场所,采摘园,北陈公路327号,上海市,上海市,崇明区,121.8109052,31.50357482
崇明田园风农家乐,体育休闲服务,休闲场所,休闲场所,东滩大道188号,上海市,上海市,崇明区,121.814747,31.50116022
裕南锦鑫农家乐,体育休闲服务,休闲场所,休闲场所,北陈公路陈海公路向北100米(北陈公路向北100米),上海市,上海市,崇明区,121.8092942,31.5035879
玲珑阁休闲垂钓场,体育休闲服务,休闲场所,垂钓园,先晨路与先锋北路交叉口东南150米,上海市,上海市,崇明区,121.8319072,31.49862571
先晨路钓鱼塘,体育休闲服务,休闲场所,垂钓园,先晨路与先锋北路交叉口,上海市,上海市,崇明区,121.8325799,31.49893591
浏河岛度假村,体育休闲服务,度假疗养场所,度假村,唐行镇,上海市,上海市,嘉定区,121.2290379,31.48572436
上海市少年儿童浏河活动营地,体育休闲服务,娱乐场所,娱乐场所,唐行镇,上海市,上海市,嘉定区,121.2316401,31.4868546
真人CS拓展联盟(嘉定浏岛基地店),体育休闲服务,体育休闲服务场所,体育休闲服务场所,嘉行公路与双流路交口西150米(近霜竹公路),上海市,上海市,嘉定区,121.2273098,31.48543531
浏岛拓展训练基地,体育休闲服务,休闲场所,休闲场所,双浏路与嘉行公路交叉口西150米,上海市,上海市,嘉定区,121.2270147,31.48507418
浏岛风景区真人CS基地,体育休闲服务,体育休闲服务场所,体育休闲服务场所,嘉行公路与双流路交口西150米(近霜竹公路),上海市,上海市,嘉定区,121.2269556,31.48500815
浏岛拓展训练基地,体育休闲服务,娱乐场所,娱乐场所,华亭镇唐行大道浏岛风景区,上海市,上海市,嘉定区,121.22918,31.48554647
上海全进马术俱乐部,体育休闲服务,运动场馆,马术俱乐部,唐行镇双浏路双浏路132号浏岛度假村全进骑马场,上海市,上海市,嘉定区,121.2284204,31.48641686
上海全进骑马场,体育休闲服务,运动场馆,赛马场,浏河岛风景区内全进骑马场嘉行公路北侧,上海市,上海市,嘉定区,121.2317191,31.48786347
华亭人家(长禄路),体育休闲服务,休闲场所,休闲场所|风景名胜,霜竹公路518号,上海市,上海市,嘉定区,121.2880731,31.48587217
黄金钓场,体育休闲服务,体育休闲服务场所,体育休闲服务场所,许家村附近,上海市,上海市,嘉定区,121.2994467,31.49278305
塘湾村老年活动中心,体育休闲服务,休闲场所,休闲场所,罗泾镇,上海市,上海市,宝山区,121.3126791,31.49300527
上海宝山罗泾镇敬老院,体育休闲服务,度假疗养场所,疗养院,罗泾镇集宁路179号上海宝山,上海市,上海市,宝山区,121.3237091,31.49164249
敬英葡萄,体育休闲服务,休闲场所,采摘园,集宁路,上海市,上海市,宝山区,121.3199419,31.48957506
博亭园,体育休闲服务,休闲场所,休闲场所,罗泾镇潘徐路1号,上海市,上海市,宝山区,121.3370712,31.48899461
亚联网吧(陈镇路)(装修中),体育休闲服务,娱乐场所,网吧,陈镇路253号临附近,上海市,上海市,宝山区,121.336893,31.48424876
龙星武跃武术馆,体育休闲服务,运动场馆,运动场所,罗泾镇陈镇路259号,上海市,上海市,宝山区,121.3366426,31.48458916
少林龙星武跃武术馆(分馆),体育休闲服务,运动场馆,运动场所,罗泾镇陈镇路259号,上海市,上海市,宝山区,121.3367154,31.48441006
宝山钓鱼,体育休闲服务,休闲场所,垂钓园,,上海市,上海市,宝山区,121.3513627,31.48873074
沪宝垂钓中心,体育休闲服务,休闲场所,垂钓园,新川沙路25弄70号(近水源保护区),上海市,上海市,宝山区,121.3534267,31.49054515
上海崇明微农庄私人订制,体育休闲服务,休闲场所,休闲场所,八公路898号,上海市,上海市,崇明区,121.7609333,31.49278269
崇明区陈家镇敬老院,体育休闲服务,度假疗养场所,疗养院,陈家镇瀛陈公路大龙农家乐东400米,上海市,上海市,崇明区,121.8013794,31.48750467
大龙农家乐,体育休闲服务,休闲场所,休闲场所|餐饮服务,陈南公路8号,上海市,上海市,崇明区,121.7971767,31.48868853
上海外国语大学贤达经济人文学院体育馆,体育休闲服务,运动场馆,综合体育馆,中滨路西150米,上海市,上海市,崇明区,121.8288072,31.48723481
陈家镇原塘鱼垂钓中心,体育休闲服务,休闲场所,垂钓园,陈家镇崇旺路5号桥,上海市,上海市,崇明区,121.8774101,31.48688885
毛桥农家乐,体育休闲服务,休闲场所,休闲场所,霜竹公路155号,上海市,上海市,嘉定区,121.2512831,31.47607526
醉华庭休闲农庄,体育休闲服务,休闲场所,休闲场所,毛桥村霜竹公路228号,上海市,上海市,嘉定区,121.2492748,31.47561873
溢春果园,体育休闲服务,休闲场所,采摘园,霜竹公路1262号,上海市,上海市,嘉定区,121.2482321,31.47566287
亨嘉庄,公司企业,农林牧渔基地,农场|体育休闲服务,华亭镇徐星路778号(近霜竹公路),上海市,上海市,嘉定区,121.2580626,31.47493603
上海周记一品香奶油草莓采摘园,体育休闲服务,休闲场所,采摘园,霜竹路与徐星路交叉口南200米,上海市,上海市,嘉定区,121.2578667,31.47568998
华亭镇徐村社区老年活动中心,体育休闲服务,度假疗养场所,疗养院,霜竹公路南100米,上海市,上海市,嘉定区,121.2671744,31.47994018
大众草莓,体育休闲服务,体育休闲服务场所,体育休闲服务场所,霜竹公路华亭人家西门,上海市,上海市,嘉定区,121.286629,31.48188493
西陆拓展真人CS野站营地,体育休闲服务,休闲场所,露营地,霜竹公路1268号,上海市,上海市,嘉定区,121.286632,31.48186893
华亭镇联三村高桥社区老年活动室,体育休闲服务,休闲场所,休闲场所,华亭镇武双路538号,上海市,上海市,嘉定区,121.3058697,31.47528589
清韵专业瑜伽馆,体育休闲服务,运动场馆,健身中心,罗泾镇长虹路783号海上御景苑东北门,上海市,上海市,宝山区,121.3218296,31.47812845
银河网络台球,体育休闲服务,运动场馆,台球厅,罗泾潘沪路宝虹家园211号,上海市,上海市,宝山区,121.3273267,31.48210119
林兴台球房,体育休闲服务,运动场馆,台球厅,新川沙路510号,上海市,上海市,宝山区,121.3403858,31.47995713
老年书场,体育休闲服务,体育休闲服务场所,体育休闲服务场所,罗泾镇陈行街123号,上海市,上海市,宝山区,121.3383752,31.48003478
罗泾镇社区亲子俱乐部,体育休闲服务,运动场馆,运动场所,陈东路121号罗泾镇社区,上海市,上海市,宝山区,121.3396771,31.48238998
叱咤跆拳道,体育休闲服务,运动场馆,跆拳道场馆,陈行街138号,上海市,上海市,宝山区,121.3382814,31.47955104
上海罗泾丽康养老院,体育休闲服务,度假疗养场所,疗养院,罗泾镇新川沙路503号,上海市,上海市,宝山区,121.3419983,31.481267
聚好休闲室,体育休闲服务,娱乐场所,棋牌室,新川沙路512号,上海市,上海市,宝山区,121.3398929,31.47975706
小彭棋牌室,体育休闲服务,娱乐场所,棋牌室,陈镇路258号附近,上海市,上海市,宝山区,121.3368561,31.48387889
奚家港老年活动室,体育休闲服务,休闲场所,休闲场所,奚渔路与爱民路交叉口东北100米,上海市,上海市,崇明区,121.7880391,31.47799758
上海崇明爱心养老院,体育休闲服务,度假疗养场所,疗养院,陈家镇瀛陈公路全民路,上海市,上海市,崇明区,121.8043002,31.47723449
崇明钓鱼,体育休闲服务,体育休闲服务场所,体育休闲服务场所,东滩大道与环瀛路交叉口东南150米,上海市,上海市,崇明区,121.8451937,31.47802901
瀛旺农家乐,体育休闲服务,休闲场所,休闲场所,陈家镇先锋村老窑厂,上海市,上海市,崇明区,121.8514668,31.48316741
上海勇宏休闲垂钓中心,体育休闲服务,休闲场所,垂钓园,陈家镇崇旺路4号桥,上海市,上海市,崇明区,121.8710709,31.48373748
华亭镇双塘横塘老年活动室福利彩票资助,体育休闲服务,度假疗养场所,疗养院,唐窑路西50米,上海市,上海市,嘉定区,121.2149489,31.47189998
凯弘棋牌室,体育休闲服务,娱乐场所,棋牌室,华亭镇嘉行公路3257号,上海市,上海市,嘉定区,121.2345691,31.46667765
开心棋牌,体育休闲服务,娱乐场所,棋牌室,华亭镇嘉行公路3227号锦洋花园,上海市,上海市,嘉定区,121.2348972,31.46627286
江南名居农家院,体育休闲服务,体育休闲服务场所,体育休闲服务场所,霜竹公路与高竹路交叉口西南200米,上海市,上海市,嘉定区,121.2381468,31.46946329
绅士休闲垂钓中心,体育休闲服务,休闲场所,垂钓园,华亭镇高石公路1988号,上海市,上海市,嘉定区,121.2565824,31.46529657
梦微草堂,体育休闲服务,休闲场所,休闲场所,华亭镇高石公路1988号,上海市,上海市,嘉定区,121.2559778,31.46514985
华亭学校体育馆,体育休闲服务,运动场馆,综合体育馆,华谊一路12号华亭学校内,上海市,上海市,嘉定区,121.281852,31.46926571
凯鸥网吧,体育休闲服务,娱乐场所,网吧,浏翔公路7148弄3号2楼,上海市,上海市,嘉定区,121.2795573,31.47123519
华亭镇敬老院,体育休闲服务,度假疗养场所,疗养院,华亭镇华谊一路176号,上海市,上海市,嘉定区,121.2803759,31.47299986
上海市残疾人体育健身点(华亭镇),体育休闲服务,运动场馆,运动场所,华谊一路与澄浏公路交叉口东100米,上海市,上海市,嘉定区,121.2799318,31.47098779
红红草莓园,体育休闲服务,休闲场所,采摘园,沪樊路868号,上海市,上海市,嘉定区,121.3029355,31.46959918
上海飞士大厦-健身房,体育休闲服务,运动场馆,运动场所,沪太路8885号飞士大厦,上海市,上海市,宝山区,121.3203139,31.46905407
罗泾市民体育健身俱乐部,体育休闲服务,运动场馆,健身中心,罗泾镇沪太路8885号,上海市,上海市,宝山区,121.3214014,31.46884602
诚亦网络,体育休闲服务,体育休闲服务场所,体育休闲服务场所,罗泾镇合建村新川沙路860号,上海市,上海市,宝山区,121.3282756,31.46955371
自然草莓园,体育休闲服务,休闲场所,采摘园|公司企业,潘川路与潘泾路交汇处东北侧,上海市,上海市,宝山区,121.3436968,31.46901428
崇明金茂凯悦酒店健身中心,体育休闲服务,运动场馆,健身中心,揽海路799弄崇明金茂凯悦酒店1层,上海市,上海市,崇明区,121.7953233,31.46854425
施家小院农家乐,体育休闲服务,休闲场所,休闲场所,陈家镇新桥村610号,上海市,上海市,崇明区,121.8279191,31.47272777
瀛东度假村,体育休闲服务,度假疗养场所,度假村|公司企业,陈家镇瀛东村,上海市,上海市,崇明区,121.8392474,31.465572
瀛东村渔家乐,体育休闲服务,休闲场所,休闲场所,瀛东村,上海市,上海市,崇明区,121.8394048,31.46549829
东湖饭庄,体育休闲服务,休闲场所,休闲场所,陈家镇瀛东村东湖游览区外,上海市,上海市,崇明区,121.842437,31.46766622
嘉定工业区陆渡社区老年活动中心,体育休闲服务,休闲场所,休闲场所,娄陆公路1023号,上海市,上海市,嘉定区,121.1931395,31.46394356
嘉定工业区陆渡村社区老年活动室,体育休闲服务,休闲场所,休闲场所,嘉定工业区娄塘镇,上海市,上海市,嘉定区,121.1957501,31.46359282
嘉定区三里社区标准化老年活动室,体育休闲服务,休闲场所,休闲场所,娄陆公路与霜竹公路交叉口东南150米,上海市,上海市,嘉定区,121.1957829,31.45437777
唐行镇敬老院,体育休闲服务,度假疗养场所,疗养院,华亭镇唐行唐窑路25号,上海市,上海市,嘉定区,121.2331507,31.46428652
连俊村社区老年活动室,体育休闲服务,休闲场所,休闲场所,连俊路西50米,上海市,上海市,嘉定区,121.2250876,31.45852888
向前连俊村老年活动室,体育休闲服务,休闲场所,休闲场所,华亭镇嘉唐公路2379号,上海市,上海市,嘉定区,121.2268151,31.45509882
茹馨KTV,体育休闲服务,娱乐场所,KTV,华亭镇嘉行公路3029号,上海市,上海市,嘉定区,121.2382216,31.46003919
联友网咖,体育休闲服务,娱乐场所,网吧,华亭镇嘉唐公路2561号,上海市,上海市,嘉定区,121.2374952,31.46386321
汪满KTV,体育休闲服务,娱乐场所,KTV,唐行镇嘉唐公路2508号,上海市,上海市,嘉定区,121.2355807,31.46271082
荟金香葡萄园,体育休闲服务,休闲场所,采摘园,嘉行公路2868号,上海市,上海市,嘉定区,121.2376019,31.45508805
潘桥村老年活动室,体育休闲服务,休闲场所,休闲场所,潘桥村南樊宅42-1,上海市,上海市,宝山区,121.3241549,31.45988253
合众村老年活动室,体育休闲服务,休闲场所,休闲场所,罗宁路1817号附近,上海市,上海市,宝山区,121.3360348,31.46306534
罗泾镇三桥村老年社区活动中心,体育休闲服务,休闲场所,休闲场所,罗泾镇,上海市,上海市,宝山区,121.366861,31.46312747
海路村老年活动中心,体育休闲服务,休闲场所,休闲场所,钱陆路1247号,上海市,上海市,宝山区,121.3811506,31.45673016
月浦镇海陆村老年活动室,体育休闲服务,休闲场所,休闲场所,唐陈路北50米,上海市,上海市,宝山区,121.377089,31.45921677
新丰老龄活动中心,体育休闲服务,体育休闲服务场所,体育休闲服务场所,塔源路与石太路交叉口东100米,上海市,上海市,宝山区,121.3935084,31.45573891
东方网点(鹤林店),体育休闲服务,娱乐场所,网吧,月浦镇鹤林路308号,上海市,上海市,宝山区,121.3951751,31.45562969
宝山区月浦镇怡康敬老院,体育休闲服务,度假疗养场所,疗养院,盛桥一村28号,上海市,上海市,宝山区,121.3990402,31.45465679
揽海国际高尔夫俱乐部,体育休闲服务,高尔夫相关,高尔夫球场,揽海路55号,上海市,上海市,崇明区,121.8143742,31.46333927
东滩生态园,体育休闲服务,体育休闲服务场所,体育休闲服务场所,,上海市,上海市,崇明区,121.8790217,31.45704284
沥江生态园,体育休闲服务,休闲场所,采摘园,嘉朱公路3333号,上海市,上海市,嘉定区,121.1630957,31.44915334
浏河人家农家乐,体育休闲服务,休闲场所,休闲场所,兴顺路,上海市,上海市,嘉定区,121.192171,31.44985692
三里村社区活动中心,体育休闲服务,休闲场所,休闲场所,嘉定工业区北区娄陆公路698号,上海市,上海市,嘉定区,121.195837,31.45410791
草庵村社区老年活动中心,体育休闲服务,休闲场所,休闲场所,嘉定工业区娄塘镇,上海市,上海市,嘉定区,121.209538,31.45250965
华亭镇塔桥村社区老年活动室,体育休闲服务,休闲场所,休闲场所,嘉行公路2681号,上海市,上海市,嘉定区,121.2435632,31.44644796
合一乐活农场,体育休闲服务,休闲场所,休闲场所,华亭镇塔桥村张店路39号,上海市,上海市,嘉定区,121.2478943,31.45043799
一品甜奶油草莓采摘园,体育休闲服务,休闲场所,采摘园,高庙路北150米,上海市,上海市,嘉定区,121.2599747,31.44680578
喜杨洋草莓园,体育休闲服务,休闲场所,采摘园,徐行镇宝钱公路与陈白路交汇处西北150米,上海市,上海市,嘉定区,121.2619303,31.44444915
伏虎村综合文化活动室,体育休闲服务,休闲场所,休闲场所,徐行镇伏虎村190号,上海市,上海市,嘉定区,121.2560211,31.44924216
好心情草莓采摘园,体育休闲服务,休闲场所,采摘园,宝钱公路和大安路交叉口往北100米,上海市,上海市,嘉定区,121.2882528,31.45124365
百里香无公害奶油草莓,体育休闲服务,休闲场所,采摘园,劳动路707弄169号(近劳动村),上海市,上海市,嘉定区,121.3128379,31.44524824
徐行镇劳动村社区活动中心,体育休闲服务,休闲场所,休闲场所,安新路9号,上海市,上海市,嘉定区,121.310407,31.44944084
劳动村社区老年活动室,体育休闲服务,休闲场所,休闲场所,徐行镇,上海市,上海市,嘉定区,121.3181409,31.44544316
宝临羽欣羽毛球馆,体育休闲服务,运动场馆,羽毛球场,金勺路1415号,上海市,上海市,宝山区,121.3402825,31.451333
宝山区罗泾镇王家楼村老年活动室,体育休闲服务,休闲场所,休闲场所,集贤路1900号,上海市,上海市,宝山区,121.3395666,31.44527363
渔乐垂钓中心,体育休闲服务,休闲场所,垂钓园,罗东路与天菊路交叉口西行400米,上海市,上海市,宝山区,121.358875,31.4453018
西瓜采摘园,体育休闲服务,体育休闲服务场所,体育休闲服务场所,民众三路与民众四路交叉口南200米,上海市,上海市,宝山区,121.3651696,31.45015827
惠宏农庄,体育休闲服务,休闲场所,休闲场所,罗店镇罗东路801弄71号,上海市,上海市,宝山区,121.3684334,31.44458058
月浦镇盛星村老年活动中心,体育休闲服务,休闲场所,休闲场所,月浦镇石太路盛星村5队,上海市,上海市,宝山区,121.3798633,31.4491497
绿荫潭农庄,体育休闲服务,休闲场所,休闲场所,月浦镇沈家桥村梅园宅58号,上海市,上海市,宝山区,121.3814214,31.44492353
盛桥电影院(古莲路店),体育休闲服务,影剧院,电影院,古莲路188号,上海市,上海市,宝山区,121.4011227,31.45202757
群凯KTV,体育休闲服务,娱乐场所,KTV,鹤林路78弄11号,上海市,上海市,宝山区,121.3986016,31.44930892
宝营网吧,体育休闲服务,娱乐场所,网吧,鹤林路78弄20号,上海市,上海市,宝山区,121.3976896,31.44889199
和馨棋牌,体育休闲服务,娱乐场所,棋牌室|生活服务,鹤林路78弄8-10号,上海市,上海市,宝山区,121.3987756,31.44952588
缘苑,体育休闲服务,娱乐场所,棋牌室|生活服务,月浦镇盛桥古莲路373号,上海市,上海市,宝山区,121.3966004,31.45075961
天天棋牌(盛桥休闲街),体育休闲服务,娱乐场所,棋牌室,鹤林路78弄13号2层,上海市,上海市,宝山区,121.3985176,31.44927393
春生跆拳道,体育休闲服务,运动场馆,跆拳道场馆,鹤林路78弄22号3楼,上海市,上海市,宝山区,121.3981896,31.44941788
飞羽KTV,体育休闲服务,娱乐场所,夜总会,古莲路358号盛桥休闲街2层,上海市,上海市,宝山区,121.3979495,31.45047865
尊爵台球(古莲路),体育休闲服务,运动场馆,台球厅,鹤林路78弄22号,上海市,上海市,宝山区,121.3964774,31.45070363
开心哈乐室内儿童主题亲子乐园,体育休闲服务,休闲场所,游乐场,古莲路与塔源路交叉口西南100米,上海市,上海市,宝山区,121.3950337,31.44981095
网吧动漫城,体育休闲服务,娱乐场所,娱乐场所,月浦镇盛桥塔源路184号,上海市,上海市,宝山区,121.3957626,31.44912803
聚悦棋牌(塔源路),体育休闲服务,娱乐场所,棋牌室,塔源路160号,上海市,上海市,宝山区,121.3958697,31.44883108
海星娱乐城,体育休闲服务,娱乐场所,KTV,盛桥镇古莲路188号,上海市,上海市,宝山区,121.4014037,31.4520766
五官堂棋牌室,体育休闲服务,娱乐场所,棋牌室,盛桥一村17号,上海市,上海市,宝山区,121.4005324,31.45343519
开心庄园草莓基地,体育休闲服务,休闲场所,采摘园,新增圩路附近,上海市,上海市,崇明区,121.5772147,31.44722994
新建的敬老院,体育休闲服务,度假疗养场所,疗养院,陈家镇东滩国际会议中心旁,上海市,上海市,崇明区,121.8745558,31.45297593
东滩国际会议中心-游泳池,体育休闲服务,运动场馆,游泳馆,东滩团结沙上海东滩国际会议中心,上海市,上海市,崇明区,121.8743135,31.45311868
东滩国际会议中心-网球场,体育休闲服务,运动场馆,网球场,东滩团结沙上海东滩国际会议中心,上海市,上海市,崇明区,121.8743135,31.45312068
费阿姨草莓园,体育休闲服务,体育休闲服务场所,体育休闲服务场所,嘉朱公路西50米,上海市,上海市,嘉定区,121.1475209,31.43997511
农灯草莓园,体育休闲服务,体育休闲服务场所,体育休闲服务场所,朱桥镇灯塔村213号,上海市,上海市,嘉定区,121.1525823,31.44223951
三同草莓生态园,体育休闲服务,休闲场所,采摘园,嘉朱公路,上海市,上海市,嘉定区,121.1451307,31.43805546
田园草莓采摘,体育休闲服务,体育休闲服务场所,体育休闲服务场所,竹窑路附近,上海市,上海市,嘉定区,121.155474,31.4429286
三原色赛车场,体育休闲服务,运动场馆,运动场所,新甸路1399号附近,上海市,上海市,嘉定区,121.1701559,31.44043156
灯塔村慧娟有机草莓园,体育休闲服务,休闲场所,休闲场所,灯塔村5组509号(加朱公路竹窑路),上海市,上海市,嘉定区,121.1675488,31.43822717
欣缘网吧,体育休闲服务,娱乐场所,网吧,工业区娄塘镇小东街162号,上海市,上海市,嘉定区,121.2135904,31.43634105
娱乐新战线中速网,体育休闲服务,娱乐场所,游戏厅,小车街与西大街交叉口东北50米,上海市,上海市,嘉定区,121.2136835,31.43653111
上海战神跆拳道馆,体育休闲服务,运动场馆,跆拳道场馆,工业区娄塘镇小东街162号2号楼2楼,上海市,上海市,嘉定区,121.2137585,31.43715105
嘉定工业区娄东村社区老年活动室,体育休闲服务,休闲场所,休闲场所,浏赵公路与赵庵路交叉口东南100米,上海市,上海市,嘉定区,121.2218412,31.44335558
美加乐儿童主题乐园,体育休闲服务,体育休闲服务场所,体育休闲服务场所,冯辛路与嘉行公路交叉口西南50米,上海市,上海市,嘉定区,121.2464509,31.43452472
上海香飘飘草莓采摘园,体育休闲服务,休闲场所,采摘园,冯辛路附近,上海市,上海市,嘉定区,121.2523992,31.43471071
爱普香料种植园,体育休闲服务,休闲场所,休闲场所,宝钱公路1277号,上海市,上海市,嘉定区,121.2637848,31.44346715
南白塘垂钓中心,体育休闲服务,休闲场所,垂钓园,徐行镇宝钱公路1277号,上海市,上海市,嘉定区,121.2637468,31.44358215
上海香飘飘草莓采摘园,体育休闲服务,休闲场所,采摘园,,上海市,上海市,嘉定区,121.2586985,31.43602793
逸龙棋牌室,体育休闲服务,娱乐场所,棋牌室,前曹公路258号,上海市,上海市,嘉定区,121.3021907,31.43866407
启新跆拳道俱乐部,体育休闲服务,运动场馆,跆拳道场馆,徐行镇前曹公路191号,上海市,上海市,嘉定区,121.3025251,31.43740078
金源网咖(庙浜路),体育休闲服务,娱乐场所,网吧,前曹公路191-193号,上海市,上海市,嘉定区,121.3024343,31.43746492
电玩动漫台球,体育休闲服务,运动场馆,台球厅,开源路与曹新公路1388弄交叉口西北50米,上海市,上海市,嘉定区,121.3003509,31.43428227
双赢葡萄农庄,体育休闲服务,休闲场所,采摘园,庙浜路北50米,上海市,上海市,嘉定区,121.3145315,31.44015721
休闲棋牌,体育休闲服务,娱乐场所,棋牌室,劳动路280号附近,上海市,上海市,嘉定区,121.320898,31.44064797
四方村敬老院,体育休闲服务,度假疗养场所,疗养院,罗溪路1201弄53号,上海市,上海市,宝山区,121.3356631,31.43425736
野生甲鱼垂钓园,体育休闲服务,休闲场所,垂钓园,石太路2275号,上海市,上海市,宝山区,121.3515389,31.43651401
宝芝田生态园,体育休闲服务,休闲场所,采摘园,石太路2039号附近,上海市,上海市,宝山区,121.359151,31.43931077
北郊庄园,体育休闲服务,休闲场所,休闲场所|餐饮服务,罗店镇石太路2111号(靠近潘泾路路口),上海市,上海市,宝山区,121.3567602,31.43804455
天平村农村采摘园,体育休闲服务,休闲场所,采摘园,罗东路1202号附近,上海市,上海市,宝山区,121.3635515,31.44402669
上海金罗敬老院(罗东路),体育休闲服务,度假疗养场所,疗养院,罗店镇罗东路779号(近石太路),上海市,上海市,宝山区,121.366167,31.43969638
奉宝草莓采摘基地,体育休闲服务,休闲场所,采摘园,聚发路189号,上海市,上海市,宝山区,121.3805675,31.43994826
聚一聚农庄,体育休闲服务,休闲场所,休闲场所|餐饮服务,月浦镇聚石路聚源桥村中宅22号(近蕴川路),上海市,上海市,宝山区,121.3833954,31.43925755
月浦镇聚源桥村老年活动室,体育休闲服务,休闲场所,休闲场所,聚发路与聚石路交叉口东南200米,上海市,上海市,宝山区,121.3825789,31.4403748
月浦镇钱潘老年活动室,体育休闲服务,休闲场所,休闲场所,钱陆路564号,上海市,上海市,宝山区,121.3933619,31.43923158
月浦镇月狮村老龄活动室,体育休闲服务,休闲场所,休闲场所,月狮村金家宅42,上海市,上海市,宝山区,121.3890639,31.44235408
宝山区月浦镇友谊村老年活动室,体育休闲服务,休闲场所,休闲场所,联水路51号,上海市,上海市,宝山区,121.4041535,31.44072474
熙园相聚渔家乐,体育休闲服务,体育休闲服务场所,体育休闲服务场所,长兴岛潘圆公路与青草沙路交叉口西北230米,上海市,上海市,崇明区,121.5981741,31.43745951
灯塔生态休闲园,体育休闲服务,休闲场所,休闲场所,嘉定工业区灯塔村灯南538号,上海市,上海市,嘉定区,121.1611402,31.43292839
上海盈达旅游发展有限公司,体育休闲服务,休闲场所,休闲场所,灯塔村灯南538号,上海市,上海市,嘉定区,121.1610619,31.43402099
上海夏宫马术俱乐部,体育休闲服务,运动场馆,马术俱乐部,灯塔村灯南538号,上海市,上海市,嘉定区,121.1607533,31.43383946
嘉朱桂花生态园,体育休闲服务,休闲场所,采摘园,北和公路138号,上海市,上海市,嘉定区,121.1722235,31.42502812
中数网络(娄塘店),体育休闲服务,娱乐场所,网吧,嘉唐公路1256号3层,上海市,上海市,嘉定区,121.2105464,31.42782056
上海宝鑫互联网上网服务部,体育休闲服务,娱乐场所,网吧,嘉唐公路1256号3层,上海市,上海市,嘉定区,121.2106776,31.42761177
嘉定工业区社区公共运动场,体育休闲服务,运动场馆,运动场所,娄朱公路与娄红路交叉口东50米,上海市,上海市,嘉定区,121.2085649,31.42611153
天狼,体育休闲服务,运动场馆,台球厅|购物服务,嘉定工业区娄塘镇大北街33号,上海市,上海市,嘉定区,121.2120968,31.43345104
观悦网吧,体育休闲服务,娱乐场所,网吧,徐行镇娄塘镇娄塘路南新路238号菜市场二楼,上海市,上海市,嘉定区,121.2133685,31.43235875
振兴跆拳道武术培训,体育休闲服务,运动场馆,跆拳道场馆,嘉唐公路与娄朱公路交叉口东南50米,上海市,上海市,嘉定区,121.2106375,31.42757473
津津乐网吧,体育休闲服务,娱乐场所,网吧,娄塘镇中大街126号,上海市,上海市,嘉定区,121.2126696,31.43299281
家军棋牌室,体育休闲服务,娱乐场所,棋牌室,中大街与西大街交叉口西50米,上海市,上海市,嘉定区,121.2121809,31.43368408
娄塘村棋牌室,体育休闲服务,娱乐场所,棋牌室,嘉定工业区娄塘镇娄陆公路2号,上海市,上海市,嘉定区,121.2153158,31.43077526
嘉定工业区娄塘村社区老年活动室,体育休闲服务,休闲场所,休闲场所,娄塘路500号,上海市,上海市,嘉定区,121.2153949,31.43071436
上海嘉定日森休闲垂钓中心,体育休闲服务,休闲场所,垂钓园,工业区赵厅村战斗路387号,上海市,上海市,嘉定区,121.2297341,31.42884164
渔乐圈休闲,体育休闲服务,休闲场所,垂钓园,徐行镇施钱路南500米,上海市,上海市,嘉定区,121.2412791,31.42445192
上海市残疾人体育健身点(嘉行公路),体育休闲服务,运动场馆,健身中心,嘉行公路东50米,上海市,上海市,嘉定区,121.249143,31.42631444
大众草莓园,体育休闲服务,体育休闲服务场所,体育休闲服务场所,徐曹路与浏翔公路交叉口北150米,上海市,上海市,嘉定区,121.289124,31.43030419
瓷上文化空间,体育休闲服务,休闲场所,休闲场所,徐曹路485号(西巷车站),上海市,上海市,嘉定区,121.2942485,31.42961049
东方网点(前曹公路店),体育休闲服务,娱乐场所,网吧,前曹公路1号附近,上海市,上海市,嘉定区,121.3033167,31.43401819
新宝量贩KTV(嘉定店),体育休闲服务,娱乐场所,KTV,施曹公路533号,上海市,上海市,嘉定区,121.3035363,31.43307203
田梁园,体育休闲服务,休闲场所,休闲场所,曹红路与红星路交叉口南200米,上海市,上海市,嘉定区,121.3153087,31.42968222
红星村健身点,体育休闲服务,运动场馆,健身中心,红星路376号附近,上海市,上海市,嘉定区,121.3152487,31.43070009
天天嗨皮轰趴馆,体育休闲服务,体育休闲服务场所,体育休闲服务场所,罗溪路1099弄63号四方花苑,上海市,上海市,宝山区,121.3377519,31.42947265
罗店镇金星村老年活动室,体育休闲服务,休闲场所,休闲场所,罗新路45号附近,上海市,上海市,宝山区,121.3461693,31.42763709
罗店镇毛家农村老年活动中心,体育休闲服务,休闲场所,休闲场所,毛家路406号,上海市,上海市,宝山区,121.3815676,31.42994893
段泾阁,体育休闲服务,休闲场所,休闲场所,月浦川巷路888号(川巷路与月巷路交口旁),上海市,上海市,宝山区,121.3952227,31.42567656
聚源网吧,体育休闲服务,娱乐场所,网吧,月浦镇申浦路270号,上海市,上海市,宝山区,121.4090341,31.42669402
艾尚生煎&熊孩子儿童乐园,体育休闲服务,休闲场所,游乐场,申浦路267号2楼,上海市,上海市,宝山区,121.408763,31.4266039
佳尚苑休闲会所,体育休闲服务,体育休闲服务场所,体育休闲服务场所,月浦镇申浦路274号,上海市,上海市,宝山区,121.408895,31.42679092
儿童动漫城,体育休闲服务,娱乐场所,游戏厅,申浦路268号附近,上海市,上海市,宝山区,121.4091292,31.4265421
阿祥农庄,体育休闲服务,休闲场所,休闲场所,长征路西侧100米,上海市,上海市,崇明区,121.6611052,31.42819758
长兴别墅庄园,体育休闲服务,休闲场所,休闲场所,长征村460号,上海市,上海市,崇明区,121.6634607,31.42737529
长征果园农家院,体育休闲服务,休闲场所,休闲场所,长征村460号,上海市,上海市,崇明区,121.6634607,31.42737529
嘉定工业区雨化村社区活动中心,体育休闲服务,休闲场所,休闲场所,北和路678号,上海市,上海市,嘉定区,121.1634621,31.41892321
嘉定工业区旺泾社区老年活动中心,体育休闲服务,休闲场所,休闲场所,旺泾村殷周666,上海市,上海市,嘉定区,121.1715951,31.41451663
柠檬盛世网络,体育休闲服务,体育休闲服务场所,体育休闲服务场所,工业区汇源路208号中茂世纪财富广场2号楼14层,上海市,上海市,嘉定区,121.2011056,31.41902314
悦太极场馆,体育休闲服务,体育休闲服务场所,体育休闲服务场所,嘉定工业区汇源路55号中广国际创意园H栋3楼,上海市,上海市,嘉定区,121.2079907,31.42010931
邵宅棋牌室,体育休闲服务,娱乐场所,棋牌室,嘉唐公路920号,上海市,上海市,嘉定区,121.2220414,31.41975243
富翔网吧,体育休闲服务,娱乐场所,网吧,徐行镇娄塘镇金兰路,上海市,上海市,嘉定区,121.218774,31.42418437
赵厅村战斗十一组老龄活动中心,体育休闲服务,休闲场所,休闲场所,战斗11组1203号,上海市,上海市,嘉定区,121.2290327,31.41782899
上海协通度假村有限公司,体育休闲服务,度假疗养场所,度假村|公司企业,嘉行公路1257号(曹新公路嘉行公路),上海市,上海市,嘉定区,121.2499353,31.42000789
上海礼爱颐养院,体育休闲服务,度假疗养场所,疗养院,嘉行公路1257号,上海市,上海市,嘉定区,121.2499353,31.42000789
大石皮农家生态园,体育休闲服务,休闲场所,休闲场所,嘉行公路1188号,上海市,上海市,嘉定区,121.2507433,31.41679756
上海韵竹高介渔村,体育休闲服务,休闲场所,垂钓园,曹新路3885号,上海市,上海市,嘉定区,121.2457573,31.41946346
赵厅高界钓鱼中心,体育休闲服务,体育休闲服务场所,体育休闲服务场所,曹新路3885号,上海市,上海市,嘉定区,121.2456683,31.41936549
老孙棋牌室(曹新路),体育休闲服务,娱乐场所,棋牌室,曹新路3573号附近,上海市,上海市,嘉定区,121.2522334,31.42116408
晴天羽毛球馆,体育休闲服务,体育休闲服务场所,体育休闲服务场所,武乡路215号,上海市,上海市,嘉定区,121.2618585,31.42016703
嘉定武术馆,体育休闲服务,运动场馆,运动场所,徐行镇新建一路2258号,上海市,上海市,嘉定区,121.2640039,31.4166975
新成路街道敬老院,体育休闲服务,度假疗养场所,疗养院,徐行镇新建一路2258号徐行康福敬养院,上海市,上海市,嘉定区,121.2644755,31.41676215
上海嘉定康福敬老院,体育休闲服务,度假疗养场所,疗养院,新建一路2258号1号别墅,上海市,上海市,嘉定区,121.2645703,31.41712399
东方网点(澄浏公路店),体育休闲服务,娱乐场所,网吧,澄浏公路463号,上海市,上海市,嘉定区,121.2691318,31.41593164
飞天网吧(新建二路),体育休闲服务,娱乐场所,网吧,澄浏公路543号2层,上海市,上海市,嘉定区,121.2692994,31.41785
徐行交谊舞厅,体育休闲服务,娱乐场所,迪厅,新建二路与澄浏公路交叉口西北50米,上海市,上海市,嘉定区,121.2693553,31.41782495
上海市嘉定区徐行镇敬老院,体育休闲服务,度假疗养场所,疗养院,澄浏公路457弄43号,上海市,上海市,嘉定区,121.2678652,31.41555583
嘉宇网吧,体育休闲服务,娱乐场所,网吧,徐行镇新建一路1648号,上海市,上海市,嘉定区,121.2746569,31.4173819
嘉诚网吧,体育休闲服务,娱乐场所,网吧,徐行镇新建一路1648号,上海市,上海市,嘉定区,121.2747358,31.4174308
开心棋牌(新建一路),体育休闲服务,娱乐场所,棋牌室,新建一路2122号,上海市,上海市,嘉定区,121.267924,31.4166415
网吧网咖,体育休闲服务,娱乐场所,网吧,澄浏公路543号时代联华购物中心2层,上海市,上海市,嘉定区,121.2692994,31.41785
文化体育活动中心,体育休闲服务,运动场馆,运动场所,徐行镇新建一路1568号,上海市,上海市,嘉定区,121.2771543,31.41920368
启悦社区老年活动室,体育休闲服务,休闲场所,休闲场所,启悦路与启源路交叉口西100米,上海市,上海市,嘉定区,121.2770273,31.42078942
小庙村老年活动室,体育休闲服务,休闲场所,休闲场所,徐浦路652号,上海市,上海市,嘉定区,121.2943034,31.4176674
电玩游戏,体育休闲服务,娱乐场所,游戏厅,东西巷街189号,上海市,上海市,宝山区,121.3346051,31.41577894
东方网点(祁北路),体育休闲服务,娱乐场所,网吧,罗店镇罗溪路800号,上海市,上海市,宝山区,121.3395137,31.42220623
歌巢量贩KTV(市一路),体育休闲服务,娱乐场所,KTV,罗店镇市一路188号(罗溪路口),上海市,上海市,宝山区,121.342856,31.41752142
蓝月亮,体育休闲服务,娱乐场所,娱乐场所,罗店镇塘西街180号宝岛眼镜3楼,上海市,上海市,宝山区,121.3383287,31.41727765
缤纷派酷玩乐园(宝山店),体育休闲服务,体育休闲服务场所,体育休闲服务场所,罗店镇塘西街299号上坤上街购物广场4号楼171-175室,上海市,上海市,宝山区,121.3384173,31.42024572
MQ量贩式KTV(上坤上街店),体育休闲服务,娱乐场所,KTV,罗店镇祁北路塘西街上坤上街广场1栋2楼,上海市,上海市,宝山区,121.3377646,31.42120268
中数网络家园(市一路),体育休闲服务,娱乐场所,网吧,市一路188号2层,上海市,上海市,宝山区,121.3429469,31.41742229
雨林网吧(塘西街),体育休闲服务,娱乐场所,网吧,塘东街53临3楼,上海市,上海市,宝山区,121.3387909,31.4149754
励志跆拳道连锁机构,体育休闲服务,体育休闲服务场所,体育休闲服务场所,塘西街180-10号附近,上海市,上海市,宝山区,121.338209,31.4175438
皇龙台球俱乐部,体育休闲服务,运动场馆,台球厅,市一路188号2楼,上海市,上海市,宝山区,121.3429508,31.41746527
网格中心,体育休闲服务,体育休闲服务场所,体育休闲服务场所,罗店镇市一路200号,上海市,上海市,宝山区,121.3421924,31.41732365
爱丽特KTV,体育休闲服务,娱乐场所,KTV,罗店镇罗店新街17号,上海市,上海市,宝山区,121.3377682,31.4149083
宝山罗福养老院,体育休闲服务,度假疗养场所,疗养院,罗店东西巷街79弄26号,上海市,上海市,宝山区,121.3366116,31.41639004
皇一游艺城,体育休闲服务,娱乐场所,游戏厅,市一路188号2楼,上海市,上海市,宝山区,121.3429469,31.41742229
古月湾休闲娱乐,体育休闲服务,娱乐场所,娱乐场所,罗店镇新街28号,上海市,上海市,宝山区,121.3375137,31.41501574
悦享羽毛球馆,体育休闲服务,运动场馆,羽毛球场,罗店镇祁北路51号,上海市,上海市,宝山区,121.3392084,31.42222578
动漫乐园,体育休闲服务,娱乐场所,游戏厅,塘西街39-4临2楼,上海市,上海市,宝山区,121.3388379,31.41471339
季季红游戏城,体育休闲服务,运动场馆,运动场所,塘东街53临2楼,上海市,上海市,宝山区,121.3388568,31.41507026
金成网吧(市一路),体育休闲服务,娱乐场所,网吧,罗店镇市一路143号,上海市,上海市,宝山区,121.3501421,31.41929851
宝山区罗店镇敬老院,体育休闲服务,度假疗养场所,疗养院,市一路110号,上海市,上海市,宝山区,121.350188,31.41967934
申辉棋牌台球,体育休闲服务,运动场馆,台球厅,市一路127号2层,上海市,上海市,宝山区,121.3505773,31.41943676
云亭会所,体育休闲服务,体育休闲服务场所,体育休闲服务场所,市一路61号,上海市,上海市,宝山区,121.3482419,31.4187438
永卫棋牌室,体育休闲服务,娱乐场所,棋牌室,市一路与集贤路交叉口西南50米,上海市,上海市,宝山区,121.3505843,31.41944175
市一棋牌,体育休闲服务,娱乐场所,棋牌室,市一路97临2楼,上海市,上海市,宝山区,121.3511352,31.4196318
男子会所,体育休闲服务,体育休闲服务场所,体育休闲服务场所,罗店镇市一路112号,上海市,上海市,宝山区,121.3463957,31.41816608
东方网点(月罗公路),体育休闲服务,娱乐场所,网吧,罗店镇月罗路1258-1号临附近,上海市,上海市,宝山区,121.3732596,31.41900758
草莓圣女果采摘园,体育休闲服务,休闲场所,采摘园,罗束路,上海市,上海市,宝山区,121.3749675,31.42123338
上海金色晚年敬老院,体育休闲服务,度假疗养场所,疗养院,月浦镇段泾村陆家宅50-2,上海市,上海市,宝山区,121.3950125,31.41685582
金色庄园(新镇社区东),体育休闲服务,休闲场所,休闲场所,月新南路582号,上海市,上海市,宝山区,121.3955185,31.41644187
梦歌量贩KTV,体育休闲服务,娱乐场所,KTV,月罗路251号,上海市,上海市,宝山区,121.409594,31.42089976
心心娱乐歌厅KTV,体育休闲服务,娱乐场所,KTV,富乐路28号,上海市,上海市,宝山区,121.4121179,31.42007445
春阳网吧,体育休闲服务,娱乐场所,网吧,月罗公路249弄40号2楼,上海市,上海市,宝山区,121.4095719,31.42121567
银河网络家园(富乐支路),体育休闲服务,娱乐场所,网吧,月浦镇月罗路249弄43号2楼,上海市,上海市,宝山区,121.4089175,31.42114335
上海市宝山区开心乐乐儿童乐园,体育休闲服务,休闲场所,游乐场,月浦镇月罗路249弄45号,上海市,上海市,宝山区,121.4093648,31.42094463
开心哈乐室内儿童主题亲子乐园(富乐支路),体育休闲服务,休闲场所,游乐场,月罗路259号,上海市,上海市,宝山区,121.4089275,31.42113335
博文网络家园明虹网吧,体育休闲服务,娱乐场所,网吧,罗店镇月浦镇月罗路268号,上海市,上海市,宝山区,121.4082152,31.42010927
沈巷老人活动中心,体育休闲服务,休闲场所,休闲场所,月浦镇月罗路307弄32号,上海市,上海市,宝山区,121.4072745,31.42259822
炫音全自助KTV(龙镇路店),体育休闲服务,娱乐场所,KTV,月浦镇龙镇路98号(近海澜之家),上海市,上海市,宝山区,121.4217079,31.418824
月浦文化馆影剧院,体育休闲服务,影剧院,剧场,龙镇路96号(四元路)上海市宝山区月浦文化馆,上海市,上海市,宝山区,121.4224759,31.41874786
金熙宫歌城,体育休闲服务,娱乐场所,KTV,月浦镇德都路502号,上海市,上海市,宝山区,121.4177902,31.41981689
银河网络家园(银河6号店),体育休闲服务,娱乐场所,网吧,月浦镇龙镇路75号,上海市,上海市,宝山区,121.4222876,31.41967242
吉鑫棋牌室,体育休闲服务,体育休闲服务场所,体育休闲服务场所,月浦镇德都路月浦四村40号甲,上海市,上海市,宝山区,121.4190125,31.42005896
聚升源KTV(北安路店),体育休闲服务,娱乐场所,KTV,月浦镇月浦北安路16号,上海市,上海市,宝山区,121.4227242,31.41978187
柯森网络(四元店),体育休闲服务,娱乐场所,网吧,德都路四元店307号2楼(四元路),上海市,上海市,宝山区,121.4201052,31.41518029
五冶(月浦)老年活动室,体育休闲服务,休闲场所,休闲场所,四元路189号附近,上海市,上海市,宝山区,121.4209471,31.41708965
朗域国际酒店KTV,体育休闲服务,娱乐场所,KTV,北安路118号朗域国际酒店南楼3层,上海市,上海市,宝山区,121.4221081,31.42259048
贝儿健儿童乐园,体育休闲服务,休闲场所,游乐场,月浦镇德都路285号吉买盛生活广场后门,上海市,上海市,宝山区,121.4203065,31.41440769
小木屋棋牌室,体育休闲服务,娱乐场所,棋牌室,月浦九村58门101号(小卖部),上海市,上海市,宝山区,121.4193022,31.4159383
乐天棋牌室(发四路),体育休闲服务,娱乐场所,棋牌室,月罗路120-10号,上海市,上海市,宝山区,121.4203368,31.42328444
春生泰拳・拳击・跆拳道,体育休闲服务,运动场馆,跆拳道场馆,四元路321号,上海市,上海市,宝山区,121.4192462,31.41511146
形空网咖,体育休闲服务,娱乐场所,网吧,德都路293号2层,上海市,上海市,宝山区,121.4197618,31.41546387
勤鑫棋牌室,体育休闲服务,娱乐场所,棋牌室,宝山月浦二村12号,上海市,上海市,宝山区,121.4237284,31.42128563
八仙棋牌室(四元路),体育休闲服务,娱乐场所,棋牌室,四元路377号附近,上海市,上海市,宝山区,121.4182752,31.41457369
好兄弟音乐炫吧KTV,体育休闲服务,娱乐场所,KTV,月浦镇四元路28号,上海市,上海市,宝山区,121.4298865,31.41493423
张萍健身会所(月浦店),体育休闲服务,运动场馆,健身中心,四元路52号3层,上海市,上海市,宝山区,121.428951,31.41487293
老干部活动室,体育休闲服务,体育休闲服务场所,体育休闲服务场所,月浦镇四元路126号36弄,上海市,上海市,宝山区,121.4255766,31.41501347
金仕堡(月浦店),体育休闲服务,运动场馆,健身中心,月浦镇宝泉路28号(近四元路),上海市,上海市,宝山区,121.4251759,31.41661855
沪乐游戏城,体育休闲服务,娱乐场所,游戏厅,四元路52号2楼,上海市,上海市,宝山区,121.428952,31.41487293
跆壹跆拳道(月浦金仕堡店),体育休闲服务,运动场馆,跆拳道场馆,月浦宝泉路28号3F,上海市,上海市,宝山区,121.4251829,31.4164846
长兴阳光家园,体育休闲服务,休闲场所,休闲场所,潘圆公路与潘石老街交叉口东南150米,上海市,上海市,崇明区,121.6350133,31.41789675
长兴乡团结村老年活动室,体育休闲服务,娱乐场所,娱乐场所,团结村248-1号,上海市,上海市,崇明区,121.6396502,31.41588604
卫家大院农庄农家乐,体育休闲服务,休闲场所,休闲场所,长兴岛光荣四队光园中路333号,上海市,上海市,崇明区,121.6677232,31.41811046
上海208态申农庄,体育休闲服务,休闲场所,休闲场所,长兴岛光荣三路208号,上海市,上海市,崇明区,121.676744,31.4144922
朱桥服务区休息室,体育休闲服务,体育休闲服务场所,体育休闲服务场所,朱家桥镇朱桥服务区,上海市,上海市,嘉定区,121.1826548,31.40746386
篮球场,体育休闲服务,体育休闲服务场所,体育休闲服务场所,嘉朱公路与朱戴路交叉口西南100米,上海市,上海市,嘉定区,121.1924321,31.40718678
朱家桥社区老年活动室,体育休闲服务,休闲场所,休闲场所,宝钱公路3694号附近,上海市,上海市,嘉定区,121.1883703,31.41210264
美龙KTV,体育休闲服务,娱乐场所,KTV,徐行镇汇源路788号,上海市,上海市,嘉定区,121.1916874,31.41170134
东东棋牌室,体育休闲服务,娱乐场所,棋牌室,嘉定工业区鲁龙劳务(朱桥分公司)宝钱公路3468附近,上海市,上海市,嘉定区,121.1885225,31.41354652
上海师大天华学院-体育场,体育休闲服务,运动场馆,运动场所,胜辛北路1661号上海师范大学天华学院内,上海市,上海市,嘉定区,121.1953751,31.40928297
上海师范大学天华学院-足球场,体育休闲服务,运动场馆,足球场,胜辛北路上海师范大学天华学院,上海市,上海市,嘉定区,121.1952008,31.40898277
萤决网络,体育休闲服务,体育休闲服务场所,体育休闲服务场所,徐行镇嘉定工业区新徕路468号D幢,上海市,上海市,嘉定区,121.2094875,31.41029076
特宝网络,体育休闲服务,娱乐场所,网吧,嘉定工业区嘉唐公路500号11幢201室,上海市,上海市,嘉定区,121.2349484,31.40529524
全洪农家乐,体育休闲服务,休闲场所,休闲场所,张家桥东曹新路2000-87号,上海市,上海市,嘉定区,121.2353311,31.41115281
泰宸社区汇丰荷苑多功能活动室,体育休闲服务,娱乐场所,娱乐场所,树屏路南50米,上海市,上海市,嘉定区,121.2386344,31.40500349
上海工艺美术职业学院体育馆,体育休闲服务,运动场馆,综合体育馆,菊园新区管委会树屏路与棋盘路交叉口北200米,上海市,上海市,嘉定区,121.2458231,31.40963603
贝优体育游泳健身中心,体育休闲服务,运动场馆,游泳馆,菊园新区永靖路899号,上海市,上海市,嘉定区,121.253559,31.40747728
Bestu游泳健身,体育休闲服务,运动场馆,游泳馆,树屏路889号附近,上海市,上海市,嘉定区,121.253568,31.40734332
动益动德风足球,体育休闲服务,运动场馆,足球场,永靖路899号五月花游泳健身中心三楼,上海市,上海市,嘉定区,121.25356,31.40747528
保利苏创体育游泳健身中心,体育休闲服务,运动场馆,游泳馆,永靖路899号一楼到三楼,上海市,上海市,嘉定区,121.253488,31.40743932
靖月网吧,体育休闲服务,娱乐场所,网吧,永靖路胜竹路口五月花美食广场3层,上海市,上海市,嘉定区,121.2534272,31.40600972
漫时光,体育休闲服务,体育休闲服务场所,体育休闲服务场所,永靖路899弄152号,上海市,上海市,嘉定区,121.2538678,31.40789507
五月花棋牌,体育休闲服务,娱乐场所,棋牌室,菊园新区管委会花样年华造型护肤SPA永靖路899号,上海市,上海市,嘉定区,121.253563,31.40753527
雅阁会所,体育休闲服务,娱乐场所,KTV,永靖路833号,上海市,上海市,嘉定区,121.253517,31.40704342
欧百瑜伽(菊园店),体育休闲服务,运动场馆,健身中心,永靖路1760弄32号301室(五月花广场3层),上海市,上海市,嘉定区,121.2534571,31.40614068
动益动五月花游泳健身中心(嘉定店),体育休闲服务,运动场馆,健身中心,菊园新区管委会永靖路889号,上海市,上海市,嘉定区,121.253559,31.40747728
上海工艺美术职业学院健身中心,体育休闲服务,运动场馆,健身中心,树屏路与棋盘路交叉口东北200米上海工艺美术职业学院体育馆,上海市,上海市,嘉定区,121.2466681,31.40922611
苏创高温瑜伽健身(永靖路店),体育休闲服务,运动场馆,健身中心,永靖路899号一楼到三楼,上海市,上海市,嘉定区,121.253406,31.40747533
TOPGUN健身工作室(菊园店),体育休闲服务,运动场馆,健身中心,永靖路899弄889号优品玛特超市左外侧楼梯二楼(近胜竹路),上海市,上海市,嘉定区,121.253575,31.4074143
上海街区轮滑俱乐部,体育休闲服务,体育休闲服务场所,体育休闲服务场所,胜竹路1750号208室(五月花美食广场2楼),上海市,上海市,嘉定区,121.2535771,31.40536685
勇士跆拳道,体育休闲服务,运动场馆,跆拳道场馆,永靖路899号贝优健身房二楼,上海市,上海市,嘉定区,121.253571,31.40724534
五月花动漫城,体育休闲服务,娱乐场所,游戏厅,胜竹路1760弄保利・五月花美食广场3层,上海市,上海市,嘉定区,121.2535911,31.40564777
霞霞棋牌室,体育休闲服务,娱乐场所,棋牌室,永靖路646号,上海市,上海市,嘉定区,121.253452,31.40712941
贞武跆拳道(永靖路店),体育休闲服务,运动场馆,跆拳道场馆,永靖路保利五月花美食广场3楼306室,上海市,上海市,嘉定区,121.2536651,31.40528985
春生跆拳道俱乐部(嘉定店),体育休闲服务,运动场馆,跆拳道场馆,菊园新区管委会胜竹路1760弄37号,上海市,上海市,嘉定区,121.2532423,31.40519001
晴天羽毛球馆,体育休闲服务,运动场馆,羽毛球场,永新路758号附近,上海市,上海市,嘉定区,121.2579253,31.40916608
菊园新区永胜村老年活动室,体育休闲服务,休闲场所,休闲场所,永新路399号,上海市,上海市,嘉定区,121.2583225,31.40457514
上海众仁老年养护院,体育休闲服务,体育休闲服务场所,体育休闲服务场所,胜竹路1655号,上海市,上海市,嘉定区,121.255861,31.40464922
鑫k量贩式KTV(嘉定店),体育休闲服务,娱乐场所,KTV,澄浏路108号御泰广场2F(澄浏路加油站对面),上海市,上海市,嘉定区,121.2684584,31.40489618
鑫KKTV,体育休闲服务,娱乐场所,KTV,徐行镇澄浏公路御泰国际广场2楼,上海市,上海市,嘉定区,121.2685534,31.40468315
众乐派别墅轰趴派对七馆,体育休闲服务,娱乐场所,娱乐场所,澄浏路147弄3号,上海市,上海市,嘉定区,121.2679508,31.40720998
鑫禹网吧,体育休闲服务,娱乐场所,网吧,徐行镇澄浏公路108号(御泰国际广场)二楼,上海市,上海市,嘉定区,121.2685534,31.40468315
鑫鱼网咖,体育休闲服务,娱乐场所,网吧,徐行镇澄浏公路御泰国际广场2楼,上海市,上海市,嘉定区,121.2685534,31.40468315
上海马陆杰品葡萄园,体育休闲服务,休闲场所,采摘园,马陆镇徐北路2906号,上海市,上海市,嘉定区,121.3045487,31.40446358
马陆明珠葡萄园,体育休闲服务,休闲场所,采摘园|公司企业,刘村路东120米,上海市,上海市,嘉定区,121.3105285,31.40556141
马陆凯凯葡萄园,体育休闲服务,休闲场所,采摘园|公司企业,刘村路,上海市,上海市,嘉定区,121.3092992,31.40631448
商健葡萄园,体育休闲服务,休闲场所,采摘园,刘村路与徐北路交叉口北200米,上海市,上海市,嘉定区,121.309371,31.40582048
马陆小杨葡萄园,体育休闲服务,休闲场所,采摘园,徐北路2914号,上海市,上海市,嘉定区,121.3086717,31.40426819
丽莉葡萄园,公司企业,农林牧渔基地,其它农林牧渔基地|体育休闲服务,马陆大裕村2918号,上海市,上海市,嘉定区,121.307155,31.40440492
上海马陆建新葡萄园,体育休闲服务,休闲场所,采摘园,徐北路2912号附近,上海市,上海市,嘉定区,121.3078425,31.40431669
马陆宝龙葡萄园,体育休闲服务,休闲场所,采摘园,大裕村刘石路徐北路向东200米,上海市,上海市,嘉定区,121.3050915,31.40442463
罗店联合社区公共运动场,体育休闲服务,运动场馆,运动场所,溪宇路与联杨路交叉口东北50米,上海市,上海市,宝山区,121.3189821,31.40891055
宝山润泉钓场罗溪果园,体育休闲服务,体育休闲服务场所,体育休闲服务场所,罗店镇沪太路7230弄300号(宝罗居建材市场向西500米),上海市,上海市,宝山区,121.3275464,31.4105507
上海吴氏生态垂钓中心,体育休闲服务,休闲场所,垂钓园,溪宇路与联合一路交叉口东100米,上海市,上海市,宝山区,121.3275983,31.41050861
麦超量贩KTV,体育休闲服务,娱乐场所,KTV,月罗公路2499号(近罗太路),上海市,上海市,宝山区,121.3419926,31.4093851
青春1977,体育休闲服务,娱乐场所,酒吧,罗店镇罗芬路1296号,上海市,上海市,宝山区,121.3424977,31.40699385
咖友网咖,体育休闲服务,娱乐场所,网吧,罗店镇罗芬路1312号,上海市,上海市,宝山区,121.3420406,31.40746753
龙嬉会KTV,体育休闲服务,娱乐场所,娱乐场所,罗店镇罗溪路22号(近都是客对面),上海市,上海市,宝山区,121.3445181,31.4114261
Helens Bar,体育休闲服务,体育休闲服务场所,体育休闲服务场所,罗店镇罗芬路1296号,上海市,上海市,宝山区,121.3428001,31.40700731
东方网点动漫(罗升路),体育休闲服务,娱乐场所,网吧,罗升路300号,上海市,上海市,宝山区,121.337022,31.41275724
上海宝罗护理院,体育休闲服务,度假疗养场所,疗养院,张桥路13号,上海市,上海市,宝山区,121.3427269,31.41119131
海沃游艺城,体育休闲服务,娱乐场所,游戏厅,月罗公路2499号3楼,上海市,上海市,宝山区,121.3419926,31.4093851
胜湖网咖,体育休闲服务,娱乐场所,网吧,罗店镇罗芬路1236号,上海市,上海市,宝山区,121.34383,31.40581881
COUNTRY COLF CLUB,体育休闲服务,体育休闲服务场所,体育休闲服务场所,罗芬路1280号附近,上海市,上海市,宝山区,121.3427672,31.4065085
A trillion Fitness,体育休闲服务,体育休闲服务场所,体育休闲服务场所,罗芬路1280号附近,上海市,上海市,宝山区,121.3427672,31.4065085
锐米机器人乐高搭建俱乐部(美兰湖店),体育休闲服务,休闲场所,游乐场,罗芬路1252号(联华超市北200米),上海市,上海市,宝山区,121.3439627,31.40591155
GOLF CLUB,体育休闲服务,体育休闲服务场所,体育休闲服务场所,罗芬路1268号附近,上海市,上海市,宝山区,121.3434049,31.4064204
罗商星辰量贩KTV(塘西街店),体育休闲服务,娱乐场所,KTV,塘西街15号,上海市,上海市,宝山区,121.3391263,31.4137811
罗店地区老干部活动室,体育休闲服务,休闲场所,休闲场所,罗店镇罗升路257号,上海市,上海市,宝山区,121.3376645,31.41326892
一兆韦德健身会所(罗店店),体育休闲服务,运动场馆,健身中心,罗芬路与月罗公路交叉口远洋7号门面房,上海市,上海市,宝山区,121.3441663,31.40583322
一兆韦德(美兰湖店),体育休闲服务,运动场馆,健身中心,罗芬路1222号,上海市,上海市,宝山区,121.3446763,31.40540244
淘人派对别墅轰趴馆(华府馆),体育休闲服务,体育休闲服务场所,体育休闲服务场所,美丹路18弄17号102华府美墅内,上海市,上海市,宝山区,121.3505364,31.40699011
CoCo别墅轰趴馆(美丹路店),体育休闲服务,体育休闲服务场所,体育休闲服务场所,美丹路18弄112号102室,上海市,上海市,宝山区,121.3487019,31.40827679
E-House轰趴馆(美兰湖一店),体育休闲服务,体育休闲服务场所,体育休闲服务场所,美丹路18弄美兰湖花园88号,上海市,上海市,宝山区,121.3474892,31.40925757
平衡瑜伽(美兰湖罗迎店),体育休闲服务,体育休闲服务场所,体育休闲服务场所,罗迎路558弄顺驰美兰湖73号楼402室,上海市,上海市,宝山区,121.3515094,31.40892001
进口洋洋儿童乐园,体育休闲服务,休闲场所,游乐场,罗店镇月罗公路2380号大润发,上海市,上海市,宝山区,121.3464551,31.41139176
Bee Home轰趴馆,体育休闲服务,体育休闲服务场所,体育休闲服务场所,美丹路18弄12号101室,上海市,上海市,宝山区,121.350795,31.40678874
贝贝快乐童年游乐园,体育休闲服务,休闲场所,游乐场,罗芬路989弄18号a区117号美兰湖国际会议中心斜对面,上海市,上海市,宝山区,121.3492612,31.4044539
HomeFIT健身订制(美兰湖总店),体育休闲服务,运动场馆,健身中心,罗迎路505弄兰湖天境38号(7号线美兰湖站、美丹路、罗店镇),上海市,上海市,宝山区,121.3515985,31.40555278
咪哒,体育休闲服务,休闲场所,游乐场,罗芬路1088号世纪联华F3,上海市,上海市,宝山区,121.3461224,31.40422426
电玩区,体育休闲服务,娱乐场所,娱乐场所,罗芬路1088号世纪联华F1,上海市,上海市,宝山区,121.3462342,31.40445801
U加,体育休闲服务,体育休闲服务场所,体育休闲服务场所,美丹路188弄1-91号,上海市,上海市,宝山区,121.3475465,31.40452975
网鱼网咖(美兰湖店)(暂停营业),体育休闲服务,娱乐场所,网吧,美兰湖罗芬路1088号4层405(世纪联华4F),上海市,上海市,宝山区,121.346333,31.40469377
有米斗别墅轰趴馆,体育休闲服务,体育休闲服务场所,体育休闲服务场所,抚远路1211弄,上海市,上海市,宝山区,121.3586426,31.40811832
美兰湖小学-羽毛球馆,体育休闲服务,运动场馆,羽毛球场,美诺路48号,上海市,上海市,宝山区,121.3569535,31.40783187
卡纳山庄(美兰湖店),体育休闲服务,休闲场所,休闲场所,美丰路88弄70号西侧,上海市,上海市,宝山区,121.3551404,31.41190151
wine bar,体育休闲服务,娱乐场所,酒吧,美兰湖路9-1临上海美兰湖皇冠假日酒店,上海市,上海市,宝山区,121.3644595,31.40549413
上海美兰湖皇冠假日酒店-游泳池,体育休闲服务,运动场馆,游泳馆,美兰湖路9-1临上海美兰湖皇冠假日酒店,上海市,上海市,宝山区,121.3644595,31.40549413
上海逍遥派独栋别墅轰趴馆,体育休闲服务,体育休闲服务场所,体育休闲服务场所,香岛原墅美丰路88弄70号,上海市,上海市,宝山区,121.3550176,31.41204566
上海美兰湖皇冠假日酒店-大堂吧,体育休闲服务,娱乐场所,酒吧,美兰湖路9-1上海美兰湖皇冠假日酒店,上海市,上海市,宝山区,121.3648789,31.40529465
美兰湖皇冠假日酒店-健身中心,体育休闲服务,运动场馆,健身中心,罗店镇美兰湖路9号内上海美兰湖皇冠假日酒店,上海市,上海市,宝山区,121.3644595,31.40549413
上海美兰湖皇冠假日酒店-桌球室,体育休闲服务,运动场馆,台球厅,美兰湖路9-1上海美兰湖皇冠假日酒店,上海市,上海市,宝山区,121.3648789,31.40529465
homelike友家别墅派对(红木宫廷店),体育休闲服务,娱乐场所,娱乐场所,美丰路88弄香岛原墅73号,上海市,上海市,宝山区,121.3549567,31.41245064
上海美兰湖高尔夫俱乐部,体育休闲服务,高尔夫相关,高尔夫球场,沪太路6655号,上海市,上海市,宝山区,121.3663019,31.40498698
上海美兰湖皇冠假日酒店-大堂吧,体育休闲服务,娱乐场所,酒吧,美兰湖路9-1上海美兰湖皇冠假日酒店,上海市,上海市,宝山区,121.3648789,31.40529465
长春渔庄钓场,体育休闲服务,休闲场所,垂钓园,园和路997号,上海市,上海市,宝山区,121.3790566,31.40853324
品客休闲屋,体育休闲服务,休闲场所,休闲场所|餐饮服务,德都路180号(近安家路),上海市,上海市,宝山区,121.4207594,31.41102805
老年活动中心,体育休闲服务,休闲场所,休闲场所,德都路111-1,上海市,上海市,宝山区,121.4230608,31.40655474
孩皮乐室内儿童乐园,体育休闲服务,休闲场所,游乐场,月浦德都路18号世纪联华1层,上海市,上海市,宝山区,121.4236648,31.40485889
田兴棋牌,体育休闲服务,娱乐场所,棋牌室,月浦镇德都路76号,上海市,上海市,宝山区,121.4217259,31.40757399
乐城KTV(德都路店),体育休闲服务,娱乐场所,KTV,德都路18号金悦・生活广场F3层,上海市,上海市,宝山区,121.4233022,31.40497044
开心动手(金悦・生活广场),体育休闲服务,休闲场所,游乐场|生活服务,德都路18号金悦・生活广场F1层,上海市,上海市,宝山区,121.4234755,31.40451776
盘龙湾茶室,体育休闲服务,娱乐场所,棋牌室,月浦镇庆安路8号,上海市,上海市,宝山区,121.4243714,31.40840975
月浦实验学校羽毛球馆,体育休闲服务,运动场馆,羽毛球场,月浦镇庆安路25号(万升家园对面)(万N家园对面),上海市,上海市,宝山区,121.4247029,31.40812623
顺海休闲茶室,体育休闲服务,娱乐场所,棋牌室,庆安路10号,上海市,上海市,宝山区,121.4243634,31.40843974
天羽羽毛球俱乐部,体育休闲服务,运动场馆,羽毛球场,月浦镇庆安路25号(万N家园对面),上海市,上海市,宝山区,121.4245677,31.40856995
唱番天量贩KTV(金悦・生活广场),体育休闲服务,娱乐场所,KTV,德都路18号金悦・生活广场F2层,上海市,上海市,宝山区,121.4238781,31.40434428
棋牌室店,体育休闲服务,娱乐场所,棋牌室,绥化路288号金悦・生活广场F1,上海市,上海市,宝山区,121.423114,31.40510319
狼魂网络,体育休闲服务,娱乐场所,网吧,月浦镇四元路168号,上海市,上海市,宝山区,121.4229941,31.41372075
尚体武苑(金悦・生活广场),体育休闲服务,运动场馆,跆拳道场馆,月浦镇德都路18号金悦生活广场2层,上海市,上海市,宝山区,121.4232892,31.40487445
电玩区(金悦・生活广场),体育休闲服务,娱乐场所,游戏厅,德都路18号金悦・生活广场F1层,上海市,上海市,宝山区,121.4234645,31.40455574
经武跆拳道馆,体育休闲服务,运动场馆,跆拳道场馆,月浦德都路18号金悦广场2楼,上海市,上海市,宝山区,121.4235837,31.40438792
飞鸿跆拳道馆,体育休闲服务,运动场馆,跆拳道场馆,月浦镇德都路18号金悦广场,上海市,上海市,宝山区,121.4237969,31.40511997
一朝一昔CLUB,体育休闲服务,体育休闲服务场所,体育休闲服务场所,月浦镇绥化路144号,上海市,上海市,宝山区,121.4290227,31.40777492
阳光动漫,体育休闲服务,娱乐场所,游戏厅,绥化路47号附近,上海市,上海市,宝山区,121.4315419,31.4090542
豫丰园农家乐,体育休闲服务,休闲场所,休闲场所,江杨北路1676号,上海市,上海市,宝山区,121.4347602,31.406189
铭铭舞厅,体育休闲服务,娱乐场所,迪厅,绥化路52弄-62号2层,上海市,上海市,宝山区,121.4317646,31.40632128
月浦乐业养老院,体育休闲服务,度假疗养场所,疗养院,月浦春雷路332弄,上海市,上海市,宝山区,121.4279516,31.41189435
水晶皇宫俱乐部,体育休闲服务,体育休闲服务场所,体育休闲服务场所,龙华西路,上海市,上海市,宝山区,121.4394477,31.40857341
台球动漫,体育休闲服务,娱乐场所,娱乐场所,富锦路1590号附近,上海市,上海市,宝山区,121.4367623,31.40488969
风华中学-体育中心,体育休闲服务,运动场馆,综合体育馆,湄浦路280号(近克东路),上海市,上海市,宝山区,121.4565612,31.40705104
上海市民政老年医院(漠河路),体育休闲服务,度假疗养场所,疗养院,漠河路655号,上海市,上海市,宝山区,121.4633963,31.40964638
弈公馆棋牌会所,体育休闲服务,娱乐场所,娱乐场所,盘古路727号2号楼3楼,上海市,上海市,宝山区,121.464464,31.40530333
田家班健身工作室(盘古旗舰店),体育休闲服务,体育休闲服务场所,体育休闲服务场所,盘古路727号吴淞科技园3期2号楼5楼(同济路盘古悦天地对面),上海市,上海市,宝山区,121.4646717,31.40530687
宝钢体育馆,体育休闲服务,运动场馆,综合体育馆,漠河路203号,上海市,上海市,宝山区,121.4714309,31.41189029
宝钢体育中心高尔夫球场,体育休闲服务,高尔夫相关,高尔夫练习场,漠河路203宝钢体育中心,上海市,上海市,宝山区,121.4706836,31.41054459
G-Soccer足球竞技场,体育休闲服务,运动场馆,足球场,盘古路701号,上海市,上海市,宝山区,121.4656757,31.40738094
宝钢体育中心-游泳馆,体育休闲服务,运动场馆,游泳馆,漠河路203号(近樟岭路),上海市,上海市,宝山区,121.4687702,31.41131516
宝钢体育中心-篮球场,体育休闲服务,运动场馆,篮球场馆,漠河路203号,上海市,上海市,宝山区,121.4701246,31.4114988
宝羽汇运动馆,体育休闲服务,运动场馆,运动场所,盘古路701号,上海市,上海市,宝山区,121.4660309,31.40602825
宝钢体育中心-网球馆,体育休闲服务,运动场馆,网球场,漠河路203号,上海市,上海市,宝山区,121.4695026,31.41171704
宝钢体育中心-网球场,体育休闲服务,运动场馆,网球场,漠河路203号,上海市,上海市,宝山区,121.4717169,31.41137921
幸福恋人1号,体育休闲服务,娱乐场所,KTV,同济路999号(近友谊路),上海市,上海市,宝山区,121.4725391,31.4054131
好动网球(好动乐威网球中心),体育休闲服务,体育休闲服务场所,体育休闲服务场所,漠河路203号,上海市,上海市,宝山区,121.4715534,31.41103385
聚友棋牌(盘古路),体育休闲服务,娱乐场所,棋牌室,盘古路650号,上海市,上海市,宝山区,121.4692462,31.4066637
漫步优活YogaHouse,体育休闲服务,运动场馆,健身中心,同济路999号创邑幸福湾7号楼113室,上海市,上海市,宝山区,121.4725983,31.40561421
长军气修大院棋牌室,体育休闲服务,娱乐场所,棋牌室,友谊路街道盘古路612,上海市,上海市,宝山区,121.4706778,31.40706451
斯锐凯博健身(幸福湾店),体育休闲服务,运动场馆,健身中心,同济路999号9号楼,上海市,上海市,宝山区,121.4735966,31.40621184
奥森健身(同济店),体育休闲服务,运动场馆,健身中心,同济路999号-9号楼,上海市,上海市,宝山区,121.4738625,31.40636954
乐高活动中心,体育休闲服务,娱乐场所,娱乐场所,同济路999号幸福湾2号楼111室(近友谊路),上海市,上海市,宝山区,121.4726194,31.40520438
宝山勤丰家乐养老院,体育休闲服务,度假疗养场所,疗养院,盘古路715弄9号,上海市,上海市,宝山区,121.4653387,31.40621237
宝钢新世纪学校-羽毛球馆,体育休闲服务,运动场馆,羽毛球场,盘古路528号(樟岭路),上海市,上海市,宝山区,121.4739286,31.4083022
WAKE CLUB,体育休闲服务,体育休闲服务场所,体育休闲服务场所,友谊路创邑幸福湾15幢212号,上海市,上海市,宝山区,121.47429,31.40562994
和公馆,体育休闲服务,娱乐场所,娱乐场所,同济路999号11号、14号楼(幸福湾园区内),上海市,上海市,宝山区,121.4741685,31.40641139
德州扑克俱乐部,体育休闲服务,体育休闲服务场所,体育休闲服务场所,同济路999号创邑幸福湾1层,上海市,上海市,宝山区,121.474295,31.40551599
和公馆棋牌会所(香缇公馆东南),体育休闲服务,娱乐场所,棋牌室,同济路999弄11号楼(幸福湾),上海市,上海市,宝山区,121.4742859,31.40642971
Na Na酒吧,体育休闲服务,娱乐场所,酒吧,盘古路465号na,上海市,上海市,宝山区,121.4756744,31.40922888
小溪棋牌,体育休闲服务,娱乐场所,棋牌室,友谊路197弄69号(近方正路63号),上海市,上海市,宝山区,121.4784841,31.40856009
奔马滚轴溜冰场,体育休闲服务,运动场馆,溜冰场,友谊支路70号(北翼商业街东门),上海市,上海市,宝山区,121.4842224,31.40504676
宝山区文化馆影剧院,体育休闲服务,影剧院,电影院,牡丹江路1760号宝山区文化馆1-2层,上海市,上海市,宝山区,121.4765696,31.40749289
真迪KTV(宝山店),体育休闲服务,娱乐场所,KTV,友谊支路181-2号,上海市,上海市,宝山区,121.4837425,31.40838044
柯森网络(团结店),体育休闲服务,娱乐场所,网吧,团结路58号,上海市,上海市,宝山区,121.4797293,31.40956541
宝影KTV,体育休闲服务,娱乐场所,KTV,友谊支路181号3层,上海市,上海市,宝山区,121.4837615,31.40831452
网鱼网咖(友谊路店),体育休闲服务,娱乐场所,网吧,友谊路45-5号2层,上海市,上海市,宝山区,121.4840916,31.40911727
开心哈乐,体育休闲服务,休闲场所,游乐场,团结路6号居民服务中心2层220室,上海市,上海市,宝山区,121.4813703,31.40671595
台球网咖,体育休闲服务,娱乐场所,网吧,牡丹江路1599号北翼商业街F1号,上海市,上海市,宝山区,121.483078,31.40963915
聚友棋牌,体育休闲服务,娱乐场所,棋牌室,团结路西门街241号,上海市,上海市,宝山区,121.4793099,31.40921929
乐淘淘游艺城,体育休闲服务,娱乐场所,游戏厅,友谊路199号新宝山大厦3层,上海市,上海市,宝山区,121.4786678,31.40729796
龙媚酒吧,体育休闲服务,娱乐场所,酒吧,友谊路199号,上海市,上海市,宝山区,121.4785274,31.40698164
颐吉养老,体育休闲服务,体育休闲服务场所,体育休闲服务场所,宝山城市工业园区友谊路199号新宝山大厦6层E座,上海市,上海市,宝山区,121.4786578,31.40723994
鹏涵生活俱乐部,体育休闲服务,体育休闲服务场所,体育休闲服务场所,友谊支路与西门街交叉口西50米,上海市,上海市,宝山区,121.4820764,31.41086289
龙娟BAR,体育休闲服务,体育休闲服务场所,体育休闲服务场所,友谊路201号附近,上海市,上海市,宝山区,121.4782664,31.40712185
盛平佳歌,体育休闲服务,娱乐场所,KTV,友谊路与君子兰路交叉口南50米,上海市,上海市,宝山区,121.4845985,31.40872687
新生命健身俱乐部,体育休闲服务,运动场馆,健身中心,牡丹江路1799号4楼(近盘古路),上海市,上海市,宝山区,121.4767912,31.40909509
舒relax bar,体育休闲服务,娱乐场所,酒吧,牡丹江路1813号宝钢集团宝山宾馆1楼,上海市,上海市,宝山区,121.4761749,31.41142571
ING网咖(宝山店),体育休闲服务,娱乐场所,网吧,牡丹江路1728号3楼,上海市,上海市,宝山区,121.477524,31.40618597
宝钢二村业主活动室,体育休闲服务,休闲场所,休闲场所,友谊路与方正路交叉口南150米,上海市,上海市,宝山区,121.4788847,31.40583198
盛平会所,体育休闲服务,娱乐场所,KTV,友谊路与君子兰路交叉口南50米,上海市,上海市,宝山区,121.4846526,31.40871703
星诺网吧台球棋牌,体育休闲服务,体育休闲服务场所,体育休闲服务场所,友谊支路213号宝楠宾馆,上海市,上海市,宝山区,121.483071,31.40965313
宝城一村健身点,体育休闲服务,运动场馆,运动场所,县佑街与县前街交叉口西150米,上海市,上海市,宝山区,121.4839992,31.41038166
LNG网咖,体育休闲服务,娱乐场所,网吧,牡丹江路友谊路交叉口奥康三楼,上海市,上海市,宝山区,121.4770353,31.4060886
佳华会所KTV,体育休闲服务,娱乐场所,KTV,密山路22号,上海市,上海市,宝山区,121.4842093,31.40589049
美丽神话,体育休闲服务,娱乐场所,KTV,友谊路,上海市,上海市,宝山区,121.4788224,31.40703148
NaNa Bar,体育休闲服务,体育休闲服务场所,体育休闲服务场所,盘古路465号(牡丹江路与盘古路交口西北角),上海市,上海市,宝山区,121.475564,31.40920257
游艺世界,体育休闲服务,娱乐场所,娱乐场所,友谊路与方正路交叉口西北50米,上海市,上海市,宝山区,121.4789287,31.40721173
开心棋牌室,体育休闲服务,娱乐场所,棋牌室,友谊路街道方正路55号,上海市,上海市,宝山区,121.4773281,31.40860476
山和壶棋牌,体育休闲服务,娱乐场所,棋牌室,团结路6号3楼(团结路菜场3楼),上海市,上海市,宝山区,121.4813562,31.40630302
乐和1813茶室棋牌,体育休闲服务,体育休闲服务场所,体育休闲服务场所,漠河路92号附近,上海市,上海市,宝山区,121.4763213,31.41209095
鹏翔跆拳道馆(宝山总馆),体育休闲服务,运动场馆,跆拳道场馆,牡丹江路1797临4层,上海市,上海市,宝山区,121.4767952,31.4090961
千山棋牌,体育休闲服务,娱乐场所,棋牌室,友谊路与君子兰路交叉口西50米,上海市,上海市,宝山区,121.4841428,31.4091884
全浩国际健身,体育休闲服务,运动场馆,健身中心,牡丹江路1813号宝钢集团宝山宾馆北楼一楼,上海市,上海市,宝山区,121.4761749,31.41142571
鹏翔跆拳道馆(牡丹江路店),体育休闲服务,运动场馆,跆拳道场馆,牡丹江路1797号4层,上海市,上海市,宝山区,121.4766919,31.40895985
宝钢老干部工作部(漠河路),体育休闲服务,休闲场所,休闲场所,漠河路101号,上海市,上海市,宝山区,121.4764006,31.41274701
金碧凰宫KTV,体育休闲服务,娱乐场所,KTV,友谊路42弄8号(近友谊支路),上海市,上海市,宝山区,121.4845443,31.40873071
动漫城,体育休闲服务,娱乐场所,娱乐场所,友谊路新宝山大夏,上海市,上海市,宝山区,121.4837515,31.40837447
暗战真人CS,体育休闲服务,娱乐场所,娱乐场所,牡丹江路北翼商业街中心楼一楼(商业街中心位置),上海市,上海市,宝山区,121.4826359,31.40452724
冬兴格斗空手道场,体育休闲服务,运动场馆,运动场所,友谊支路70号北翼商业街友谊楼地下室,上海市,上海市,宝山区,121.4844683,31.40492152
暗战轰趴,体育休闲服务,体育休闲服务场所,体育休闲服务场所,团结路与密山路交叉口东南150米,上海市,上海市,宝山区,121.4826319,31.40451324
上海憬怡台球俱乐部,体育休闲服务,运动场馆,台球厅,友谊支路70号,上海市,上海市,宝山区,121.4838562,31.40492971
六福棋牌室,体育休闲服务,娱乐场所,棋牌室,友谊路街道盘古路243号,上海市,上海市,宝山区,121.4835194,31.41197483
乐和茶室棋牌,体育休闲服务,娱乐场所,棋牌室,牡丹江路1813号甲座(大门),上海市,上海市,宝山区,121.4764668,31.41214035
红露圆宁江大酒店-棋牌室,体育休闲服务,娱乐场所,棋牌室,友谊路40-9临红露圆宁江大酒店4层,上海市,上海市,宝山区,121.4847349,31.40906118
憬怡动漫电玩城,体育休闲服务,娱乐场所,游戏厅,友谊支路78号,上海市,上海市,宝山区,121.4832801,31.40476307
姚子青营抗日牺牲处,体育休闲服务,休闲场所,游乐场,友谊路1号,上海市,上海市,宝山区,121.4886085,31.41099315
宝山区康乐敬老院,体育休闲服务,度假疗养场所,疗养院,宝林八村128号,上海市,上海市,宝山区,121.4894587,31.40924415
阿竹棋牌,体育休闲服务,娱乐场所,棋牌室,密山东路314-316,上海市,上海市,宝山区,121.488645,31.40728525
戏曲广场,体育休闲服务,影剧院,剧场,密山东路与密山路交叉口南50米,上海市,上海市,宝山区,121.4870764,31.40660078
鸿运棋牌(盘古路),体育休闲服务,娱乐场所,棋牌室,盘古路41号,上海市,上海市,宝山区,121.4886856,31.41384562
行知中学-篮球场,体育休闲服务,运动场馆,篮球场馆,子青路99号(近宝杨码头),上海市,上海市,宝山区,121.4924245,31.40751548
东林棋牌室,体育休闲服务,娱乐场所,棋牌室,东林路米山路266号,上海市,上海市,宝山区,121.4893926,31.40749842
动漫城,体育休闲服务,娱乐场所,娱乐场所,东林路2楼,上海市,上海市,宝山区,121.4879834,31.4102065
倩倩棋牌,体育休闲服务,娱乐场所,棋牌室,东林路482号,上海市,上海市,宝山区,121.4864487,31.41254732
宝山区友谊路街道宝林七村居委会老年活动室,体育休闲服务,休闲场所,休闲场所,子青路与密山东路交叉口西南150米,上海市,上海市,宝山区,121.490895,31.40761088
宝山区友谊路街道敬老院,体育休闲服务,度假疗养场所,疗养院,宝林四村12号,上海市,上海市,宝山区,121.4880551,31.40472619
卿尚楼,体育休闲服务,娱乐场所,棋牌室|餐饮服务,盘古路33号2楼,上海市,上海市,宝山区,121.4888481,31.41390509
荣君酒吧,体育休闲服务,娱乐场所,酒吧,东林路251号,上海市,上海市,宝山区,121.4892953,31.40727419
船码头,体育休闲服务,娱乐场所,娱乐场所,淞沪抗战纪念公园内,上海市,上海市,宝山区,121.4898299,31.41174359
临江阁,体育休闲服务,娱乐场所,娱乐场所,盘古路11号116终点站对面,上海市,上海市,宝山区,121.4895135,31.41414001
宝山区老干部活动中心,体育休闲服务,休闲场所,休闲场所,友谊支路77号,上海市,上海市,宝山区,121.4863098,31.40536184
东林舞厅(东林路),体育休闲服务,娱乐场所,迪厅,东林路米山路266号,上海市,上海市,宝山区,121.4901805,31.40673198
临江公园居委会老年活动室,体育休闲服务,休闲场所,休闲场所,盘古路65-1号,上海市,上海市,宝山区,121.4881567,31.41367509
皇家加勒比海洋水手号游轮,体育休闲服务,体育休闲服务场所,体育休闲服务场所,吴淞口国际邮轮码头(宝山政府),上海市,上海市,宝山区,121.4989974,31.40532876
行知中学综合游泳馆,体育休闲服务,运动场馆,游泳馆,宝杨路55号(宝杨码头汽车站),上海市,上海市,宝山区,121.4966771,31.40485694
上海行知青少年体育俱乐部,体育休闲服务,运动场馆,运动场所,宝杨路55号,上海市,上海市,宝山区,121.4969521,31.40521567
呈康篮球俱乐部(行知中学店),体育休闲服务,运动场馆,篮球场馆,宝杨路55号行知中学门卫处,上海市,上海市,宝山区,121.4967835,31.40486426
聚友花园鱼塘,体育休闲服务,体育休闲服务场所,体育休闲服务场所,潘石村3号旁(潘石南河支路),上海市,上海市,崇明区,121.6311891,31.41428725
康家大院,体育休闲服务,休闲场所,休闲场所,光荣村219号-1号,上海市,上海市,崇明区,121.6664332,31.41212551
上海净达草莓水果采摘园,体育休闲服务,休闲场所,采摘园,长兴岛凤西路1936号向里,上海市,上海市,崇明区,121.6802397,31.41095259
君农生态园,体育休闲服务,休闲场所,休闲场所,凤蓉路,上海市,上海市,崇明区,121.6904574,31.41061137
科化足球长兴岛草坪基地(建设中),体育休闲服务,体育休闲服务场所,体育休闲服务场所,凤蓉路与光园六路交汇处,上海市,上海市,崇明区,121.6915797,31.40806914
长岛庄园,体育休闲服务,休闲场所,休闲场所,凤凰公路与潘圆公路交汇处北500米路东,上海市,上海市,崇明区,121.6925761,31.40700074
长兴卉园,体育休闲服务,休闲场所,休闲场所,凤凰公路1599号,上海市,上海市,崇明区,121.6977597,31.40911174
长岛庄园户外拓展基地,体育休闲服务,休闲场所,休闲场所,凤凰公路1589号,上海市,上海市,崇明区,121.6956612,31.40691768
长兴岛郊野公园百果天地,体育休闲服务,休闲场所,采摘园,长兴岛百果路,上海市,上海市,崇明区,121.7046349,31.40862561
嘉定工业区黎明社区老年活动中心,体育休闲服务,休闲场所,休闲场所,黎明村558,上海市,上海市,嘉定区,121.1760885,31.39943809
天天棋牌(泾河社区卫生服务站西南),体育休闲服务,娱乐场所,棋牌室,,上海市,上海市,嘉定区,121.2215789,31.39824682
嘉定工业区泾河村社区老年活动中心,体育休闲服务,休闲场所,休闲场所,娄红路西50米,上海市,上海市,嘉定区,121.2246501,31.40139142
社区活动室,体育休闲服务,体育休闲服务场所,体育休闲服务场所,北大街288号,上海市,上海市,嘉定区,121.2416336,31.394492
DNA健身(平城路店),体育休闲服务,体育休闲服务场所,体育休闲服务场所,菊园新区管委会平城路1033号二楼,上海市,上海市,嘉定区,121.237641,31.39555086
我的音乐,体育休闲服务,娱乐场所,酒吧,胜竹路2050号,上海市,上海市,嘉定区,121.2445918,31.40367265
美加乐儿童游泳馆,体育休闲服务,运动场馆,游泳馆,菊园新区管委会胜竹路2188号华润万家1楼,上海市,上海市,嘉定区,121.2444958,31.40375663
华润万家家园网吧,体育休闲服务,娱乐场所,网吧,菊园新区管委会胜竹路2188号,上海市,上海市,嘉定区,121.2436828,31.40370361
童萌慧儿童乐园,体育休闲服务,休闲场所,游乐场,菊园新区管委会胜竹路2188号华润万家二楼电梯出口,上海市,上海市,嘉定区,121.2443788,31.40338273
哈萌baby亲子游乐馆,体育休闲服务,运动场馆,运动场所,"胜竹路2188号,华润万家购物广场1楼",上海市,上海市,嘉定区,121.2449188,31.40355169
Tommy Bar,体育休闲服务,娱乐场所,酒吧,嘉行公路225弄17号,上海市,上海市,嘉定区,121.249741,31.40077906
香港新坐标主题KTV(嘉定店),体育休闲服务,娱乐场所,KTV,嘉行公路228号(近盘龙河浴场),上海市,上海市,嘉定区,121.2505199,31.39981119
TOMY BAR,体育休闲服务,体育休闲服务场所,体育休闲服务场所,嘉行公路221号附近,上海市,上海市,嘉定区,121.2496921,31.4003072
姐妹棋牌(嘉行公路),体育休闲服务,娱乐场所,棋牌室,菊园新区管委会嘉行公路225弄6号,上海市,上海市,嘉定区,121.2497311,31.40013025
君飞棋牌,体育休闲服务,娱乐场所,棋牌室,嘉行公路225弄7号,上海市,上海市,嘉定区,121.2497331,31.40016924
蒙多电竞,体育休闲服务,娱乐场所,网吧,永靖路340号,上海市,上海市,嘉定区,121.2536554,31.40168984
玫瑰棋牌室(勇盛公寓北),体育休闲服务,娱乐场所,棋牌室,嘉行公路225弄5号,上海市,上海市,嘉定区,121.2497331,31.40008626
北水湾公共运动场,体育休闲服务,运动场馆,运动场所,环城路579号,上海市,上海市,嘉定区,121.24786,31.39549082
麻雀要革命,体育休闲服务,娱乐场所,棋牌室,棋盘路1168号2楼(菊园农工商对面),上海市,上海市,嘉定区,121.2475108,31.39894387
小吴棋牌,体育休闲服务,娱乐场所,棋牌室,棋盘路1145号,上海市,上海市,嘉定区,121.2481867,31.39841795
嘉枫社区(嘉华居)活动中心,体育休闲服务,休闲场所,休闲场所,平城路386号附近,上海市,上海市,嘉定区,121.2513664,31.40156451
小白棋牌室,体育休闲服务,娱乐场所,棋牌室,平城路712号2层,上海市,上海市,嘉定区,121.2463758,31.4009154
佰号娱乐会馆,体育休闲服务,娱乐场所,夜总会,菊园新区管委会环城路100号,上海市,上海市,嘉定区,121.2534691,31.39489682
金菊苑KTV,体育休闲服务,娱乐场所,KTV,嘉定环城路100号,上海市,上海市,嘉定区,121.2534691,31.3949528
一兆韦德健身会所(胜竹路店),体育休闲服务,运动场馆,健身中心,胜竹路2050号2层,上海市,上海市,嘉定区,121.2456027,31.40377763
众仁乐园,体育休闲服务,度假疗养场所,疗养院,菊园新区管委会平城路160号,上海市,上海市,嘉定区,121.2555003,31.40350068
踢馆专业足球体验馆,体育休闲服务,娱乐场所,酒吧,棋盘路745号,上海市,上海市,嘉定区,121.25657,31.39943937
东方健身俱乐部,体育休闲服务,休闲场所,游乐场,棋盘路741号附近,上海市,上海市,嘉定区,121.2567479,31.39938931
掌门酒吧Master club,体育休闲服务,体育休闲服务场所,体育休闲服务场所,棋盘路733号附近,上海市,上海市,嘉定区,121.2568388,31.39976317
菊园社区健身房,体育休闲服务,运动场馆,户外健身场所,棋盘路797号,上海市,上海市,嘉定区,121.2558355,31.39934171
城发足球场,体育休闲服务,运动场馆,足球场,永新路318号,上海市,上海市,嘉定区,121.2603532,31.4018938
新成棋牌室,体育休闲服务,娱乐场所,棋牌室,棋盘路785号附近,上海市,上海市,嘉定区,121.2556036,31.39930381
网络科技,体育休闲服务,体育休闲服务场所,体育休闲服务场所,嘉罗公路1661弄,上海市,上海市,嘉定区,121.2698413,31.40073511
品实旅馆娱乐,体育休闲服务,娱乐场所,娱乐场所,嘉罗公路1533号附近,上海市,上海市,嘉定区,121.267365,31.40050131
马陆万嘉葡萄园,体育休闲服务,休闲场所,采摘园,塔新路立业路交汇处,上海市,上海市,嘉定区,121.2842902,31.39778756
马陆葡萄溢蜜生态园,体育休闲服务,休闲场所,采摘园,立业路与塔新路交汇处往西第2个小路口往北80米,上海市,上海市,嘉定区,121.2830891,31.39779116
马陆果硕葡萄园,体育休闲服务,休闲场所,采摘园,塔新路,上海市,上海市,嘉定区,121.2835734,31.39669883
马陆李帅自选自摘葡萄园,体育休闲服务,休闲场所,采摘园,嘉定・立新路与塔新路交叉口东北100米,上海市,上海市,嘉定区,121.280729,31.39567578
马陆望葡苑月培葡萄农庄,体育休闲服务,休闲场所,休闲场所,,上海市,上海市,嘉定区,121.2867979,31.3984709
马陆鑫吉葡萄,体育休闲服务,体育休闲服务场所,体育休闲服务场所,塔新路立业路交叉口向北260米向东100米,上海市,上海市,嘉定区,121.2864553,31.40005094
上海马陆知青葡萄园,体育休闲服务,休闲场所,休闲场所,塔新路浏翔公路路口,上海市,上海市,嘉定区,121.2867428,31.40020749
上海马陆紫琳葡萄园,体育休闲服务,休闲场所,休闲场所,马陆镇浏翔公路塔新路往北600米,上海市,上海市,嘉定区,121.2909052,31.40216084
上海马陆葡宝生态葡萄园,体育休闲服务,体育休闲服务场所,体育休闲服务场所,塔新路与立业路交叉口北50米,上海市,上海市,嘉定区,121.2862,31.39733106
上海市马陆锦绣葡萄园,体育休闲服务,休闲场所,采摘园|公司企业,马陆镇浏翔公路塔新路往北600米路南,上海市,上海市,嘉定区,121.2911458,31.40195653
走心苑,体育休闲服务,体育休闲服务场所,体育休闲服务场所,塔新东路侧近刘翔东路,上海市,上海市,嘉定区,121.2948677,31.40158381
马陆特种葡萄园,体育休闲服务,休闲场所,采摘园,马陆镇大裕村刘石路塔新路向西200米,上海市,上海市,嘉定区,121.2995944,31.40062627
土老帽农家乐,体育休闲服务,休闲场所,休闲场所,,上海市,上海市,嘉定区,121.2977959,31.40206289
华叶葡萄生态休闲鱼庄,体育休闲服务,休闲场所,休闲场所,长浜路北200米,上海市,上海市,嘉定区,121.2955485,31.39992318
马陆燕燕葡萄园,体育休闲服务,休闲场所,采摘园,塔新东路长浜路北300米,上海市,上海市,嘉定区,121.2980913,31.40248228
马陆金华葡萄园,体育休闲服务,休闲场所,采摘园|公司企业,刘石路与徐北路交叉口东北100米,上海市,上海市,嘉定区,121.3026827,31.40408998
马陆小龙葡萄园,体育休闲服务,休闲场所,采摘园,马陆镇大裕村,上海市,上海市,嘉定区,121.2956849,31.40406981
马陆申香葡萄园,体育休闲服务,休闲场所,采摘园,戬浜大裕村刘石路3005号(近徐北路口),上海市,上海市,嘉定区,121.302565,31.40262659
马陆永盛葡萄园,体育休闲服务,体育休闲服务场所,体育休闲服务场所,马陆镇徐南路与潘刘路交叉口西北侧,上海市,上海市,嘉定区,121.3067952,31.39936397
小麦公社葡萄园,体育休闲服务,休闲场所,采摘园,刘村路330号,上海市,上海市,嘉定区,121.3093588,31.39759479
上海马陆第三果园,体育休闲服务,休闲场所,采摘园,刘村路,上海市,上海市,嘉定区,121.3116965,31.39845121
马陆葡萄果园,体育休闲服务,休闲场所,采摘园,刘村路西150米,上海市,上海市,嘉定区,121.3080737,31.39641748
马陆浩芮葡萄园艺场,体育休闲服务,休闲场所,采摘园|公司企业,徐北路徐南路交汇处2911号,上海市,上海市,嘉定区,121.3060864,31.40392198
凤冠奶油草莓基地,体育休闲服务,休闲场所,采摘园|公司企业,联杨路4158号(近罗店镇),上海市,上海市,宝山区,121.3204823,31.40185161
凤冠草莓园,体育休闲服务,体育休闲服务场所,体育休闲服务场所,联合三路与联泥路交叉口南200米,上海市,上海市,宝山区,121.3170552,31.40162322
利刃军事拓展训练营,体育休闲服务,体育休闲服务场所,体育休闲服务场所,张墅一路北150米,上海市,上海市,宝山区,121.3233652,31.39623766
燕新俱乐部,体育休闲服务,体育休闲服务场所,体育休闲服务场所,罗店镇联杨路3888号东方假日田园,上海市,上海市,宝山区,121.3239179,31.39648753
利刃真人CS俱乐部(东方假日田园店),体育休闲服务,体育休闲服务场所,体育休闲服务场所,罗店镇联杨路3888号东方假日田园,上海市,上海市,宝山区,121.3246712,31.3964371
远景果林休闲垂钓中心,体育休闲服务,休闲场所,垂钓园,联杨路3号桥4003号,上海市,上海市,宝山区,121.3215938,31.40166553
西陆拓展真人CS野站营地(宝山店),体育休闲服务,休闲场所,露营地,联杨路3888号,上海市,上海市,宝山区,121.3233872,31.39635059
绿色森林主题乐园,体育休闲服务,体育休闲服务场所,体育休闲服务场所,罗店镇年喜路737号(台润美罗生活广场)二楼,上海市,上海市,宝山区,121.3296796,31.39922373
杰杰棋牌,体育休闲服务,娱乐场所,棋牌室,年吉路650弄8号8楼美罗家园润苑,上海市,上海市,宝山区,121.3304637,31.40058585
纬燕会所,体育休闲服务,休闲场所,休闲场所,罗芬路689弄22号,上海市,上海市,宝山区,121.3532558,31.40161922
天蝎座酒吧,体育休闲服务,娱乐场所,酒吧,罗芬路689弄80号1层,上海市,上海市,宝山区,121.353069,31.4024133
蓝话筒,体育休闲服务,娱乐场所,KTV,罗芬路789弄13号,上海市,上海市,宝山区,121.3513372,31.40339979
心悦微电影,体育休闲服务,体育休闲服务场所,体育休闲服务场所,美兰湖路555弄,上海市,上海市,宝山区,121.3523568,31.39809464
君逸会娱乐,体育休闲服务,娱乐场所,KTV,罗芬路61号附近,上海市,上海市,宝山区,121.3520609,31.40227194
美兰湖国际会议中心-游泳馆,体育休闲服务,运动场馆,游泳馆,罗芬路888号美兰湖国际会议中心,上海市,上海市,宝山区,121.349895,31.40308523
逍遥派轰趴别墅(上海美兰湖二店),体育休闲服务,娱乐场所,娱乐场所,美兰湖路333弄60号,上海市,上海市,宝山区,121.3544018,31.39984393
派沃健身,体育休闲服务,运动场馆,健身中心,罗芬路888号美兰湖国际会议中心1楼,上海市,上海市,宝山区,121.3508033,31.4028798
飓风网咖,体育休闲服务,娱乐场所,网吧,罗店镇美丹路222号2楼,上海市,上海市,宝山区,121.3472492,31.40413237
豪家棋牌娱乐,体育休闲服务,娱乐场所,棋牌室,罗芬路689弄10号2层,上海市,上海市,宝山区,121.3524503,31.40136657
极真空手道雷道场美兰湖分馆,体育休闲服务,体育休闲服务场所,体育休闲服务场所,小爱星舞蹈内美兰湖罗芬路789弄15号2楼B211室,上海市,上海市,宝山区,121.3511815,31.40340304
动漫电玩,体育休闲服务,娱乐场所,游戏厅,罗芬路689弄66号,上海市,上海市,宝山区,121.3526169,31.40217708
弋龙道馆,体育休闲服务,体育休闲服务场所,体育休闲服务场所,罗店镇罗芬路989弄,上海市,上海市,宝山区,121.3500147,31.40376185
深呼吸游泳培训联盟(宝山店),体育休闲服务,运动场馆,健身中心,罗店镇罗芬路789弄15号,上海市,上海市,宝山区,121.3512753,31.40342188
美兰湖网球馆,体育休闲服务,运动场馆,网球场,罗店镇美兰湖美兰湖大道366号诺贝尔科技公园内,上海市,上海市,宝山区,121.3533284,31.40376952
美兰湖国际会议中心-棋牌室,体育休闲服务,娱乐场所,棋牌室,美丹路佳境苑1号101室,上海市,上海市,宝山区,121.349895,31.40308523
腾飞跆拳道(美兰湖分馆),体育休闲服务,运动场馆,跆拳道场馆,罗芬路东50米,上海市,上海市,宝山区,121.3508132,31.40365557
逍遥派美兰湖800平庄园级轰趴馆(美兰湖一店),体育休闲服务,娱乐场所,娱乐场所,美兰湖路333弄60号美兰金邸别墅,上海市,上海市,宝山区,121.3543919,31.39933209
84栋别墅轰趴馆,体育休闲服务,体育休闲服务场所,体育休闲服务场所,抚远路526号,上海市,上海市,宝山区,121.3600261,31.39913883
新开的游泳健身会所,体育休闲服务,运动场馆,游泳馆,抚远路538弄528号,上海市,上海市,宝山区,121.3614948,31.39792014
佰约国际健身游泳俱乐部,体育休闲服务,体育休闲服务场所,体育休闲服务场所,抚远路538弄526号(原万科臻园售楼处),上海市,上海市,宝山区,121.3615987,31.39760509
平衡瑜伽(美兰湖店),体育休闲服务,体育休闲服务场所,体育休闲服务场所,抚远路538弄263号301室,上海市,上海市,宝山区,121.3571049,31.40110449
佰约国际健身俱乐部(美兰湖店),体育休闲服务,运动场馆,健身中心,抚远路538弄526号,上海市,上海市,宝山区,121.3616396,31.39750206
皇冠壹号轰趴馆,体育休闲服务,体育休闲服务场所,体育休闲服务场所,美兰湖大道333弄美兰金邸24号,上海市,上海市,宝山区,121.3554929,31.39925842
美兰湖健身俱乐部,体育休闲服务,运动场馆,健身中心,罗店镇美兰湖美兰湖大道366号诺贝尔科技公园内,上海市,上海市,宝山区,121.3557631,31.40222619
无限野真情户外俱乐部,体育休闲服务,娱乐场所,娱乐场所,美兰湖大道333弄41号别墅,上海市,上海市,宝山区,121.3558943,31.39807415
上海市宝山区罗店镇美兰湖颐景园居民委员会老年活动室,体育休闲服务,休闲场所,休闲场所,美艾路,上海市,上海市,宝山区,121.3571302,31.39685065
海德花园居委会老年活动室,体育休闲服务,休闲场所,休闲场所,杨北路与海笛路交叉口南100米,上海市,上海市,宝山区,121.4156822,31.39441198
紫辰哈皮园,体育休闲服务,休闲场所,游乐场,白沙园路北100米,上海市,上海市,宝山区,121.431125,31.40037496
部落联盟网咖(杨泰店),体育休闲服务,娱乐场所,网吧,杨行镇杨泰路2158号,上海市,上海市,宝山区,121.4266779,31.39635495
E军团改装俱乐部,体育休闲服务,体育休闲服务场所,体育休闲服务场所,杨行镇铁印路27号,上海市,上海市,宝山区,121.4394103,31.39976876
海之健身会所(宝山店),体育休闲服务,运动场馆,健身中心,杨行镇友谊路1899弄52号106-a,上海市,上海市,宝山区,121.4424324,31.39600446
万业紫辰苑健身会所,体育休闲服务,体育休闲服务场所,体育休闲服务场所,杨行镇江杨北路1568弄1号,上海市,上海市,宝山区,121.4371856,31.4002417
金仕堡(万业紫辰苑店),体育休闲服务,运动场馆,健身中心,江杨北路1568弄1号,上海市,上海市,宝山区,121.4365874,31.40010471
上海宝山杨行镇金秋晨曦老年公寓,体育休闲服务,度假疗养场所,疗养院,盘古路1911号,上海市,上海市,宝山区,121.4408367,31.39709013
胜宇动漫城,体育休闲服务,娱乐场所,游戏厅,盘古路1848号3层,上海市,上海市,宝山区,121.4430638,31.39732931
聚海棋牌,体育休闲服务,娱乐场所,棋牌室,友谊路1899弄47号(海尚明城西门海之健身对过),上海市,上海市,宝山区,121.443105,31.39599976
老年棋牌室,体育休闲服务,娱乐场所,棋牌室,友谊路1899-57号附近,上海市,上海市,宝山区,121.4423001,31.3960252
鼎龙棋牌,体育休闲服务,娱乐场所,棋牌室,友谊路1899弄47号,上海市,上海市,宝山区,121.4430288,31.39591164
和顺棋牌(友谊路),体育休闲服务,娱乐场所,棋牌室,友谊路1899弄16号2层,上海市,上海市,宝山区,121.4436183,31.39436424
上海滩(铁峰路),购物服务,服装鞋帽皮具店,服装鞋帽皮具店|体育休闲服务,友谊路铁峰路1986号,上海市,上海市,宝山区,121.4498897,31.39733643
