名称,大类,中类,小类,地址,省,市,区,WGS84_经度,WGS84_纬度
中国邮政报刊亭,公共设施,报刊亭,报刊亭,北山大道与青龙西路交叉口东50米,重庆市,重庆市,万州区,108.39735426972474,30.83198603183932
中国邮政书报亭,公共设施,报刊亭,报刊亭,安顺路与上海支路交叉口东南方向180米,重庆市,重庆市,万州区,108.44392711666109,30.76454020728841
报刊亭,公共设施,报刊亭,报刊亭,天城大道与黑龙江路交叉路口往东南约50米,重庆市,重庆市,万州区,108.36671164385959,30.84688047288734
报刊亭,公共设施,报刊亭,报刊亭,黑龙江路与天城大道交叉口东北方向30米,重庆市,重庆市,万州区,108.36659875817999,30.847382328057147
报刊亭,公共设施,报刊亭,报刊亭,红花街与王牌路交叉口西南方向20米,重庆市,重庆市,万州区,108.38730389308286,30.787477598369534
中国邮政报刊亭,公共设施,报刊亭,报刊亭,厦门大道578附近,重庆市,重庆市,万州区,108.3886241356678,30.761972425170605
中国邮政报刊亭,公共设施,报刊亭,报刊亭,天城大道146号附近,重庆市,重庆市,万州区,108.37192258081024,30.82776426542296
中国邮政报刊亭,公共设施,报刊亭,报刊亭,名亨路124附近,重庆市,重庆市,万州区,108.35797189141162,30.82811859882812
中国邮政报刊亭,公共设施,报刊亭,报刊亭,北山大道与青龙西路交叉口东50米,重庆市,重庆市,万州区,108.3971672790861,30.831859106499206
书报亭,公共设施,报刊亭,报刊亭,王牌路与红花街交叉口南50米,重庆市,重庆市,万州区,108.38739485989467,30.7873356333391
中国邮政报刊亭,公共设施,报刊亭,报刊亭,福建大街与心连心转盘交叉口西北方向50米,重庆市,重庆市,万州区,108.36581022070386,30.841836394529725
报刊亭,公共设施,报刊亭,报刊亭,天城大道与黑龙江路交叉口东南50米,重庆市,重庆市,万州区,108.36637006935531,30.847312644677633
书报亭,公共设施,报刊亭,报刊亭,天城大道941号附近,重庆市,重庆市,万州区,108.36613444374663,30.84652037629437
报刊亭,公共设施,报刊亭,报刊亭,山湾街与沙龙路一段交叉口东南50米,重庆市,重庆市,万州区,108.36119568356642,30.816520412398567
报刊亭,公共设施,报刊亭,报刊亭,白岩路342号天悦酒店旁,重庆市,重庆市,万州区,108.36344934119214,30.816669312439927
报刊亭,公共设施,报刊亭,报刊亭,国本路158号,重庆市,重庆市,万州区,108.36481228207172,30.818408606841164
报刊亭,公共设施,报刊亭,报刊亭,沙龙路三段3886号附近,重庆市,重庆市,万州区,108.38268850912135,30.760823074811334
公共厕所,公共设施,公共厕所,公共厕所,上海大道140-1号附近,重庆市,重庆市,万州区,108.43570502739797,30.76501698385095
公共厕所,公共设施,公共厕所,公共厕所,北滨大道三段40号附近,重庆市,重庆市,万州区,108.38432314911337,30.820483262302503
公共厕所,公共设施,公共厕所,公共厕所,其芳路22号附近,重庆市,重庆市,万州区,108.27918827119343,30.66848516152075
公共厕所,公共设施,公共厕所,公共厕所,白岩路230号附5号,重庆市,重庆市,万州区,108.36838372766255,30.815487884876564
公共厕所,公共设施,公共厕所,公共厕所,鼓楼一路华榕·醉美湾(钟鼓楼大市场南),重庆市,重庆市,万州区,108.38486366976025,30.822607792924227
公共厕所,公共设施,公共厕所,公共厕所,国本路与白岩路交叉口西50米,重庆市,重庆市,万州区,108.35977181244934,30.817337946224168
公共厕所,公共设施,公共厕所,公共厕所,石狮路与060县道交叉口东50米,重庆市,重庆市,万州区,108.37706873129795,30.848850670568513
公共厕所,公共设施,公共厕所,公共厕所,北山大道1087号附近,重庆市,重庆市,万州区,108.40032729194455,30.834864572922825
公共厕所,公共设施,公共厕所,公共厕所,白岩路407正东方向90米,重庆市,重庆市,万州区,108.35263654180102,30.818914805483914
公共厕所,公共设施,公共厕所,公共厕所,金陵路96号附近,重庆市,重庆市,万州区,108.41024503709559,30.768632602682448
公共厕所,公共设施,公共厕所,公共厕所,平湖路88重庆信息学院金龙校区,重庆市,重庆市,万州区,108.37205397753245,30.7923753802199
公共厕所,公共设施,公共厕所,公共厕所,龙宝大街127附3附近,重庆市,重庆市,万州区,108.37890684414505,30.75501573974032
服务区公共厕所,公共设施,公共厕所,公共厕所,服务区与G42沪蓉高速交叉口西北50米,重庆市,重庆市,万州区,107.98700937038828,30.72984696527434
公共厕所,公共设施,公共厕所,公共厕所,沙龙路二段与胜利新路交叉口东50米,重庆市,重庆市,万州区,108.37261592253662,30.79828363735883
公共厕所,公共设施,公共厕所,公共厕所,318国道南50米,重庆市,重庆市,万州区,108.6382110775828,30.589881917372942
公共厕所,公共设施,公共厕所,公共厕所,桃园路东50米,重庆市,重庆市,万州区,108.37747646040252,30.87511447308912
公共厕所,公共设施,公共厕所,公共厕所,长岭大道与G5012恩广高速交叉口东南50米,重庆市,重庆市,万州区,108.53146919105555,30.773805591524766
公共厕所,公共设施,公共厕所,公共厕所,杨柳路196号附近,重庆市,重庆市,万州区,108.3658159167358,30.748502355127837
公共厕所,公共设施,公共厕所,公共厕所,静园路8号附近,重庆市,重庆市,万州区,108.37435673846021,30.802600604451438
公共厕所,公共设施,公共厕所,公共厕所,南都路109号附近,重庆市,重庆市,万州区,108.24973372327256,30.50931546363255
公共厕所,公共设施,公共厕所,公共厕所,105省道东50米,重庆市,重庆市,万州区,108.43158877655321,30.748769833749467
公共厕所,公共设施,公共厕所,公共厕所,天凤路64号附近,重庆市,重庆市,万州区,108.3663995782035,30.82579257663253
公共厕所,公共设施,公共厕所,公共厕所,天子路758附近,重庆市,重庆市,万州区,108.3612805319559,30.844672711977218
公共厕所,公共设施,公共厕所,公共厕所,天台路349附近,重庆市,重庆市,万州区,108.44371792990117,30.76057184674283
公共厕所,公共设施,公共厕所,公共厕所,万川大道与安康路交叉口南150米,重庆市,重庆市,万州区,108.44625094338168,30.77166918780413
公共厕所,公共设施,公共厕所,公共厕所,长岭大道南50米,重庆市,重庆市,万州区,108.47001296641291,30.776021580004524
公共厕所,公共设施,公共厕所,公共厕所,长岭大道南50米,重庆市,重庆市,万州区,108.45027836955941,30.77618140330131
公共厕所,公共设施,公共厕所,公共厕所,059县道西100米,重庆市,重庆市,万州区,108.33792134186432,30.920068899155698
公共厕所,公共设施,公共厕所,公共厕所,044乡道与318国道交叉口东50米,重庆市,重庆市,万州区,108.12043665978054,30.744734639693174
公共厕所,公共设施,公共厕所,公共厕所,070乡道与105省道交叉口西南150米,重庆市,重庆市,万州区,108.58950718031323,30.802764317719653
公共厕所,公共设施,公共厕所,公共厕所,北山大道165号附近,重庆市,重庆市,万州区,108.38847361560741,30.825637414145103
公共厕所,公共设施,公共厕所,公共厕所,天子路东50米,重庆市,重庆市,万州区,108.35913042420106,30.83674414350578
公共厕所,公共设施,公共厕所,公共厕所,白岩路,重庆市,重庆市,万州区,108.35590006868964,30.817286636256295
公共厕所,公共设施,公共厕所,公共厕所,分水西路293号附近,重庆市,重庆市,万州区,108.09216337241052,30.72420017251232
公共厕所,公共设施,公共厕所,公共厕所,余复路东50米,重庆市,重庆市,万州区,107.94711248648584,30.81386745977707
公共厕所,公共设施,公共厕所,公共厕所,318国道东50米,重庆市,重庆市,万州区,108.12514192435927,30.749120739396982
公共厕所,公共设施,公共厕所,公共厕所,国光路东50米,重庆市,重庆市,万州区,108.25414529463244,30.8121949052286
公共厕所,公共设施,公共厕所,公共厕所,国光路北50米,重庆市,重庆市,万州区,108.26573984501049,30.816453187297185
公共厕所,公共设施,公共厕所,公共厕所,天子路637附近,重庆市,重庆市,万州区,108.35976509392826,30.84140464534008
公共厕所,公共设施,公共厕所,公共厕所,天子路595附近,重庆市,重庆市,万州区,108.35958154645441,30.8390961922804
公共厕所,公共设施,公共厕所,公共厕所,歇凤路南100米,重庆市,重庆市,万州区,108.3868361921007,30.883581520862126
公共厕所,公共设施,公共厕所,公共厕所,塘坊大道与059县道交叉口西南100米,重庆市,重庆市,万州区,108.34951516107236,30.90215390133523
公共厕所,公共设施,公共厕所,公共厕所,古城大道与歇凤路交叉口南100米,重庆市,重庆市,万州区,108.42715430155356,30.907249594622165
金凤山公共厕所,公共设施,公共厕所,公共厕所,202省道东50米,重庆市,重庆市,万州区,108.30452372298647,30.824997689707654
公共厕所,公共设施,公共厕所,公共厕所,南滨大道东100米,重庆市,重庆市,万州区,108.4314108495382,30.771485856821855
公共厕所,公共设施,公共厕所,公共厕所,天城大道与闽天后街交叉口西50米,重庆市,重庆市,万州区,108.36648338092834,30.840873108020418
公共厕所,公共设施,公共厕所,公共厕所,天台路与安庆路交叉口西北50米,重庆市,重庆市,万州区,108.44104613754254,30.75995903366658
公共厕所,公共设施,公共厕所,公共厕所,红光路5号,重庆市,重庆市,万州区,108.366260419495,30.81669374573722
公共厕所,公共设施,公共厕所,公共厕所,甘宁镇甘宁河段万州大瀑布群旅游区3号厕所,重庆市,重庆市,万州区,108.25326688592978,30.66225785079684
公共厕所,公共设施,公共厕所,公共厕所,甘宁镇甘宁河段万州大瀑布群旅游区3号厕所,重庆市,重庆市,万州区,108.25325788777305,30.66225085662301
公共厕所,公共设施,公共厕所,公共厕所,,重庆市,重庆市,万州区,107.98742903768665,30.729935654308417
公共厕所,公共设施,公共厕所,公共厕所,沙龙路二段与协立路交叉口西南方向100米,重庆市,重庆市,万州区,108.37366281120592,30.797869821682657
公共厕所,公共设施,公共厕所,公共厕所,王牌路48号附近,重庆市,重庆市,万州区,108.37633957103986,30.80512243018409
公共厕所,公共设施,公共厕所,公共厕所,白岩路与白岩路二巷交叉口西50米,重庆市,重庆市,万州区,108.37067803610056,30.813734284617954
公共厕所,公共设施,公共厕所,公共厕所,站前路189号附近,重庆市,重庆市,万州区,108.3937239981621,30.75674466155912
尼斯酒店-洗手间,公共设施,公共厕所,公共厕所,白岩路与新城路交叉口西北方向90米,重庆市,重庆市,万州区,108.37220136153178,30.8125303409031
公共厕所,公共设施,公共厕所,公共厕所,万州金街4栋附近,重庆市,重庆市,万州区,108.37871776571288,30.81397563537185
公共厕所,公共设施,公共厕所,公共厕所,富康路与龙宝大街交叉口东北50米,重庆市,重庆市,万州区,108.36923092930559,30.756121432501278
公共厕所,公共设施,公共厕所,公共厕所,万里城墙与孙家书房路交叉口东南50米,重庆市,重庆市,万州区,108.3727394050569,30.817475092240592
公共厕所,公共设施,公共厕所,公共厕所,沙龙路一段887号附近,重庆市,重庆市,万州区,108.37492199293777,30.804867847569263
公共厕所,公共设施,公共厕所,公共厕所,天城东路40附近,重庆市,重庆市,万州区,108.3681188414265,30.84639507850208
公共厕所,公共设施,公共厕所,公共厕所,电报路与孙家书房路交叉口西南方向140米,重庆市,重庆市,万州区,108.37276656973484,30.814769545045415
公共厕所,公共设施,公共厕所,公共厕所,沙龙路二段429号附近,重庆市,重庆市,万州区,108.37269679734997,30.798777290091472
公共厕所,公共设施,公共厕所,公共厕所,白岩路与青羊宫路交叉口西北方向110米,重庆市,重庆市,万州区,108.36957525545785,30.815271652621522
南滨公园-公共厕所,公共设施,公共厕所,公共厕所,南滨大道与梨花路交叉口南100米,重庆市,重庆市,万州区,108.39839481158519,30.797129071818823
公共厕所,公共设施,公共厕所,公共厕所,站前路88号附近,重庆市,重庆市,万州区,108.39758253022502,30.758948168133603
公共厕所,公共设施,公共厕所,公共厕所,沙龙路二段279-附16号附近,重庆市,重庆市,万州区,108.3681961666975,30.798794160184798
公共厕所,公共设施,公共厕所,公共厕所,北山大道338号附近,重庆市,重庆市,万州区,108.38909247730902,30.824033059108785
公共厕所,公共设施,公共厕所,公共厕所,津滨路与王牌路交叉口西南100米,重庆市,重庆市,万州区,108.37511310470954,30.80061796747233
公共厕所,公共设施,公共厕所,公共厕所,北山大道与幸福路交叉口西北方向70米,重庆市,重庆市,万州区,108.39135135543832,30.828866655322177
南滨公园-公共厕所,公共设施,公共厕所,公共厕所,南滨大道西50米,重庆市,重庆市,万州区,108.39672954758069,30.800478285464095
公共厕所,公共设施,公共厕所,公共厕所,白岩路二巷55号,重庆市,重庆市,万州区,108.36506298207127,30.817727663685112
公共厕所,公共设施,公共厕所,公共厕所,万川大道431附近,重庆市,重庆市,万州区,108.43664158716516,30.768297851985505
公共厕所,公共设施,公共厕所,公共厕所,安庆路103-26号附近,重庆市,重庆市,万州区,108.43574124016556,30.762999089454855
公共厕所,公共设施,公共厕所,公共厕所,沙龙路一段与诗仙路交叉口西50米,重庆市,重庆市,万州区,108.37365111690764,30.8076955230794
公共厕所,公共设施,公共厕所,公共厕所,北山大道805附近,重庆市,重庆市,万州区,108.39554145080952,30.830509955762093
万州圣安娜酒店-洗手间,公共设施,公共厕所,公共厕所,电报路223号,重庆市,重庆市,万州区,108.3758573188445,30.815132410473208
肯德基(万州店)-洗手间,公共设施,公共厕所,公共厕所,太白路99号三峡福斯德广场B1楼,重庆市,重庆市,万州区,108.37491066552417,30.809578301752996
公共厕所,公共设施,公共厕所,公共厕所,新盛路与105省道交叉口南150米,重庆市,重庆市,万州区,108.39939117561144,30.6957373915087
公共厕所(CQ-WZ-0112),公共设施,公共厕所,公共厕所,甘宁镇嘉衡农庄,重庆市,重庆市,万州区,108.30541260480051,30.646246779724205
公共厕所,公共设施,公共厕所,公共厕所,056县道附近,重庆市,重庆市,万州区,108.34215487372474,30.611760127547768
公共厕所(CQ-WZ-0066),公共设施,公共厕所,公共厕所,双河路,重庆市,重庆市,万州区,108.36534407064782,30.755365437808454
公共厕所,公共设施,公共厕所,公共厕所,青龙河风景苑附近,重庆市,重庆市,万州区,108.25004800442233,30.66422976188909
公共厕所,公共设施,公共厕所,公共厕所,,重庆市,重庆市,万州区,108.39529341477886,30.859047019857393
公共厕所(CQ-WZ-0012),公共设施,公共厕所,公共厕所,福建大街与天城东路交叉口东南方向130米,重庆市,重庆市,万州区,108.37025851873726,30.84177125407091
公共厕所(CQ-WZ-0171),公共设施,公共厕所,公共厕所,南滨大道重庆三峡移民纪念馆内展厅1-3楼,重庆市,重庆市,万州区,108.39706675250598,30.811427337925824
公共厕所,公共设施,公共厕所,公共厕所,和平街,重庆市,重庆市,万州区,108.635903681625,30.608527320142173
公共厕所,公共设施,公共厕所,公共厕所,,重庆市,重庆市,万州区,108.48208776184738,30.802257874177002
公共厕所,公共设施,公共厕所,公共厕所,高村村3组,重庆市,重庆市,万州区,108.29868950846515,30.59778014764214
公共厕所,公共设施,公共厕所,公共厕所,高村村4组,重庆市,重庆市,万州区,108.29399968446275,30.597123060513784
公共厕所,公共设施,公共厕所,公共厕所,中心场老街,重庆市,重庆市,万州区,108.3968583202395,30.969649126053472
公共厕所,公共设施,公共厕所,公共厕所,太龙镇向坪社区,重庆市,重庆市,万州区,108.49866820754801,30.844860825792992
公共厕所,公共设施,公共厕所,公共厕所,金柱路与万柱路交叉口东南方向110米,重庆市,重庆市,万州区,108.27608314094871,30.736192630742497
公共厕所,公共设施,公共厕所,公共厕所,项家垭口,重庆市,重庆市,万州区,108.52618339684128,30.71558047669188
公共厕所(CQ-WZ-0202),公共设施,公共厕所,公共厕所,,重庆市,重庆市,万州区,108.36263183146069,30.75673723347738
公共厕所,公共设施,公共厕所,公共厕所,杜家花园路,重庆市,重庆市,万州区,108.37147762764886,30.848082418054815
公共厕所,公共设施,公共厕所,公共厕所,青山隧道,重庆市,重庆市,万州区,108.54996853004397,30.7506542415797
公共厕所,公共设施,公共厕所,公共厕所,,重庆市,重庆市,万州区,108.696066066004,30.80742035307224
公共厕所(CQ-WZ-0147),公共设施,公共厕所,公共厕所,白鹤路附近,重庆市,重庆市,万州区,108.80671993485984,30.596557652724965
公共厕所,公共设施,公共厕所,公共厕所,翠云路,重庆市,重庆市,万州区,108.40945593869463,30.763060071187645
公共厕所,公共设施,公共厕所,公共厕所,源阳路与源阳三支路交叉路口西南侧(武陵镇小学),重庆市,重庆市,万州区,108.24931298850753,30.505367696299142
公共厕所,公共设施,公共厕所,公共厕所,永胜路,重庆市,重庆市,万州区,108.24805915107835,30.67545801750097
公共厕所,公共设施,公共厕所,公共厕所,永胜路,重庆市,重庆市,万州区,108.25132727641444,30.674051100524732
公共厕所,公共设施,公共厕所,公共厕所,弹子镇陈家院,重庆市,重庆市,万州区,108.05407857868782,30.860479452719954
公共厕所,公共设施,公共厕所,公共厕所,朝阳村村委会办公室旁边,重庆市,重庆市,万州区,108.37650998349051,30.68566955770234
公共厕所,公共设施,公共厕所,公共厕所,S303(永兴路),重庆市,重庆市,万州区,108.00702077894175,30.85719534359899
公共厕所,公共设施,公共厕所,公共厕所,,重庆市,重庆市,万州区,108.21328245495147,30.6399000460509
公共厕所,公共设施,公共厕所,公共厕所,,重庆市,重庆市,万州区,108.05857005552708,30.86634573430806
公共厕所CQ-WZ-0123,公共设施,公共厕所,公共厕所,永胜路,重庆市,重庆市,万州区,108.24834529956155,30.67362981188936
公共厕所,公共设施,公共厕所,公共厕所,甘宁镇四月红玫瑰香橙园,重庆市,重庆市,万州区,108.25273835397479,30.670980120239413
公共厕所(CQ-WZ-0053),公共设施,公共厕所,公共厕所,永胜路万州同鑫蔬菜大观园景区入口,重庆市,重庆市,万州区,108.24930242399435,30.67249119479053
公共厕所,公共设施,公共厕所,公共厕所,灵凤村一组,重庆市,重庆市,万州区,108.34900390797144,30.723285596197783
公共厕所CQ-WZ-0025,公共设施,公共厕所,公共厕所,和平路119号,重庆市,重庆市,万州区,108.37256638563521,30.820411656371924
三正加水点公共厕所,公共设施,公共厕所,公共厕所,,重庆市,重庆市,万州区,108.16457642376008,30.75737606249211
公共厕所,公共设施,公共厕所,公共厕所,名亨路68附近,重庆市,重庆市,万州区,108.35597205953032,30.82967470793845
公共厕所,公共设施,公共厕所,公共厕所,北山大道226附近,重庆市,重庆市,万州区,108.38943812198738,30.827103239556017
公共厕所,公共设施,公共厕所,公共厕所,北滨大道三段红沙碛滨水生态公园内,重庆市,重庆市,万州区,108.40179395468076,30.829497759966547
公共厕所,公共设施,公共厕所,公共厕所,新村路附近,重庆市,重庆市,万州区,108.49648792828818,30.844348576681092
公共厕所,公共设施,公共厕所,公共厕所,武陵镇吊石沟,重庆市,重庆市,万州区,108.19900057497404,30.560421710013138
公共厕所,公共设施,公共厕所,公共厕所,吉安路与鱼泉路交叉口东北方向90米,重庆市,重庆市,万州区,108.23234095686384,30.637819476596043
南滨公园-公共厕所,公共设施,公共厕所,公共厕所,玉龙路与南滨大道交叉路口南侧(南滨公园),重庆市,重庆市,万州区,108.40085523521785,30.79521529866116
弥陀禅院-公共厕所,公共设施,公共厕所,公共厕所,北山一支路199号,重庆市,重庆市,万州区,108.38092714885092,30.825327758615902
公共厕所(CQ-WZ-0170),公共设施,公共厕所,公共厕所,机场路,重庆市,重庆市,万州区,108.42569407166441,30.797260386838595
万达广场-洗手间,公共设施,公共厕所,公共厕所,北滨大道二段998号重庆万州万达广场F4,重庆市,重庆市,万州区,108.37959308784316,30.813142414971537
公共厕所(CQ-WZ-0045),公共设施,公共厕所,公共厕所,黑马村四组,重庆市,重庆市,万州区,108.26697963273897,30.66338671463009
公共厕所,公共设施,公共厕所,公共厕所,天耍山庄东北50米,重庆市,重庆市,万州区,108.5080280539395,30.79004563037902
公共厕所(CQ-WZ-0150),公共设施,公共厕所,公共厕所,楼坪村三组子坪社附近,重庆市,重庆市,万州区,108.35405133223018,30.94065031228087
公共厕所,公共设施,公共厕所,公共厕所,,重庆市,重庆市,万州区,108.54072237963926,30.76501793660742
公共厕所,公共设施,公共厕所,公共厕所,白鹤路,重庆市,重庆市,万州区,108.80294918130392,30.59777260531477
公共厕所,公共设施,公共厕所,公共厕所,,重庆市,重庆市,万州区,108.3939877652362,30.5638630458423
公共厕所,公共设施,公共厕所,公共厕所,椅城路,重庆市,重庆市,万州区,108.25167708914844,30.502992918618784
公共厕所,公共设施,公共厕所,公共厕所,银百高速公路,重庆市,重庆市,万州区,108.42093938391587,30.60800425105495
公共厕所,公共设施,公共厕所,公共厕所,,重庆市,重庆市,万州区,108.73389566015138,30.53968086315
公共厕所,公共设施,公共厕所,公共厕所,龙双公路,重庆市,重庆市,万州区,108.81475426916877,30.673057284783358
公共厕所,公共设施,公共厕所,公共厕所,楠桥村3组,重庆市,重庆市,万州区,108.24998843266921,30.65806449080193
公共厕所,公共设施,公共厕所,公共厕所,黑马村新辉农业旁,重庆市,重庆市,万州区,108.26498197552324,30.664203886966824
公共厕所,公共设施,公共厕所,公共厕所,兴盛路8号-西120米,重庆市,重庆市,万州区,108.26130445714631,30.81708586441698
公共厕所,公共设施,公共厕所,公共厕所,,重庆市,重庆市,万州区,108.32789267029102,30.771947283532924
公共厕所,公共设施,公共厕所,公共厕所,李子弯祥和山庄,重庆市,重庆市,万州区,108.60724024775978,30.845412087735813
公共厕所,公共设施,公共厕所,公共厕所,,重庆市,重庆市,万州区,108.49978765232609,30.87788751317781
公共厕所,公共设施,公共厕所,公共厕所,,重庆市,重庆市,万州区,108.6875097815499,30.798821482635546
公共厕所,公共设施,公共厕所,公共厕所,北滨大道二段,重庆市,重庆市,万州区,108.38139773177004,30.81229557759747
公共厕所CQ-WZ-0016,公共设施,公共厕所,公共厕所,北滨大道二段,重庆市,重庆市,万州区,108.38554884017576,30.80088426387795
公共厕所,公共设施,公共厕所,公共厕所,玉澜路与玉龙路交叉口西北方向140米,重庆市,重庆市,万州区,108.40305156494055,30.797735350350486
公共厕所,公共设施,公共厕所,公共厕所,林场村作业,重庆市,重庆市,万州区,108.56169723651142,30.725334241216352
公共厕所,公共设施,公共厕所,公共厕所,,重庆市,重庆市,万州区,108.3955692027221,30.861636528186985
公共厕所,公共设施,公共厕所,公共厕所,兴隆街,重庆市,重庆市,万州区,108.34336240008656,30.7118928253546
公共厕所(CQ-WZ-0204),公共设施,公共厕所,公共厕所,,重庆市,重庆市,万州区,108.35961360280147,30.753980792375252
新田服务区公共厕所,公共设施,公共厕所,公共厕所,新田服务区,重庆市,重庆市,万州区,108.42946719658923,30.623533440106247
新田服务区公共厕所,公共设施,公共厕所,公共厕所,新田服务区,重庆市,重庆市,万州区,108.4253490821653,30.622370493920723
公共厕所,公共设施,公共厕所,公共厕所,槽溪村方家沟,重庆市,重庆市,万州区,108.49071073827453,30.55383725526678
公共厕所,公共设施,公共厕所,公共厕所,青石社区7组,重庆市,重庆市,万州区,108.52227601382788,30.714509565685756
公共厕所,公共设施,公共厕所,公共厕所,凤康街与凤鸣街交叉口东北方向100米,重庆市,重庆市,万州区,108.75649414537996,30.533123349362867
公共厕所,公共设施,公共厕所,公共厕所,欧典花园东北(科园路北),重庆市,重庆市,万州区,108.38160406915867,30.77769298946627
西山公园-公共厕所,公共设施,公共厕所,公共厕所,王牌路13号西山公园内,重庆市,重庆市,万州区,108.38305001693028,30.805942952842475
公共厕所,公共设施,公共厕所,公共厕所,G055(沪蓉线),重庆市,重庆市,万州区,108.4079085993573,30.755448239896815
公共厕所,公共设施,公共厕所,公共厕所,大周镇石龙门,重庆市,重庆市,万州区,108.49662954574326,30.870951999586662
公共厕所,公共设施,公共厕所,公共厕所,,重庆市,重庆市,万州区,108.60513310071589,30.904602527012322
公共厕所,公共设施,公共厕所,公共厕所,白岩书院路72号附近,重庆市,重庆市,万州区,108.37155022691677,30.810813950628244
公共厕所,公共设施,公共厕所,公共厕所,,重庆市,重庆市,万州区,108.81581289437317,30.67436365841793
歇凤服务区公共厕所,公共设施,公共厕所,公共厕所,银百高速公路,重庆市,重庆市,万州区,108.43374377348053,30.885403677404295
歇凤服务区公共厕所,公共设施,公共厕所,公共厕所,,重庆市,重庆市,万州区,108.4355340690852,30.88560445987899
公共厕所,公共设施,公共厕所,公共厕所,,重庆市,重庆市,万州区,108.39886224818932,30.860861884078144
公共厕所,公共设施,公共厕所,公共厕所,,重庆市,重庆市,万州区,108.2159475734784,30.637944768715112
公共厕所(CQ-WZ-0046),公共设施,公共厕所,公共厕所,甘宁镇奇芳花谷3号,重庆市,重庆市,万州区,108.26615635306905,30.661611148909046
公共厕所,公共设施,公共厕所,公共厕所,北滨大道二段与万州金街交叉口西南方向100米,重庆市,重庆市,万州区,108.37987692574043,30.81216873333533
公共厕所,公共设施,公共厕所,公共厕所,,重庆市,重庆市,万州区,108.39342834798508,30.988012852447543
公共厕所,公共设施,公共厕所,公共厕所,,重庆市,重庆市,万州区,108.4965936183208,30.86818646239611
公共厕所(CQ-WZ-0222),公共设施,公共厕所,公共厕所,大垭口隧道(子坪社西侧约200米),重庆市,重庆市,万州区,108.35046163549454,30.941129765496203
公共厕所,公共设施,公共厕所,公共厕所,,重庆市,重庆市,万州区,108.31772102204184,30.700603392237685
公共厕所,公共设施,公共厕所,公共厕所,新田镇尖山村,重庆市,重庆市,万州区,108.41003832290554,30.62316954783958
公共厕所,公共设施,公共厕所,公共厕所,,重庆市,重庆市,万州区,108.44109522348178,30.997531425537
公共厕所,公共设施,公共厕所,公共厕所,,重庆市,重庆市,万州区,108.60074532313786,30.87592776791642
公共厕所(CQ-WZ-0093),公共设施,公共厕所,公共厕所,凤翔街,重庆市,重庆市,万州区,108.7572712466027,30.53179809428927
公共厕所(CQ-WZ-0148),公共设施,公共厕所,公共厕所,凤凰村,重庆市,重庆市,万州区,108.33474178651535,30.766805989166965
公共厕所(CQ-WZ-0166),公共设施,公共厕所,公共厕所,双河路,重庆市,重庆市,万州区,108.36156645975761,30.75608900021049
万达广场-女洗手间,公共设施,公共厕所,公共厕所,北滨大道二段998号重庆万州万达广场F4,重庆市,重庆市,万州区,108.37962006504874,30.813150390274625
公共厕所,公共设施,公共厕所,公共厕所,龙双公路,重庆市,重庆市,万州区,108.89631234983769,30.657024069574238
公共厕所,公共设施,公共厕所,公共厕所,电报路159号,重庆市,重庆市,万州区,108.37748375552016,30.81544283478025
公共厕所,公共设施,公共厕所,公共厕所,海关支路与周家坝路交叉口东南方向70米,重庆市,重庆市,万州区,108.3681570676786,30.842573171977488
西山公园-公共厕所,公共设施,公共厕所,公共厕所,静园路,重庆市,重庆市,万州区,108.38018223625774,30.80444070608708
西山公园-公共厕所,公共设施,公共厕所,公共厕所,北滨大道二段与果园路交叉口西南方向90米,重庆市,重庆市,万州区,108.38189479468505,30.806348475582965
枇杷坪广场-公共厕所,公共设施,公共厕所,公共厕所,北山大道980号,重庆市,重庆市,万州区,108.40293584334918,30.835058908960704
公共厕所,公共设施,公共厕所,公共厕所,白虎路93号北70米,重庆市,重庆市,万州区,108.39603521613333,30.833260388378598
公共厕所,公共设施,公共厕所,公共厕所,,重庆市,重庆市,万州区,108.48143959545878,30.80276470745169
公共厕所,公共设施,公共厕所,公共厕所,南山路28号南山公园,重庆市,重庆市,万州区,108.40881830493629,30.82220413330013
公共厕所,公共设施,公共厕所,公共厕所,都历路与枇杷坪东路交叉口东南方向130米,重庆市,重庆市,万州区,108.40496825986504,30.838686447723703
公共厕所,公共设施,公共厕所,公共厕所,龙宝大街242号附近,重庆市,重庆市,万州区,108.37574380540408,30.754284771566148
公共厕所(CQ-WZ-0024),公共设施,公共厕所,公共厕所,沙龙路一段万州太白公园2号,重庆市,重庆市,万州区,108.36893861276533,30.80736067776012
公共厕所,公共设施,公共厕所,公共厕所,石碾村,重庆市,重庆市,万州区,108.0738237080633,30.73683264502948
旅游厕所,公共设施,公共厕所,公共厕所,临江路,重庆市,重庆市,万州区,108.25295801677301,30.50203685286187
公共厕所,公共设施,公共厕所,公共厕所,,重庆市,重庆市,万州区,108.27244518375716,30.660351156672043
公共厕所,公共设施,公共厕所,公共厕所,,重庆市,重庆市,万州区,108.29938374775719,30.67651193760304
公共厕所,公共设施,公共厕所,公共厕所,,重庆市,重庆市,万州区,108.27958354142562,30.672030094352994
公共厕所,公共设施,公共厕所,公共厕所,国光路118号西20米,重庆市,重庆市,万州区,108.26175234885022,30.815341545130117
公共厕所,公共设施,公共厕所,公共厕所,G42(庙梁隧道),重庆市,重庆市,万州区,108.34516760650158,30.786324852699142
公共厕所,公共设施,公共厕所,公共厕所,,重庆市,重庆市,万州区,108.3435578047106,30.785024359263964
公共厕所(CQ-WZ-0044),公共设施,公共厕所,公共厕所,S103奇芳花谷东北门,重庆市,重庆市,万州区,108.27005507877082,30.664522578830077
公共厕所,公共设施,公共厕所,公共厕所,,重庆市,重庆市,万州区,108.407104551101,30.764298328985152
公共厕所(CQ-WZ-0161),公共设施,公共厕所,公共厕所,滨湖路,重庆市,重庆市,万州区,108.36100000954042,30.8578506922837
公共厕所(CQ-WZ-0103),公共设施,公共厕所,公共厕所,电报路221号,重庆市,重庆市,万州区,108.37533986140069,30.814723101833554
公共厕所,公共设施,公共厕所,公共厕所,G318(沪聂线),重庆市,重庆市,万州区,108.48746787126423,30.769913921100276
公共厕所,公共设施,公共厕所,公共厕所,石桥村10组石桥水乡湿地公园湖边,重庆市,重庆市,万州区,108.24328751719365,30.570557729204364
公共厕所,公共设施,公共厕所,公共厕所,太白路与新城路交叉口东南方向160米,重庆市,重庆市,万州区,108.37485756779407,30.811689201946756
公共厕所,公共设施,公共厕所,公共厕所,玉澜路与玉龙路交叉口西北方向20米,重庆市,重庆市,万州区,108.40444100150809,30.797904626871222
公共厕所(CQ-WZ-0237),公共设施,公共厕所,公共厕所,大周镇X549,重庆市,重庆市,万州区,108.49280931920708,30.862181517162398
公共厕所,公共设施,公共厕所,公共厕所,,重庆市,重庆市,万州区,108.57554679820356,30.756719797945546
公共厕所,公共设施,公共厕所,公共厕所,帅家村3组五彩云天鸭儿滩,重庆市,重庆市,万州区,108.29669248295507,30.677151134936288
公共厕所,公共设施,公共厕所,公共厕所,国泰街32附近,重庆市,重庆市,万州区,108.52429572771224,30.92155370696013
公共厕所,公共设施,公共厕所,公共厕所,,重庆市,重庆市,万州区,108.60066201672784,30.807913733115814
学府广场-公共厕所,公共设施,公共厕所,公共厕所,安庆路与天台路交叉口西北方向60米,重庆市,重庆市,万州区,108.44085069992676,30.760274506336952
公共厕所,公共设施,公共厕所,公共厕所,凤凰村7组九凤湘院接待中心,重庆市,重庆市,万州区,108.34428419851969,30.759806280795193
公共厕所(CQ-WZ-0159),公共设施,公共厕所,公共厕所,杜家花园路与周家坝路交叉路口往东约200米,重庆市,重庆市,万州区,108.37200932476426,30.84383724194002
公共厕所,公共设施,公共厕所,公共厕所,海关支路与周家坝路交叉口西南方向50米,重庆市,重庆市,万州区,108.36726719929882,30.84286205585198
公共厕所,公共设施,公共厕所,公共厕所,,重庆市,重庆市,万州区,108.6909439437018,30.807276940236274
公共厕所(CQ-WZ-0156),公共设施,公共厕所,公共厕所,杜家花园路(万州区狮子山公园),重庆市,重庆市,万州区,108.37184534025201,30.846212082597308
公共厕所,公共设施,公共厕所,公共厕所,复兴路58号,重庆市,重庆市,万州区,108.37603602576267,30.81677735147212
西山公园-公共厕所,公共设施,公共厕所,公共厕所,王牌路17号,重庆市,重庆市,万州区,108.3771618158857,30.80482888074522
南滨公园-公共厕所,公共设施,公共厕所,公共厕所,南滨大道,重庆市,重庆市,万州区,108.39672354774599,30.800478285743353
公共厕所(CQ-WZ-0228),公共设施,公共厕所,公共厕所,福善村七星谷景区儿童娱乐区,重庆市,重庆市,万州区,108.28900853636533,30.856378584631514
公共厕所,公共设施,公共厕所,公共厕所,站前路,重庆市,重庆市,万州区,108.3940179188907,30.75716339628297
公共厕所,公共设施,公共厕所,公共厕所,石梁大道636号,重庆市,重庆市,万州区,108.36147833271264,30.73178639468412
公共厕所,公共设施,公共厕所,公共厕所,红星街487号,重庆市,重庆市,万州区,108.44515433742781,30.772532497995652
公共厕所,公共设施,公共厕所,公共厕所,,重庆市,重庆市,万州区,108.50863710966766,30.789056943820377
公共厕所,公共设施,公共厕所,公共厕所,,重庆市,重庆市,万州区,108.69465239743818,30.805824516163668
公共厕所,公共设施,公共厕所,公共厕所,,重庆市,重庆市,万州区,108.6921583177111,30.803905705250468
女洗手间(万达广场),公共设施,公共厕所,女洗手间,北滨大道二段998号万达广场B1层,重庆市,重庆市,万州区,108.37947013681813,30.813874108691774
男洗手间(万达广场),公共设施,公共厕所,男洗手间,北滨大道二段998号万达广场B1层,重庆市,重庆市,万州区,108.37950310877255,30.81388407823103
女洗手间(万达广场),公共设施,公共厕所,女洗手间,北滨大道二段998号万达广场3F层,重庆市,重庆市,万州区,108.38027254806936,30.812998989293007
女洗手间(万达广场),公共设施,公共厕所,女洗手间,北滨大道二段998号万达广场4F层,重庆市,重庆市,万州区,108.37969899511072,30.81322129222072
男洗手间(万达广场),公共设施,公共厕所,男洗手间,北滨大道二段998号万达广场1F层,重庆市,重庆市,万州区,108.38020260506852,30.812981050134635
女洗手间(万达广场),公共设施,公共厕所,女洗手间,北滨大道二段998号万达广场4F层,重庆市,重庆市,万州区,108.37927826278838,30.814345997405674
男洗手间(万达广场),公共设施,公共厕所,男洗手间,北滨大道二段998号万达广场1F层,重庆市,重庆市,万州区,108.37935919865643,30.814296962259586
公共厕所,公共设施,公共厕所,公共厕所,孙家互通与沿江路交叉口东50米,重庆市,重庆市,万州区,108.01145101459743,30.730471798704517
公共厕所,公共设施,公共厕所,公共厕所,103省道西50米,重庆市,重庆市,万州区,108.34276823137083,30.716487653598207
公共厕所,公共设施,公共厕所,公共厕所,走马路与105省道交叉口东北50米,重庆市,重庆市,万州区,108.44131540806279,30.56707746281152
公共厕所,公共设施,公共厕所,公共厕所,国光路北50米,重庆市,重庆市,万州区,108.27877326500105,30.81872317922871
公共厕所,公共设施,公共厕所,公共厕所,103省道东50米,重庆市,重庆市,万州区,108.37034470515493,30.740336218534562
公共厕所,公共设施,公共厕所,公共厕所,龙宝大街232号附近,重庆市,重庆市,万州区,108.37188900878755,30.752782270142582
公共厕所,公共设施,公共厕所,公共厕所,斛城大道东50米,重庆市,重庆市,万州区,108.34805071736203,30.834498714028392
公共厕所,公共设施,公共厕所,公共厕所,南滨大道西100米,重庆市,重庆市,万州区,108.396270598379,30.800019558666158
公共厕所,公共设施,公共厕所,公共厕所,申明北路西50米,重庆市,重庆市,万州区,108.35254994578146,30.85721562395276
公共厕所,公共设施,公共厕所,公共厕所,,重庆市,重庆市,万州区,108.41040917291934,30.74038515705853
公共厕所,公共设施,公共厕所,公共厕所,061县道东50米,重庆市,重庆市,万州区,108.37096819597717,30.792844267628148
公共厕所,公共设施,公共厕所,公共厕所,百安大道72号附近,重庆市,重庆市,万州区,108.43197264721694,30.759786770850592
公共厕所,公共设施,公共厕所,公共厕所,金龙路,重庆市,重庆市,万州区,108.36205764377809,30.7990617199349
公共厕所,公共设施,公共厕所,公共厕所,龙腾街27号,重庆市,重庆市,万州区,108.40612685953147,30.76755625250316
公共厕所,公共设施,公共厕所,公共厕所,花都大道西50米,重庆市,重庆市,万州区,108.40443067591033,30.76066625791611
公共厕所,公共设施,公共厕所,公共厕所,北山大道165号附近,重庆市,重庆市,万州区,108.38562299709878,30.825892579612166
公共厕所,公共设施,公共厕所,公共厕所,天城大道153号附近,重庆市,重庆市,万州区,108.36947322495278,30.831335924841113
公共厕所,公共设施,公共厕所,公共厕所,天城西路西50米,重庆市,重庆市,万州区,108.36488976569507,30.837992687303355
公共厕所,公共设施,公共厕所,公共厕所,凤仙路与天子路交叉口东南100米,重庆市,重庆市,万州区,108.36198529202623,30.847205335913774
公共厕所,公共设施,公共厕所,公共厕所,沙龙路二段3076号附近,重庆市,重庆市,万州区,108.38154377326315,30.78242553199104
公共厕所,公共设施,公共厕所,公共厕所,天子路825号附近,重庆市,重庆市,万州区,108.36137824335792,30.846633480624693
公共厕所,公共设施,公共厕所,公共厕所,中国石油加油站(天龙路北),重庆市,重庆市,万州区,108.36568143198662,30.82744154816545
公共厕所,公共设施,公共厕所,公共厕所,沙龙路三段2139号附近,重庆市,重庆市,万州区,108.39118876654565,30.768271286168545
公共厕所,公共设施,公共厕所,公共厕所,南滨大道西100米,重庆市,重庆市,万州区,108.40276699175502,30.818472025050358
公共厕所,公共设施,公共厕所,公共厕所,歇凤路与歇风街交叉口北100米,重庆市,重庆市,万州区,108.38855525643423,30.88555664876968
公共厕所,公共设施,公共厕所,公共厕所,杏花村附近,重庆市,重庆市,万州区,108.47905298336372,30.757355731995897
公共厕所,公共设施,公共厕所,公共厕所,歇凤路南50米,重庆市,重庆市,万州区,108.39472852630229,30.886066717885146
公共厕所,公共设施,公共厕所,公共厕所,S103与高铁大道交叉口西北方向120米,重庆市,重庆市,万州区,108.3687686088746,30.865943312453343
公共厕所,公共设施,公共厕所,公共厕所,长岭大道西50米,重庆市,重庆市,万州区,108.45171092395017,30.77702414424583
公共厕所,公共设施,公共厕所,公共厕所,长岭大道北50米,重庆市,重庆市,万州区,108.46978021060261,30.776557662543244
公共厕所,公共设施,公共厕所,公共厕所,318国道西50米,重庆市,重庆市,万州区,108.54245371006824,30.746274316392892
公共厕所,公共设施,公共厕所,公共厕所,歇凤路东50米,重庆市,重庆市,万州区,108.41794989519806,30.9030288499107
公共厕所,公共设施,公共厕所,公共厕所,国泰街与033乡道交叉口东南100米,重庆市,重庆市,万州区,108.52513515232897,30.9219936834365
万州服务区公共厕所,公共设施,公共厕所,公共厕所,G42沪蓉高速东100米,重庆市,重庆市,万州区,108.38416553190983,30.88582762766963
公共厕所,公共设施,公共厕所,公共厕所,北滨大道二段与西山路交叉口南100米,重庆市,重庆市,万州区,108.38036976219347,30.808955120765372
公共厕所,公共设施,公共厕所,公共厕所,沙龙路三段与龙华街一支路交叉口西南50米,重庆市,重庆市,万州区,108.38287221976333,30.76309878258378
公共厕所,公共设施,公共厕所,公共厕所,外贸路282号,重庆市,重庆市,万州区,108.40057274450493,30.773569741205325
公共厕所,公共设施,公共厕所,公共厕所,北滨大道一段西50米,重庆市,重庆市,万州区,108.3979351499676,30.778255109034138
公共厕所,公共设施,公共厕所,公共厕所,天津路138号附近,重庆市,重庆市,万州区,108.40293269320102,30.767679231554023
公共厕所,公共设施,公共厕所,公共厕所,沙龙路一段310号,重庆市,重庆市,万州区,108.36615480413711,30.813323716700907
公共厕所,公共设施,公共厕所,公共厕所,白岩支路红光路6号5单元,重庆市,重庆市,万州区,108.36591389029377,30.81666318737954
公共厕所,公共设施,公共厕所,公共厕所,白岩路3号西南方向140米,重庆市,重庆市,万州区,108.37167701998983,30.81166435493493
公共厕所,公共设施,公共厕所,公共厕所,国本路与孙家书房路交叉口东南50米,重庆市,重庆市,万州区,108.37263249099665,30.817926952438402
南滨公园-公共厕所,公共设施,公共厕所,公共厕所,南滨大道与南滨大道二支路交叉口南100米,重庆市,重庆市,万州区,108.39505546098361,30.80327391492044
公共厕所,公共设施,公共厕所,公共厕所,果园路94号,重庆市,重庆市,万州区,108.380063062209,30.808184763478263
公共厕所(装修中),公共设施,公共厕所,公共厕所,百安三巷与上海支路交叉口东北方向130米,重庆市,重庆市,万州区,108.43728416610347,30.76374131793808
公共厕所,公共设施,公共厕所,公共厕所,凤仙路426-附1号附近,重庆市,重庆市,万州区,108.35965155877305,30.851313256060234
公共厕所,公共设施,公共厕所,公共厕所,江南大道67号附近,重庆市,重庆市,万州区,108.41388906908723,30.819844506212842
重庆万州凯莱酒店-洗手间,公共设施,公共厕所,公共厕所,太白路91-97号(近百盛商场),重庆市,重庆市,万州区,108.3749555801473,30.810128960510696
武陵镇福善农业公园厕所,公共设施,公共厕所,公共厕所,,重庆市,重庆市,万州区,108.24867360797644,30.56843633399461
万州服务区第二公共厕所,公共设施,公共厕所,公共厕所,G42沪蓉高速附近,重庆市,重庆市,万州区,108.38549764399438,30.88718312056128
无障碍洗手间(万达广场),公共设施,公共厕所,残障洗手间/无障碍洗手间,北滨大道二段998号万达广场3F层,重庆市,重庆市,万州区,108.37933721779541,30.81428598504925
无障碍洗手间(万达广场),公共设施,公共厕所,残障洗手间/无障碍洗手间,北滨大道二段998号万达广场2F层,重庆市,重庆市,万州区,108.38023557834991,30.81298702278393
无障碍洗手间(万达广场),公共设施,公共厕所,残障洗手间/无障碍洗手间,北滨大道二段998号万达广场2F层,重庆市,重庆市,万州区,108.37933721779541,30.81428598504925
无障碍洗手间(万达广场),公共设施,公共厕所,残障洗手间/无障碍洗手间,北滨大道二段998号万达广场2F层,重庆市,重庆市,万州区,108.37967601460552,30.813212314379598
万州太白公园1号公共厕所,公共设施,公共厕所,公共厕所,沙龙路一段万州太白公园,重庆市,重庆市,万州区,108.37216682834674,30.80658261106058
公共厕所(重庆万州五桥机场),公共设施,公共厕所,公共厕所,机场路重庆万州五桥机场1F层,重庆市,重庆市,万州区,108.42663723644064,30.800065069096732
万州太白公园1号公共厕所,公共设施,公共厕所,公共厕所,沙龙路一段,重庆市,重庆市,万州区,108.36731036155116,30.812019034800368
螺蛳包社区广场-公共厕所,公共设施,公共厕所,公共厕所,龙宝大街与永佳路交叉口东北方向150米,重庆市,重庆市,万州区,108.37193783747148,30.754395394432617
万州服务区公共厕所,公共设施,公共厕所,公共厕所,G42沪蓉高速附近,重庆市,重庆市,万州区,108.38394554372262,30.88757675322144
高峰镇朝阳滨江生态园厕所,公共设施,公共厕所,公共厕所,高峰镇朝阳滨江生态园,重庆市,重庆市,万州区,108.3762232493681,30.68579675012702
富力希尔顿逸林酒店-洗手间,公共设施,公共厕所,公共厕所,北滨大道二段319号(近万达广场),重庆市,重庆市,万州区,108.3785337986969,30.81572882294584
妇幼保健院(太白路分院)-洗手间,公共设施,公共厕所,公共厕所,新城路106号报社综合大楼,重庆市,重庆市,万州区,108.37633208590837,30.81196272006644
妇幼保健院(太白路分院)-洗手间,公共设施,公共厕所,公共厕所,新城路106号报社综合大楼,重庆市,重庆市,万州区,108.375628063981,30.807919546261346
无障碍洗手间(万达广场),公共设施,公共厕所,残障洗手间/无障碍洗手间,北滨大道二段998号万达广场1F层,重庆市,重庆市,万州区,108.3802395752387,30.81298602041323
无障碍洗手间(万达广场),公共设施,公共厕所,残障洗手间/无障碍洗手间,北滨大道二段998号万达广场1F层,重庆市,重庆市,万州区,108.37934421375304,30.814260993351816
残疾人洗手间(重庆万州五桥机场),公共设施,公共厕所,残障洗手间/无障碍洗手间,机场路重庆万州五桥机场2F层,重庆市,重庆市,万州区,108.4275576198467,30.799939336529903
男洗手间(万达广场),公共设施,公共厕所,男洗手间,北滨大道二段998号万达广场5F层,重庆市,重庆市,万州区,108.37965103547732,30.81320733588022
男洗手间(万达广场),公共设施,公共厕所,男洗手间,北滨大道二段998号万达广场4F层,重庆市,重庆市,万州区,108.3796500364422,30.813205337722284
男洗手间(万达广场),公共设施,公共厕所,男洗手间,北滨大道二段998号万达广场4F层,重庆市,重庆市,万州区,108.37932422339735,30.81435895513027
男洗手间(万达广场),公共设施,公共厕所,男洗手间,北滨大道二段998号万达广场3F层,重庆市,重庆市,万州区,108.38018362130357,30.812966072195408
男洗手间(万达广场),公共设施,公共厕所,男洗手间,北滨大道二段998号万达广场3F层,重庆市,重庆市,万州区,108.37936919053905,30.814293956273342
男洗手间(万达广场),公共设施,公共厕所,男洗手间,北滨大道二段998号万达广场3F层,重庆市,重庆市,万州区,108.37964404158511,30.813202343867747
男洗手间(万达广场),公共设施,公共厕所,男洗手间,北滨大道二段998号万达广场2F层,重庆市,重庆市,万州区,108.37936719220532,30.814293957797783
男洗手间(万达广场),公共设施,公共厕所,男洗手间,北滨大道二段998号万达广场2F层,重庆市,重庆市,万州区,108.37964603972681,30.81320534072851
男洗手间(万达广场),公共设施,公共厕所,男洗手间,北滨大道二段998号万达广场2F层,重庆市,重庆市,万州区,108.38018262224554,30.81296407401684
男洗手间(万达广场),公共设施,公共厕所,男洗手间,北滨大道二段998号万达广场1F层,重庆市,重庆市,万州区,108.37964204315593,30.81320334482594
女洗手间(万达广场),公共设施,公共厕所,女洗手间,北滨大道二段998号万达广场5F层,重庆市,重庆市,万州区,108.37970498983812,30.813226284997203
女洗手间(万达广场),公共设施,公共厕所,女洗手间,北滨大道二段998号万达广场3F层,重庆市,重庆市,万州区,108.37930924196824,30.814275012443343
女洗手间(万达广场),公共设施,公共厕所,女洗手间,北滨大道二段998号万达广场3F层,重庆市,重庆市,万州区,108.37969999429177,30.81322129147113
女洗手间(万达广场),公共设施,公共厕所,女洗手间,北滨大道二段998号万达广场2F层,重庆市,重庆市,万州区,108.37931223960527,30.81427301124176
女洗手间(万达广场),公共设施,公共厕所,女洗手间,北滨大道二段998号万达广场2F层,重庆市,重庆市,万州区,108.37970299183519,30.813221289222586
女洗手间(万达广场),公共设施,公共厕所,女洗手间,北滨大道二段998号万达广场2F层,重庆市,重庆市,万州区,108.38028553774751,30.812998979837083
女洗手间(万达广场),公共设施,公共厕所,女洗手间,北滨大道二段998号万达广场1F层,重庆市,重庆市,万州区,108.38027354655591,30.813008983113363
女洗手间(万达广场),公共设施,公共厕所,女洗手间,北滨大道二段998号万达广场1F层,重庆市,重庆市,万州区,108.37970099354479,30.813220291266884
女洗手间(万达广场),公共设施,公共厕所,女洗手间,北滨大道二段998号万达广场1F层,重庆市,重庆市,万州区,108.37930924189632,30.814276011897526
男洗手间(重庆万州五桥机场),公共设施,公共厕所,男洗手间,机场路重庆万州五桥机场2F层,重庆市,重庆市,万州区,108.42755761762201,30.799970319832035
女洗手间(重庆万州五桥机场),公共设施,公共厕所,女洗手间,机场路重庆万州五桥机场2F层,重庆市,重庆市,万州区,108.42752356511713,30.79998326782308
男洗手间(重庆万州五桥机场),公共设施,公共厕所,男洗手间,机场路重庆万州五桥机场2F层,重庆市,重庆市,万州区,108.42665424792537,30.80025398912328
女洗手间(重庆万州五桥机场),公共设施,公共厕所,女洗手间,机场路重庆万州五桥机场2F层,重庆市,重庆市,万州区,108.42667928543615,30.800245026127307
母婴室(万达广场),公共设施,公共厕所,婴儿换洗间/哺乳室/母婴室,北滨大道二段998号万达广场1F层,重庆市,重庆市,万州区,108.37967601510893,30.81320531819671
母婴室(万达广场),公共设施,公共厕所,婴儿换洗间/哺乳室/母婴室,北滨大道二段998号万达广场5F层,重庆市,重庆市,万州区,108.37968400775962,30.813216306195695
母婴室(万达广场),公共设施,公共厕所,婴儿换洗间/哺乳室/母婴室,北滨大道二段998号万达广场3F层,重庆市,重庆市,万州区,108.37967601460552,30.813212314379598
婴儿换洗间/哺乳室/母婴室(重庆万州五桥机场),公共设施,公共厕所,婴儿换洗间/哺乳室/母婴室,机场路重庆万州五桥机场2F层,重庆市,重庆市,万州区,108.42663121733835,30.800207984348738
中国网通IP话吧,公共设施,公用电话,公用电话,上海支路,重庆市,重庆市,万州区,108.43813291131042,30.76288024106455
公用电话(重庆万州五桥机场),公共设施,公用电话,公用电话,机场路重庆万州五桥机场2F层,重庆市,重庆市,万州区,108.42703983106168,30.800086577804795
应急避难入口,公共设施,紧急避难场所,紧急避难场所,山湾街289号红光小学附近,重庆市,重庆市,万州区,108.35098431715664,30.82109926143025
沙河社区应急避难点,公共设施,紧急避难场所,紧急避难场所,花园路18号附近,重庆市,重庆市,万州区,108.35037683557016,30.829132823895335
应急避难场所,公共设施,紧急避难场所,紧急避难场所,北滨大道二段附近,重庆市,重庆市,万州区,108.37835486677015,30.81695329580292
应急避难场所(凤仙社区卫生服务站北),公共设施,紧急避难场所,紧急避难场所,凤仙路428附33附近,重庆市,重庆市,万州区,108.35956863215948,30.852095933504906
中国邮政报刊亭,公共设施,报刊亭,报刊亭,兴华西路与实验路交叉口西南50米,重庆市,重庆市,涪陵区,107.37921743793679,29.706085629776815
中国邮政报刊亭,公共设施,报刊亭,报刊亭,黎明南路与兴华西路交叉路口西侧(泰怡院),重庆市,重庆市,涪陵区,107.38009033381381,29.70682683518818
顺江报刊亭,公共设施,报刊亭,报刊亭,望州路18号19幢附近,重庆市,重庆市,涪陵区,107.39787279362734,29.69311690892478
报刊亭,公共设施,报刊亭,报刊亭,建涪路与人民东路交叉口西北方向20米,重庆市,重庆市,涪陵区,107.39691314375008,29.707196173266667
邮政报刊亭,公共设施,报刊亭,报刊亭,兴华西路与稻香路交叉口南100米,重庆市,重庆市,涪陵区,107.37514292661234,29.704287406979397
中国邮政报刊亭,公共设施,报刊亭,报刊亭,人民东路4号附近,重庆市,重庆市,涪陵区,107.39497379586959,29.709306930056375
顺江报刊亭,公共设施,报刊亭,报刊亭,荔枝街道顺园路顺江花园清江苑,重庆市,重庆市,涪陵区,107.39820271052143,29.692871963209527
邮政报刊,公共设施,报刊亭,报刊亭,高笋塘路7号附5号,重庆市,重庆市,涪陵区,107.39269029637494,29.704764171040413
中国邮政报刊亭,公共设施,报刊亭,报刊亭,兴华西路与黎明南路交叉口东北50米,重庆市,重庆市,涪陵区,107.38032906093116,29.706695685917396
报刊亭,公共设施,报刊亭,报刊亭,兴华中路与北斗路交叉口南50米,重庆市,重庆市,涪陵区,107.39139426424182,29.702204980952292
报刊亭,公共设施,报刊亭,报刊亭,三抚支路与黎明路交叉口西50米,重庆市,重庆市,涪陵区,107.38859984237733,29.708188774512685
中国邮政报刊亭,公共设施,报刊亭,报刊亭,双宝路10号附近,重庆市,重庆市,涪陵区,107.36865240966098,29.711824696842953
公共厕所,公共设施,公共厕所,公共厕所,龙桥互通与178县道交叉口南100米,重庆市,重庆市,涪陵区,107.31778985372254,29.684275854709114
公共厕所,公共设施,公共厕所,公共厕所,蔺市镇梨香溪大桥美心红酒小镇,重庆市,重庆市,涪陵区,107.17770449333518,29.66565215621565
公共厕所,公共设施,公共厕所,公共厕所,工贸职业技术学院机电实训中心附近,重庆市,重庆市,涪陵区,107.35991988268661,29.646921016695476
公共厕所,公共设施,公共厕所,公共厕所,滨江大道28号附近,重庆市,重庆市,涪陵区,107.3896896110801,29.71409828685227
公共厕所,公共设施,公共厕所,公共厕所,学府路与聚龙大道交叉口西北150米,重庆市,重庆市,涪陵区,107.26338703951856,29.759389880650865
公共厕所,公共设施,公共厕所,公共厕所,松翠路34号附近,重庆市,重庆市,涪陵区,107.37365820556154,29.70218721338363
公共厕所,公共设施,公共厕所,公共厕所,双塘路与太极大道交叉口东北200米,重庆市,重庆市,涪陵区,107.36783429371238,29.704523007003758
公共厕所,公共设施,公共厕所,公共厕所,黎明路2号附52号,重庆市,重庆市,涪陵区,107.38853389101742,29.70823279220226
公共厕所,公共设施,公共厕所,公共厕所,105省道与176县道交叉口北50米,重庆市,重庆市,涪陵区,107.51337543498613,29.73409904353648
公共厕所,公共设施,公共厕所,公共厕所,涪丰路与渝巴路交叉口东南100米,重庆市,重庆市,涪陵区,107.5964516934259,29.830988673203816
公共厕所,公共设施,公共厕所,公共厕所,万景风情别院东南(319国道西),重庆市,重庆市,涪陵区,107.40341001512316,29.690993057625157
公共厕所,公共设施,公共厕所,公共厕所,渝建路西50米,重庆市,重庆市,涪陵区,107.0623970801672,29.49386375683466
公共厕所,公共设施,公共厕所,公共厕所,建设东路与411省道交叉口西150米,重庆市,重庆市,涪陵区,107.10625399131818,29.442931995643455
公共厕所,公共设施,公共厕所,公共厕所,,重庆市,重庆市,涪陵区,107.02509679012195,29.53466649988316
公共厕所,公共设施,公共厕所,公共厕所,,重庆市,重庆市,涪陵区,107.25076355960539,29.720918440763853
公共厕所,公共设施,公共厕所,公共厕所,,重庆市,重庆市,涪陵区,106.98994524892609,29.512857021875227
公共厕所,公共设施,公共厕所,公共厕所,兴华西路南50米,重庆市,重庆市,涪陵区,107.36400659892078,29.711677374966285
公共厕所,公共设施,公共厕所,公共厕所,宏声大道,重庆市,重庆市,涪陵区,107.38436696518168,29.688257735250694
公共厕所,公共设施,公共厕所,公共厕所,黎明路114附近,重庆市,重庆市,涪陵区,107.3763816678505,29.71226780694211
公共厕所,公共设施,公共厕所,公共厕所,太极大道与望州路交叉口西南150米,重庆市,重庆市,涪陵区,107.39330756639431,29.695835786550916
公共厕所,公共设施,公共厕所,公共厕所,S204(边贸路),重庆市,重庆市,涪陵区,106.98635735883009,29.51162439263393
公共厕所,公共设施,公共厕所,公共厕所,涪清路234号附近,重庆市,重庆市,涪陵区,107.40580935661175,29.716446917322294
公共厕所,公共设施,公共厕所,公共厕所,涪清路63号附近,重庆市,重庆市,涪陵区,107.41420095774548,29.704209784675207
公共厕所,公共设施,公共厕所,公共厕所,站前大道,重庆市,重庆市,涪陵区,107.27181509928857,29.770404498949357
公共厕所,公共设施,公共厕所,公共厕所,延寿村3组,重庆市,重庆市,涪陵区,106.99139562308207,29.505452737448696
涪陵服务区公共厕所,公共设施,公共厕所,公共厕所,涪陵服务区与G69银百高速交叉口东南150米,重庆市,重庆市,涪陵区,107.3270812557773,29.643132742665134
公共厕所,公共设施,公共厕所,公共厕所,森林公园上行3公里仙女洞附近,重庆市,重庆市,涪陵区,107.3615591431374,29.68375514575179
公共厕所,公共设施,公共厕所,公共厕所,大顺乡李蔚如烈士陵园厕所,重庆市,重庆市,涪陵区,107.04329872685108,29.568274616008605
公共厕所,公共设施,公共厕所,公共厕所,迎宾大道东50米,重庆市,重庆市,涪陵区,107.3581658239527,29.7138190006801
公共厕所,公共设施,公共厕所,公共厕所,广场路19附16附近,重庆市,重庆市,涪陵区,107.3914229112463,29.707047050425917
公共厕所,公共设施,公共厕所,公共厕所,太极大道144附近,重庆市,重庆市,涪陵区,107.38574372050418,29.70174428731984
公共厕所,公共设施,公共厕所,公共厕所,人民西路与公园路交叉口西北200米,重庆市,重庆市,涪陵区,107.39362632471925,29.711320759402376
公共厕所,公共设施,公共厕所,公共厕所,,重庆市,重庆市,涪陵区,107.02022855297722,29.642706891713328
公共厕所,公共设施,公共厕所,公共厕所,319国道西100米,重庆市,重庆市,涪陵区,107.45943102608963,29.572155628529618
公共厕所,公共设施,公共厕所,公共厕所,建峰东路与静园路交叉口东南方向170米,重庆市,重庆市,涪陵区,107.46130923646051,29.539072386398683
公共厕所,公共设施,公共厕所,公共厕所,马武镇方碑村3社,重庆市,重庆市,涪陵区,107.23184215185759,29.60452722297527
公共厕所,公共设施,公共厕所,公共厕所,明深路,重庆市,重庆市,涪陵区,107.18279233189573,29.76639434261551
公共厕所,公共设施,公共厕所,公共厕所,东湾路与科义路交叉口西南方向170米,重庆市,重庆市,涪陵区,107.20114185054283,29.724752765329516
公共厕所,公共设施,公共厕所,公共厕所,大顺乡祥和兴厕所,重庆市,重庆市,涪陵区,107.06542755971896,29.520612362829695
公共厕所,公共设施,公共厕所,公共厕所,新妙镇护国路128号,重庆市,重庆市,涪陵区,107.06655215594466,29.656014034501403
公共厕所,公共设施,公共厕所,公共厕所,新政大道,重庆市,重庆市,涪陵区,107.06017224063814,29.66065359207994
公共厕所,公共设施,公共厕所,公共厕所,014乡道与665县道交叉口南50米,重庆市,重庆市,涪陵区,107.52920491496504,29.913000762661138
公共厕所,公共设施,公共厕所,公共厕所,新妙镇群益路50号社区办公楼旁,重庆市,重庆市,涪陵区,107.0504842176021,29.655465276461744
公共厕所,公共设施,公共厕所,公共厕所,新妙镇新兴路38号,重庆市,重庆市,涪陵区,107.04951887417914,29.657495624620292
公共厕所,公共设施,公共厕所,公共厕所,文观村4组硚梨山庄,重庆市,重庆市,涪陵区,107.24814904017282,29.60557016398066
公共厕所,公共设施,公共厕所,公共厕所,学府路武陵山大裂谷景区内,重庆市,重庆市,涪陵区,107.5472429998646,29.49055383285171
公共厕所,公共设施,公共厕所,公共厕所,力帆路杰勋广场,重庆市,重庆市,涪陵区,107.05579236449294,29.659400847735004
公共厕所,公共设施,公共厕所,公共厕所,蚂蚁寺附近,重庆市,重庆市,涪陵区,107.25405558376617,29.43642074481934
公共厕所,公共设施,公共厕所,公共厕所,新妙镇力帆支路,重庆市,重庆市,涪陵区,107.0600317613007,29.65793845451764
公共厕所,公共设施,公共厕所,公共厕所,新妙镇护国路农商行旁,重庆市,重庆市,涪陵区,107.05957690636929,29.657359282451342
公共厕所,公共设施,公共厕所,公共厕所,,重庆市,重庆市,涪陵区,107.08020438409687,29.565953240050533
公共厕所,公共设施,公共厕所,公共厕所,学府路1号附近,重庆市,重庆市,涪陵区,107.55907807796068,29.53160632715148
公共厕所,公共设施,公共厕所,公共厕所,XC93(八新路),重庆市,重庆市,涪陵区,107.06674177704441,29.655750867853563
公共厕所,公共设施,公共厕所,公共厕所,新妙镇新妙大道青杠坪路口,重庆市,重庆市,涪陵区,107.07098711716486,29.65972215550477
公共厕所,公共设施,公共厕所,公共厕所,镇大路,重庆市,重庆市,涪陵区,107.15725021158079,29.741892289281203
公共厕所,公共设施,公共厕所,公共厕所,清原路,重庆市,重庆市,涪陵区,107.06174064537707,29.65868276917279
公共厕所,公共设施,公共厕所,公共厕所,青羊镇庄园路,重庆市,重庆市,涪陵区,107.20162759234177,29.524489008001055
公共厕所,公共设施,公共厕所,公共厕所,,重庆市,重庆市,涪陵区,107.11544518905205,29.579215362131997
公共厕所,公共设施,公共厕所,公共厕所,三羊公路与184县道交叉口西50米,重庆市,重庆市,涪陵区,106.9800511604366,29.57960358911836
公共厕所,公共设施,公共厕所,公共厕所,马武镇清溪山谷生态餐厅内,重庆市,重庆市,涪陵区,107.22745717066068,29.626741194899207
公共厕所,公共设施,公共厕所,公共厕所,大顺乡简约山居,重庆市,重庆市,涪陵区,107.02960581544814,29.53663183023123
公共厕所,公共设施,公共厕所,公共厕所,宛平路148西50米,重庆市,重庆市,涪陵区,107.13937243759267,29.70721324496537
公共厕所,公共设施,公共厕所,公共厕所,涌秀东路,重庆市,重庆市,涪陵区,107.19487845749532,29.725633012772686
公共厕所,公共设施,公共厕所,公共厕所,渝巴路南50米,重庆市,重庆市,涪陵区,106.99466848612747,29.66669693373862
公共厕所,公共设施,公共厕所,公共厕所,,重庆市,重庆市,涪陵区,107.44178303997508,29.72771144826731
公共厕所,公共设施,公共厕所,公共厕所,焦岩路附近,重庆市,重庆市,涪陵区,107.46319013459535,29.879440679694717
公共厕所,公共设施,公共厕所,公共厕所,大顺乡双水湖生态湿地,重庆市,重庆市,涪陵区,107.05608174686027,29.506607942538874
公共厕所,公共设施,公共厕所,公共厕所,太白大道,重庆市,重庆市,涪陵区,107.26733994629384,29.75500653889369
公共厕所,公共设施,公共厕所,公共厕所,G319(桃大路),重庆市,重庆市,涪陵区,107.2003852801045,29.811188510905836
公共厕所,公共设施,公共厕所,公共厕所,川祖庙街6,重庆市,重庆市,涪陵区,107.19485644708823,29.66497514735884
公共厕所,公共设施,公共厕所,公共厕所,义大路与中科大道交叉口西南方向160米,重庆市,重庆市,涪陵区,107.21731523801972,29.730891878374628
公共厕所,公共设施,公共厕所,公共厕所,惠万路,重庆市,重庆市,涪陵区,107.23240021741321,29.603687754812228
公共厕所,公共设施,公共厕所,公共厕所,罗云街,重庆市,重庆市,涪陵区,107.59575817223039,29.779655734899404
公共厕所,公共设施,公共厕所,公共厕所,李渡街道十二居,重庆市,重庆市,涪陵区,107.21476948791714,29.823502025647265
公共厕所,公共设施,公共厕所,公共厕所,中科大道与庄园路交叉口西南方向50米,重庆市,重庆市,涪陵区,107.20112448300705,29.73001386129786
公共厕所,公共设施,公共厕所,公共厕所,大木花谷林下花园山羊顶,重庆市,重庆市,涪陵区,107.65951386781005,29.62135449866507
涪陵游永公共厕所,公共设施,公共厕所,公共厕所,双拥路,重庆市,重庆市,涪陵区,107.66505306942702,29.62352332278351
公共厕所,公共设施,公共厕所,公共厕所,聚源大道与盘龙路交叉口东北方向80米,重庆市,重庆市,涪陵区,107.23024763662056,29.716904460460967
公共厕所,公共设施,公共厕所,公共厕所,蚕源路,重庆市,重庆市,涪陵区,107.21073236953362,29.734694969107675
公共厕所,公共设施,公共厕所,公共厕所,007乡道附近,重庆市,重庆市,涪陵区,107.38600727821385,29.733595514009966
公共厕所,公共设施,公共厕所,公共厕所,,重庆市,重庆市,涪陵区,107.60238468312644,29.650682533065112
公共厕所,公共设施,公共厕所,公共厕所,,重庆市,重庆市,涪陵区,107.6139303599362,29.59217907029669
公共厕所,公共设施,公共厕所,公共厕所,八新路与蔺两路交叉路口北侧,重庆市,重庆市,涪陵区,107.10004047625556,29.635392506704836
公共厕所,公共设施,公共厕所,公共厕所,,重庆市,重庆市,涪陵区,107.1237551849747,29.52294164780852
公共厕所,公共设施,公共厕所,公共厕所,,重庆市,重庆市,涪陵区,107.29456620876694,29.73836134263652
公共厕所,公共设施,公共厕所,公共厕所,大木花谷梦幻广场,重庆市,重庆市,涪陵区,107.65333465337245,29.621243073985323
涪陵西服务区公共厕所,公共设施,公共厕所,公共厕所,G50S沪渝南线高速北150米,重庆市,重庆市,涪陵区,107.28394375863351,29.700020721483956
公共厕所,公共设施,公共厕所,公共厕所,人民东路9附近,重庆市,重庆市,涪陵区,107.39566747112707,29.70955381143265
公共厕所,公共设施,公共厕所,公共厕所,177县道北50米,重庆市,重庆市,涪陵区,107.35238219429083,29.742249083199063
公共厕所,公共设施,公共厕所,公共厕所,,重庆市,重庆市,涪陵区,107.11991935444074,29.575883764678032
公共厕所,公共设施,公共厕所,公共厕所,,重庆市,重庆市,涪陵区,107.2657309236117,29.7593352065082
公共厕所,公共设施,公共厕所,公共厕所,兴涪路,重庆市,重庆市,涪陵区,107.35475419754401,29.725131123202985
公共厕所,公共设施,公共厕所,公共厕所,新大兴国际农副产品交易中心西北,重庆市,重庆市,涪陵区,107.36114136681176,29.70683308699855
公共厕所,公共设施,公共厕所,公共厕所,援建路,重庆市,重庆市,涪陵区,107.14168531290699,29.690545222523212
公共厕所,公共设施,公共厕所,公共厕所,碧海新城(319国道东),重庆市,重庆市,涪陵区,107.3661361925748,29.705240901526032
公共厕所,公共设施,公共厕所,公共厕所,兴华西路与百花路交叉口东北180米,重庆市,重庆市,涪陵区,107.36366817927113,29.712353688970076
公共厕所,公共设施,公共厕所,公共厕所,南涪高速,重庆市,重庆市,涪陵区,107.25419318527003,29.758663651869362
公共厕所,公共设施,公共厕所,公共厕所,004乡道西50米附近,重庆市,重庆市,涪陵区,107.25624300642713,29.837212791337052
公共厕所,公共设施,公共厕所,公共厕所,洗墨路10号附近,重庆市,重庆市,涪陵区,107.37056564132338,29.706617539309203
公共场所,公共设施,公共厕所,公共厕所,松翠路27号西100米,重庆市,重庆市,涪陵区,107.37375507134163,29.70207314148853
公共厕所,公共设施,公共厕所,公共厕所,,重庆市,重庆市,涪陵区,107.4390295265242,29.73324745074833
公共厕所,公共设施,公共厕所,公共厕所,焦石镇瓦窑村委会,重庆市,重庆市,涪陵区,107.51066880625905,29.674952529816057
公共厕所,公共设施,公共厕所,公共厕所,天寨路,重庆市,重庆市,涪陵区,107.13841057478983,29.733390181613103
公共厕所,公共设施,公共厕所,公共厕所,临江6社,重庆市,重庆市,涪陵区,107.13889692768048,29.736440455285038
公共厕所,公共设施,公共厕所,公共厕所,顺江大道36号-附23号南90米,重庆市,重庆市,涪陵区,107.39787692881816,29.6911413117067
公共厕所,公共设施,公共厕所,公共厕所,,重庆市,重庆市,涪陵区,107.39115107905393,29.692694933489445
公共厕所,公共设施,公共厕所,公共厕所,顺江大道与望江路交叉口西北方向110米,重庆市,重庆市,涪陵区,107.39737999914554,29.692457045058447
公共厕所,公共设施,公共厕所,公共厕所,,重庆市,重庆市,涪陵区,107.43247786846999,29.731260859052078
公共厕所(CQ-FL-0138),公共设施,公共厕所,公共厕所,江北街道邓家村,重庆市,重庆市,涪陵区,107.41086851658055,29.789462900080146
公共厕所,公共设施,公共厕所,公共厕所,白果路与顺江大道交叉口东南方向100米,重庆市,重庆市,涪陵区,107.39478903238295,29.692659189692645
公共厕所,公共设施,公共厕所,公共厕所,御泉河漂流起点,重庆市,重庆市,涪陵区,107.48675867546693,29.638459243710976
公共厕所,公共设施,公共厕所,公共厕所,百花路与滨江大道交叉口西南方向40米,重庆市,重庆市,涪陵区,107.37002952186243,29.720850544619395
公共厕所,公共设施,公共厕所,公共厕所,兴华西路38号附近,重庆市,重庆市,涪陵区,107.37435281987476,29.70763351070572
公共厕所,公共设施,公共厕所,公共厕所,朋乐路与桃岭街交叉口西南方向190米,重庆市,重庆市,涪陵区,107.41398731275834,29.69737995686903
公共厕所,公共设施,公共厕所,公共厕所,S103(渝巴路),重庆市,重庆市,涪陵区,107.17590447277162,29.67018878175368
公共厕所,公共设施,公共厕所,公共厕所,人民东路与公园路交叉口东北200米,重庆市,重庆市,涪陵区,107.39554743516781,29.710818588907813
公共厕所,公共设施,公共厕所,公共厕所,306省道东50米,重庆市,重庆市,涪陵区,107.35348982857509,29.741238486919283
公共厕所,公共设施,公共厕所,公共厕所,武陵山村,重庆市,重庆市,涪陵区,107.55096461614004,29.55470492248589
公共厕所,公共设施,公共厕所,公共厕所,,重庆市,重庆市,涪陵区,107.18075327212581,29.662109567104462
公共厕所,公共设施,公共厕所,公共厕所,江东街道太阳村深山驿站,重庆市,重庆市,涪陵区,107.48645376021041,29.667223213864535
公共厕所,公共设施,公共厕所,公共厕所,惠民清溪山谷西瓜采摘园,重庆市,重庆市,涪陵区,107.22837959583285,29.622910864185542
公共厕所,公共设施,公共厕所,公共厕所,江东滨江公园,重庆市,重庆市,涪陵区,107.40646198359391,29.708535604291477
公共厕所,公共设施,公共厕所,公共厕所,广场路与育才路交叉口东南方向140米,重庆市,重庆市,涪陵区,107.39189575171642,29.70504730433337
公共厕所,公共设施,公共厕所,公共厕所,顺江大道54号附近,重庆市,重庆市,涪陵区,107.40043438420768,29.68995671693471
公共厕所,公共设施,公共厕所,公共厕所,双龙村,重庆市,重庆市,涪陵区,107.48322077227203,29.765760020967583
公共厕所,公共设施,公共厕所,公共厕所,建陶一路,重庆市,重庆市,涪陵区,107.41944072715688,29.701954700687182
公共厕所,公共设施,公共厕所,公共厕所,,重庆市,重庆市,涪陵区,107.23627219544346,29.61493999094673
公共厕所,公共设施,公共厕所,公共厕所,,重庆市,重庆市,涪陵区,107.20917762518074,29.529154371153602
公共厕所,公共设施,公共厕所,公共厕所,金子山村1社,重庆市,重庆市,涪陵区,107.52573642918607,29.51439046176609
公共厕所,公共设施,公共厕所,公共厕所,江土路,重庆市,重庆市,涪陵区,107.61695135720385,29.575926720354953
公共厕所,公共设施,公共厕所,公共厕所,悦来社区,重庆市,重庆市,涪陵区,107.60743366406183,29.65337938936023
公共厕所,公共设施,公共厕所,公共厕所,茶园路,重庆市,重庆市,涪陵区,107.55801225277825,29.532038518243077
公共厕所,公共设施,公共厕所,公共厕所,,重庆市,重庆市,涪陵区,107.50762496719618,29.840834327768622
公共厕所,公共设施,公共厕所,公共厕所,清溪互通与石渝高速公路交叉口西北方向140米,重庆市,重庆市,涪陵区,107.46967789647748,29.800877462949057
公共厕所,公共设施,公共厕所,公共厕所,建峰东路,重庆市,重庆市,涪陵区,107.46158886899111,29.54079443505211
公共厕所,公共设施,公共厕所,公共厕所,枫林路与田园路交叉口西北方向40米,重庆市,重庆市,涪陵区,107.19822926969226,29.729102678756153
公共厕所,公共设施,公共厕所,公共厕所,珍溪镇桃花山,重庆市,重庆市,涪陵区,107.46154136484138,29.912783275594567
公共厕所,公共设施,公共厕所,公共厕所,凤贯路,重庆市,重庆市,涪陵区,107.50392973849385,29.874474447692393
公共厕所,公共设施,公共厕所,公共厕所,古今花海,重庆市,重庆市,涪陵区,107.23391427759131,29.60222389400077
公共厕所,公共设施,公共厕所,公共厕所,狮子梁村,重庆市,重庆市,涪陵区,107.52720707799347,29.750281548945182
公共厕所,公共设施,公共厕所,公共厕所,,重庆市,重庆市,涪陵区,107.2337091916747,29.739978354449274
公共厕所,公共设施,公共厕所,公共厕所,,重庆市,重庆市,涪陵区,107.37588241011909,29.69687518235023
公共厕所,公共设施,公共厕所,公共厕所,稻香路,重庆市,重庆市,涪陵区,107.36914817766599,29.7032287468965
公共厕所,公共设施,公共厕所,公共厕所,,重庆市,重庆市,涪陵区,107.60089975113496,29.5517466758274
公共厕所,公共设施,公共厕所,公共厕所,白焦路,重庆市,重庆市,涪陵区,107.60356395506399,29.653250409259005
公共厕所,公共设施,公共厕所,公共厕所,卷大路,重庆市,重庆市,涪陵区,107.60746535737728,29.65773830191609
公共厕所,公共设施,公共厕所,公共厕所,太极大道,重庆市,重庆市,涪陵区,107.37826710711128,29.699075726805106
公共厕所,公共设施,公共厕所,公共厕所,太极大道51号-8北70米,重庆市,重庆市,涪陵区,107.38189457666687,29.702354427657045
应急避难场所,公共设施,公共厕所,公共厕所,人民西路108附2号附近,重庆市,重庆市,涪陵区,107.38220647786075,29.713316170472606
罗云乡旅游厕所,公共设施,公共厕所,公共厕所,罗云乡烈士陵园,重庆市,重庆市,涪陵区,107.5952352602724,29.77928782674641
公共厕所,公共设施,公共厕所,公共厕所,南涪高速与渝巴路交叉口东150米,重庆市,重庆市,涪陵区,107.28566957937042,29.709869499302407
望州公园-公共厕所,公共设施,公共厕所,公共厕所,体育南路与太极大道交叉口东南200米,重庆市,重庆市,涪陵区,107.39056212812773,29.697696105077053
公共厕所,公共设施,公共厕所,公共厕所,建设路73附近,重庆市,重庆市,涪陵区,107.37556843489783,29.717295624024608
旅游厕所,公共设施,公共厕所,公共厕所,武白路,重庆市,重庆市,涪陵区,107.54007606284755,29.557288789068874
公共厕所,公共设施,公共厕所,公共厕所,,重庆市,重庆市,涪陵区,107.56013478614416,29.82199996022342
公共厕所,公共设施,公共厕所,公共厕所,罗云烈士陵园,重庆市,重庆市,涪陵区,107.59702895748741,29.77972356015637
公共厕所,公共设施,公共厕所,公共厕所,罗云街,重庆市,重庆市,涪陵区,107.59520724579514,29.779554797347078
公共厕所,公共设施,公共厕所,公共厕所,182县道附近,重庆市,重庆市,涪陵区,107.50700292113191,29.556816248618127
公共厕所,公共设施,公共厕所,公共厕所,珍溪大桥,重庆市,重庆市,涪陵区,107.46151199680021,29.902434507214103
旅游厕所,公共设施,公共厕所,公共厕所,,重庆市,重庆市,涪陵区,107.56087668990071,29.536248167762785
公共厕所,公共设施,公共厕所,公共厕所,雨台村村民委员会,重庆市,重庆市,涪陵区,107.64183860138596,29.61357948721176
公共厕所,公共设施,公共厕所,公共厕所,大木花谷景区大门口,重庆市,重庆市,涪陵区,107.66797552853518,29.6290991616428
公共厕所,公共设施,公共厕所,公共厕所,,重庆市,重庆市,涪陵区,107.66232959730259,29.626770620034232
公共厕所,公共设施,公共厕所,公共厕所,大木花谷林下花园蔓园处,重庆市,重庆市,涪陵区,107.66180493415231,29.623263604757224
公共厕所,公共设施,公共厕所,公共厕所,李渡互通与南涪高速公路交叉口东北方向120米,重庆市,重庆市,涪陵区,107.27419396047398,29.72863219393685
公共厕所,公共设施,公共厕所,公共厕所,,重庆市,重庆市,涪陵区,107.57399530872824,29.55138261538891
公共厕所,公共设施,公共厕所,公共厕所,,重庆市,重庆市,涪陵区,107.26337651912685,29.84238453326473
公共厕所,公共设施,公共厕所,公共厕所,004乡道附近,重庆市,重庆市,涪陵区,107.25466370162887,29.834581591638507
公共厕所,公共设施,公共厕所,公共厕所,,重庆市,重庆市,涪陵区,107.29346352195212,29.741471609496582
公共厕所,公共设施,公共厕所,公共厕所,渝巴路西50米,重庆市,重庆市,涪陵区,107.23757242839007,29.683634090513603
公共厕所,公共设施,公共厕所,公共厕所,宏声大道北100米,重庆市,重庆市,涪陵区,107.37503010337089,29.689524445840316
公共厕所,公共设施,公共厕所,公共厕所,,重庆市,重庆市,涪陵区,107.36569079824055,29.693407771593044
公共厕所,公共设施,公共厕所,公共厕所,太极大道1号(白鹤森林公园)涪州书院附近,重庆市,重庆市,涪陵区,107.37880863575491,29.696044897951136
公共厕所,公共设施,公共厕所,公共厕所,兴华西路与稻香路交叉口西南150米,重庆市,重庆市,涪陵区,107.37486133881288,29.7040747076288
公共厕所,公共设施,公共厕所,公共厕所,022乡道附近,重庆市,重庆市,涪陵区,107.59690494587223,29.550804975905447
公共厕所,公共设施,公共厕所,公共厕所,开綦路与梓白高速交叉口西100米,重庆市,重庆市,涪陵区,107.36546545798578,29.573121660287452
公共厕所,公共设施,公共厕所,公共厕所,洗墨路,重庆市,重庆市,涪陵区,107.37205782499254,29.713571682039888
公共厕所,公共设施,公共厕所,公共厕所,迎宾大道,重庆市,重庆市,涪陵区,107.35045519757367,29.73221777311449
公共厕所,公共设施,公共厕所,公共厕所,G319乌江赤壁观景平台,重庆市,重庆市,涪陵区,107.38630235283335,29.612699656543306
公共厕所,公共设施,公共厕所,公共厕所,滨江大道江南滨江公园,重庆市,重庆市,涪陵区,107.35476863550048,29.732860820987565
公共厕所,公共设施,公共厕所,公共厕所,滨江大道与澳海大道交叉口西北150米,重庆市,重庆市,涪陵区,107.36810556335324,29.722949353492194
公共厕所(CQ-FL-0069),公共设施,公共厕所,公共厕所,007乡道附近,重庆市,重庆市,涪陵区,107.39334225741464,29.728962733657212
公共厕所,公共设施,公共厕所,公共厕所,G319(厦成线),重庆市,重庆市,涪陵区,107.4558825833478,29.577747098483457
公共厕所,公共设施,公共厕所,公共厕所,,重庆市,重庆市,涪陵区,107.59793573814514,29.780056359231033
公共厕所,公共设施,公共厕所,公共厕所,武陵峡旅游度假区漂流,重庆市,重庆市,涪陵区,107.52181733667867,29.56866823101881
公共厕所,公共设施,公共厕所,公共厕所,X182(双叉河大桥),重庆市,重庆市,涪陵区,107.52600653496096,29.57020690597606
公共厕所,公共设施,公共厕所,公共厕所,茶园路,重庆市,重庆市,涪陵区,107.53660439518367,29.526151750106134
公共厕所,公共设施,公共厕所,公共厕所,兴华西路与松翠路交叉口西50米,重庆市,重庆市,涪陵区,107.36841416588119,29.70664693187063
公共厕所,公共设施,公共厕所,公共厕所,渝丰路北50米,重庆市,重庆市,涪陵区,107.455034062868,29.832650303481653
公共厕所,公共设施,公共厕所,公共厕所,武陵山村立帝坪,重庆市,重庆市,涪陵区,107.55439806262312,29.558329690409327
公共厕所,公共设施,公共厕所,公共厕所,太极大道74附19号附近,重庆市,重庆市,涪陵区,107.37368023587274,29.701278367996263
公共厕所,公共设施,公共厕所,公共厕所,太极大道南50米,重庆市,重庆市,涪陵区,107.37583618799569,29.70101740916781
公共厕所,公共设施,公共厕所,公共厕所,兴华中路37附10号附近,重庆市,重庆市,涪陵区,107.39090456030812,29.70256405089268
公共厕所,公共设施,公共厕所,公共厕所,睦和村,重庆市,重庆市,涪陵区,107.47469184128757,29.859559847471736
公共厕所,公共设施,公共厕所,公共厕所,G69(银百高速),重庆市,重庆市,涪陵区,107.54058908382919,29.834034784171514
公共厕所,公共设施,公共厕所,公共厕所,渝巴路西150米,重庆市,重庆市,涪陵区,107.42328957103213,29.77042490138185
公共厕所,公共设施,公共厕所,公共厕所,武陵山大裂谷景区游客中心,重庆市,重庆市,涪陵区,107.5664350376466,29.53164831888021
公共厕所,公共设施,公共厕所,公共厕所,丰收村卫生室,重庆市,重庆市,涪陵区,107.54561789742466,29.78795970860767
公共厕所,公共设施,公共厕所,公共厕所,建设村,重庆市,重庆市,涪陵区,107.54590793812443,29.82744455737037
公共厕所,公共设施,公共厕所,公共厕所,大木林下花园停车场处,重庆市,重庆市,涪陵区,107.66431837448123,29.627223692779868
公共厕所,公共设施,公共厕所,公共厕所,龙翔路165号,重庆市,重庆市,涪陵区,107.2910218106618,29.714500881621092
公共厕所,公共设施,公共厕所,公共厕所,大木花谷花谷海棠园,重庆市,重庆市,涪陵区,107.67262939065311,29.634374812018542
公共厕所,公共设施,公共厕所,公共厕所,卷大路郁金香文化广场,重庆市,重庆市,涪陵区,107.66592966088861,29.631914313998994
公共厕所,公共设施,公共厕所,公共厕所,新苑路与步行街交叉口北50米,重庆市,重庆市,涪陵区,107.46843045809622,29.900579712594286
公共厕所,公共设施,公共厕所,公共厕所,105省道与303省道交叉口南200米,重庆市,重庆市,涪陵区,107.35569256274292,29.67608125980664
公共厕所,公共设施,公共厕所,公共厕所,太极大道与鹅颈关立交桥交叉口南200米,重庆市,重庆市,涪陵区,107.36232911006802,29.706386561973222
公共厕所,公共设施,公共厕所,公共厕所,太极大道201附近,重庆市,重庆市,涪陵区,107.36332697477931,29.710038559134624
公共厕所,公共设施,公共厕所,公共厕所,兴涪路与迎宾大道交叉口南100米,重庆市,重庆市,涪陵区,107.35253409938736,29.724175758856028
公共厕所,公共设施,公共厕所,公共厕所,宏声大道50号附近,重庆市,重庆市,涪陵区,107.38937836273945,29.692059633135287
公共厕所,公共设施,公共厕所,公共厕所,319国道西50米,重庆市,重庆市,涪陵区,107.4784688970238,29.542607794050404
公共厕所,公共设施,公共厕所,公共厕所,渝丰路南50米,重庆市,重庆市,涪陵区,107.45768815581752,29.899376104158833
公共厕所,公共设施,公共厕所,公共厕所,大坪南路85号附近,重庆市,重庆市,涪陵区,107.56214412133423,29.605742924492944
公共厕所,公共设施,公共厕所,公共厕所,实验路与松翠路交叉口西北100米,重庆市,重庆市,涪陵区,107.38138406085586,29.703587534181697
公共厕所,公共设施,公共厕所,公共厕所,适园路西50米,重庆市,重庆市,涪陵区,107.06403522502355,29.661499927239703
公共厕所,公共设施,公共厕所,公共厕所,渝巴路西50米,重庆市,重庆市,涪陵区,107.08151970239356,29.6840983508935
公共厕所,公共设施,公共厕所,公共厕所,八新路与两汇大桥交叉口东150米,重庆市,重庆市,涪陵区,107.09913714431347,29.63066155946582
公共厕所,公共设施,公共厕所,公共厕所,渝建路东50米,重庆市,重庆市,涪陵区,107.11357535838985,29.448287218731412
公共厕所,公共设施,公共厕所,公共厕所,S103(南涪路),重庆市,重庆市,涪陵区,107.09567086132762,29.69036176088532
公共厕所,公共设施,公共厕所,公共厕所,安镇西路与渝建路交叉口南100米,重庆市,重庆市,涪陵区,107.17449337319096,29.503284671884852
公共厕所,公共设施,公共厕所,公共厕所,C93县道南50米,重庆市,重庆市,涪陵区,107.17356541350053,29.647513878877586
公共厕所,公共设施,公共厕所,公共厕所,S103(南涪路),重庆市,重庆市,涪陵区,107.17940497664036,29.66658506153097
公共厕所,公共设施,公共厕所,公共厕所,安镇东路西100米,重庆市,重庆市,涪陵区,107.2060958246569,29.529237345288927
公共厕所,公共设施,公共厕所,公共厕所,凤阳大道与渝巴路交叉口东50米,重庆市,重庆市,涪陵区,107.19882627744707,29.66390458902397
公共厕所,公共设施,公共厕所,公共厕所,凤阳大道与渝巴路交叉口北150米,重庆市,重庆市,涪陵区,107.1971963699557,29.663874095139985
公共厕所,公共设施,公共厕所,公共厕所,聚龙大道南50米,重庆市,重庆市,涪陵区,107.26156238866848,29.75831420095256
公共厕所,公共设施,公共厕所,公共厕所,渝建路东100米,重庆市,重庆市,涪陵区,107.3122566334467,29.589792490368453
公共厕所,公共设施,公共厕所,公共厕所,桃大路与聚龙大道交叉口东100米,重庆市,重庆市,涪陵区,107.28110156999958,29.75670496373845
公共厕所,公共设施,公共厕所,公共厕所,新华街与655县道交叉口东南50米,重庆市,重庆市,涪陵区,107.29603490388472,29.736905202301294
公共厕所,公共设施,公共厕所,公共厕所,渝建路西50米,重庆市,重庆市,涪陵区,107.3228056230886,29.611302779625735
公共厕所,公共设施,公共厕所,公共厕所,桃大路西50米,重庆市,重庆市,涪陵区,107.29622705265609,29.75775980856881
公共厕所,公共设施,公共厕所,公共厕所,渝巴路南50米,重庆市,重庆市,涪陵区,107.31292776959378,29.739892863528013
公共厕所,公共设施,公共厕所,公共厕所,渝巴路北50米,重庆市,重庆市,涪陵区,107.32404676299436,29.738151954719736
公共厕所,公共设施,公共厕所,公共厕所,105省道东50米,重庆市,重庆市,涪陵区,107.35918052787989,29.659051061204956
公共厕所,公共设施,公共厕所,公共厕所,开綦路与渝丰路交叉口西50米,重庆市,重庆市,涪陵区,107.33927658573594,29.780557447595676
公共厕所,公共设施,公共厕所,公共厕所,319国道东50米,重庆市,重庆市,涪陵区,107.38465379652008,29.62860397886242
公共厕所,公共设施,公共厕所,公共厕所,319国道西50米,重庆市,重庆市,涪陵区,107.38419794145364,29.676536345402535
公共厕所,公共设施,公共厕所,公共厕所,滨江大道,重庆市,重庆市,涪陵区,107.37658596491833,29.718463517853042
公共厕所,公共设施,公共厕所,公共厕所,体育南路3号附2号附近,重庆市,重庆市,涪陵区,107.38584252897945,29.703202955907575
公共厕所,公共设施,公共厕所,公共厕所,滨江大道北50米,重庆市,重庆市,涪陵区,107.38502145820694,29.715354127899857
公共厕所,公共设施,公共厕所,公共厕所,滨江大道二段71号附近,重庆市,重庆市,涪陵区,107.3938030548083,29.71388126200381
公共厕所,公共设施,公共厕所,公共厕所,顺江大道38号,重庆市,重庆市,涪陵区,107.39851572203445,29.691407270564778
公共厕所,公共设施,公共厕所,公共厕所,顺江大道长柳坡紫御江山B区,重庆市,重庆市,涪陵区,107.39982957459978,29.688898871306073
公共厕所,公共设施,公共厕所,公共厕所,177县道西50米,重庆市,重庆市,涪陵区,107.38181849197171,29.777116857778108
公共厕所,公共设施,公共厕所,公共厕所,兴华东路53号附近,重庆市,重庆市,涪陵区,107.40280333096102,29.701225870305592
公共厕所,公共设施,公共厕所,公共厕所,涪清路296附近,重庆市,重庆市,涪陵区,107.406055294701,29.71774077756157
公共厕所,公共设施,公共厕所,公共厕所,团结路28号附近,重庆市,重庆市,涪陵区,107.41508384874847,29.698652531417192
公共厕所,公共设施,公共厕所,公共厕所,319国道东50米,重庆市,重庆市,涪陵区,107.45188952355714,29.583640878109335
公共厕所,公共设施,公共厕所,公共厕所,319国道西50米,重庆市,重庆市,涪陵区,107.46391539385918,29.56741766841117
公共厕所,公共设施,公共厕所,公共厕所,319国道东50米,重庆市,重庆市,涪陵区,107.48185775309818,29.538788094865698
公共厕所,公共设施,公共厕所,公共厕所,渝丰路东50米,重庆市,重庆市,涪陵区,107.44456612582954,29.85044122298299
公共厕所,公共设施,公共厕所,公共厕所,渝巴路北50米,重庆市,重庆市,涪陵区,107.47358015525765,29.805593799540247
公共厕所,公共设施,公共厕所,公共厕所,渝巴路与018乡道交叉口西50米,重庆市,重庆市,涪陵区,107.47972000700646,29.80587928726824
公共厕所,公共设施,公共厕所,公共厕所,开綦路东50米,重庆市,重庆市,涪陵区,107.45017506358462,29.984092327100765
公共厕所,公共设施,公共厕所,公共厕所,南府路与渝巴路交叉口东北100米,重庆市,重庆市,涪陵区,107.51815182953992,29.84588622599882
公共厕所,公共设施,公共厕所,公共厕所,渝丰路南50米,重庆市,重庆市,涪陵区,107.5372082667651,29.86993690169121
公共厕所,公共设施,公共厕所,公共厕所,渝巴路北50米,重庆市,重庆市,涪陵区,107.59326665130256,29.836056498575285
公共厕所,公共设施,公共厕所,公共厕所,双拥路与022乡道交叉口西南200米,重庆市,重庆市,涪陵区,107.66593707673448,29.625421094418446
公共厕所,公共设施,公共厕所,公共厕所,建设东路与411省道交叉口西北150米,重庆市,重庆市,涪陵区,107.10666988029662,29.444235563193086
公共厕所,公共设施,公共厕所,公共厕所,S103与凤阳大道交叉口西南方向80米,重庆市,重庆市,涪陵区,107.18468098949981,29.661914658116842
公共厕所,公共设施,公共厕所,公共厕所,凤阳大道21号附近,重庆市,重庆市,涪陵区,107.19308439049972,29.662223926821518
公共厕所,公共设施,公共厕所,公共厕所,655县道与990县道交叉口西北50米,重庆市,重庆市,涪陵区,107.29680695598164,29.738986612805743
公共厕所,公共设施,公共厕所,公共厕所,鹅颈关隧道(涪陵站),重庆市,重庆市,涪陵区,107.32867001292021,29.703393148814364
公共厕所,公共设施,公共厕所,公共厕所,S303与团结路交叉口东北方向90米,重庆市,重庆市,涪陵区,107.35810526710725,29.665476087429177
太极大酒店-洗手间,公共设施,公共厕所,公共厕所,体育南路16号(体育场旁),重庆市,重庆市,涪陵区,107.38620439189623,29.700432311985214
涪陵饭店-洗手间,公共设施,公共厕所,公共厕所,兴华中路43号(体育馆旁),重庆市,重庆市,涪陵区,107.38795167965597,29.70355591381551
公共厕所,公共设施,公共厕所,公共厕所,兴华中路41号附近,重庆市,重庆市,涪陵区,107.38853522320733,29.703409704723565
公共厕所,公共设施,公共厕所,公共厕所,宏声大道与望州路交叉口南50米,重庆市,重庆市,涪陵区,107.39524260144482,29.695882486342587
公共厕所,公共设施,公共厕所,公共厕所,建峰南路与816厂21号路交叉口北50米,重庆市,重庆市,涪陵区,107.44493704405131,29.541861859126918
公共厕所,公共设施,公共厕所,公共厕所,兴焦路与文教路交叉口东北200米,重庆市,重庆市,涪陵区,107.5988694731342,29.719391023895486
公共厕所,公共设施,公共厕所,公共厕所,聚龙大道89附22号附近,重庆市,重庆市,涪陵区,107.25662183945084,29.75890168836061
公共厕所,公共设施,公共厕所,公共厕所,黎明北路40附近,重庆市,重庆市,涪陵区,107.38096599154447,29.711474344154595
公共厕所,公共设施,公共厕所,公共厕所,南涪高速与655县道交叉口东50米,重庆市,重庆市,涪陵区,107.25599137335662,29.760323757804468
公共厕所,公共设施,公共厕所,公共厕所,滨江大道与澳海大道交叉口西北150米,重庆市,重庆市,涪陵区,107.36837513481684,29.722563108301603
公共厕所,公共设施,公共厕所,公共厕所,105省道东50米,重庆市,重庆市,涪陵区,107.35752251496879,29.650146649606157
公共厕所,公共设施,公共厕所,公共厕所,,重庆市,重庆市,涪陵区,107.36028509119548,29.647919251631127
涪陵东服务区公共厕所,公共设施,公共厕所,公共厕所,G50S沪渝南线高速附近,重庆市,重庆市,涪陵区,107.43933386830682,29.779860523219998
公共厕所,公共设施,公共厕所,公共厕所,兴华东路与滨江大道交叉口北100米,重庆市,重庆市,涪陵区,107.40493286227132,29.69361695980496
公共厕所,公共设施,公共厕所,公共厕所,兴华东路与滨江大道交叉口西100米,重庆市,重庆市,涪陵区,107.40363385511007,29.693258653422408
堡子城公园-公共厕所,公共设施,公共厕所,公共厕所,兴华中路与经桥路交叉口东50米,重庆市,重庆市,涪陵区,107.3842057686711,29.707900946395288
公共厕所,公共设施,公共厕所,公共厕所,人民西路57号外资大厦附近,重庆市,重庆市,涪陵区,107.3905832382571,29.71036567614478
公共厕所,公共设施,公共厕所,公共厕所,黎明北路7号附近,重庆市,重庆市,涪陵区,107.38319059420299,29.710922986348628
公共厕所,公共设施,公共厕所,公共厕所,兴华东路与望州路交叉口东100米,重庆市,重庆市,涪陵区,107.3971766278232,29.69883977192673
公共厕所,公共设施,公共厕所,公共厕所,中山路44号附近,重庆市,重庆市,涪陵区,107.3919462745926,29.711500086710043
公共厕所,公共设施,公共厕所,公共厕所,渝巴路西50米,重庆市,重庆市,涪陵区,107.29553524891239,29.71931194403876
公共厕所,公共设施,公共厕所,公共厕所,中山西路与中山路交叉口东北200米,重庆市,重庆市,涪陵区,107.392492850074,29.712885703182298
美心红酒小镇-公共厕所,公共设施,公共厕所,公共厕所,S103(渝巴路),重庆市,重庆市,涪陵区,107.18264071718366,29.66693484494654
公共厕所,公共设施,公共厕所,公共厕所,渝巴路与龙翔路交叉口东南50米,重庆市,重庆市,涪陵区,107.29190702801715,29.711723034003157
涪陵服务区公共厕所,公共设施,公共厕所,公共厕所,G69银百高速附近,重庆市,重庆市,涪陵区,107.32546729180851,29.645952110495507
涪陵东服务区公共厕所,公共设施,公共厕所,公共厕所,G50S沪渝南线高速东150米,重庆市,重庆市,涪陵区,107.4406844624988,29.778418169850568
公共厕所,公共设施,公共厕所,公共厕所,滨江大道北50米,重庆市,重庆市,涪陵区,107.35925545192957,29.73074751522
公共厕所,公共设施,公共厕所,公共厕所,滨江大道58号附近,重庆市,重庆市,涪陵区,107.38290258763068,29.715394351972712
公共厕所,公共设施,公共厕所,公共厕所,建涪路1号斜对面,重庆市,重庆市,涪陵区,107.38657911917075,29.71402857706549
凯元大酒店-洗手间,公共设施,公共厕所,公共厕所,武泰路与兴华中路交叉口东南方向30米,重庆市,重庆市,涪陵区,107.3859402954972,29.705289508239662
公共厕所,公共设施,公共厕所,公共厕所,乌江路东50米,重庆市,重庆市,涪陵区,107.40587347911938,29.700304952790002
公共厕所,公共设施,公共厕所,公共厕所,聚贤大道与鹤凤大道交叉口北200米,重庆市,重庆市,涪陵区,107.24626111619196,29.742893419205515
美心红酒小镇-旅游厕所,公共设施,公共厕所,公共厕所,S103(南涪路),重庆市,重庆市,涪陵区,107.18260461790574,29.66764061707818
公共厕所,公共设施,公共厕所,公共厕所,恒昌路与滨江大道交叉口东南100米,重庆市,重庆市,涪陵区,107.37527774799587,29.718629652232163
公共厕所,公共设施,公共厕所,公共厕所,兴华西路与洗墨路交叉口南150米,重庆市,重庆市,涪陵区,107.36989581715476,29.705201537380898
公共厕所,公共设施,公共厕所,公共厕所,渝巴路与C93县道交叉口西北100米,重庆市,重庆市,涪陵区,107.18819690542806,29.66206275979803
公共厕所,公共设施,公共厕所,公共厕所,聚贤大道南50米,重庆市,重庆市,涪陵区,107.27704377582062,29.746880224600286
公共厕所,公共设施,公共厕所,公共厕所,李渡镇健康街38号重庆市涪陵区第三人民医院附近,重庆市,重庆市,涪陵区,107.29456415645573,29.7392102135267
公共厕所,公共设施,公共厕所,公共厕所,双塘路与太极大道交叉口南50米,重庆市,重庆市,涪陵区,107.3664735438197,29.70603034108313
公共厕所,公共设施,公共厕所,公共厕所,双宝路5号对面,重庆市,重庆市,涪陵区,107.36940111685568,29.712575713566082
公共厕所,公共设施,公共厕所,公共厕所,体育南路3号附2号附近,重庆市,重庆市,涪陵区,107.3847347490719,29.700662031956046
公共厕所,公共设施,公共厕所,公共厕所,兴华中路福地宾馆附近,重庆市,重庆市,涪陵区,107.39481248835928,29.700373650255656
公共厕所,公共设施,公共厕所,公共厕所,人民东路28-14号附近,重庆市,重庆市,涪陵区,107.39652934849151,29.70629635955901
公共厕所,公共设施,公共厕所,公共厕所,望江路与顺江大道交叉口南200米,重庆市,重庆市,涪陵区,107.397398159408,29.69004853808161
公共厕所,公共设施,公共厕所,公共厕所,中山西路与中山路交叉口东北200米,重庆市,重庆市,涪陵区,107.39195016452298,29.713057801374283
公共厕所,公共设施,公共厕所,公共厕所,顺江大道52号附近,重庆市,重庆市,涪陵区,107.39545880710244,29.691522345440692
洗手间,公共设施,公共厕所,公共厕所,兴华东路14附1号附近,重庆市,重庆市,涪陵区,107.40136780409564,29.69627756632545
公共厕所,公共设施,公共厕所,公共厕所,渝巴路西150米,重庆市,重庆市,涪陵区,107.42388022192085,29.769928646169454
公共厕所,公共设施,公共厕所,公共厕所,江东天台吐龙桥,重庆市,重庆市,涪陵区,107.46401320229678,29.618472662318254
白鹤森林公园-公共厕所,公共设施,公共厕所,公共厕所,白鹤路附近,重庆市,重庆市,涪陵区,107.37522731078145,29.696998749561384
武陵山森林公园-公共厕所,公共设施,公共厕所,公共厕所,(武陵山国家森林公园),重庆市,重庆市,涪陵区,107.59745595621837,29.54893658031212
武陵山森林公园-公共厕所,公共设施,公共厕所,公共厕所,,重庆市,重庆市,涪陵区,107.59459628167686,29.55036837441382
武陵山大裂谷景区-公共厕所,公共设施,公共厕所,公共厕所,学府路武陵山大裂谷景区内,重庆市,重庆市,涪陵区,107.56141455573915,29.4897903350555
重庆涪陵沙溪温泉-公共厕所,公共设施,公共厕所,公共厕所,欢堡立交与沙溪村道交叉口西南方向200米,重庆市,重庆市,涪陵区,107.32207321553445,29.719540828453145
肯德基(易家坝餐厅)-洗手间,公共设施,公共厕所,公共厕所,广场路19号城市广场(博宇大厦1楼),重庆市,重庆市,涪陵区,107.39234536160858,29.706746873521517
涪陵金科两江大酒店-洗手间,公共设施,公共厕所,公共厕所,滨江大道二段6号涪陵金科两江大酒店,重庆市,重庆市,涪陵区,107.39618996858141,29.71370700947957
公共厕所,公共设施,公共厕所,公共厕所,安民路34号附近,重庆市,重庆市,涪陵区,107.46391662071724,29.799302263003284
武陵山大裂谷景区-公共厕所,公共设施,公共厕所,公共厕所,学府路与990乡道交叉口西100米,重庆市,重庆市,涪陵区,107.57239269294165,29.50580731645974
涪陵西服务区第一公共厕所(建设中),公共设施,公共厕所,公共厕所,G50S沪渝南线高速南100米,重庆市,重庆市,涪陵区,107.28294188355461,29.698189406433315
旅游公共厕所,公共设施,公共厕所,公共厕所,官桥路重庆农村商业银行东100米,重庆市,重庆市,涪陵区,107.56826621035718,29.61077009947478
残障洗手间(泽胜中央广场),公共设施,公共厕所,残障洗手间/无障碍洗手间,兴华中路25号泽胜中央广场F2层,重庆市,重庆市,涪陵区,107.39287327319897,29.703582357528777
残障洗手间(泽胜中央广场),公共设施,公共厕所,残障洗手间/无障碍洗手间,兴华中路25号泽胜中央广场F1层,重庆市,重庆市,涪陵区,107.39287327319897,29.703582357528777
残障洗手间(泽胜中央广场),公共设施,公共厕所,残障洗手间/无障碍洗手间,兴华中路25号泽胜中央广场F3层,重庆市,重庆市,涪陵区,107.39287327319897,29.703582357528777
残障洗手间(泽胜中央广场),公共设施,公共厕所,残障洗手间/无障碍洗手间,兴华中路25号泽胜中央广场F5层,重庆市,重庆市,涪陵区,107.39287027483422,29.70358335796905
男洗手间(新世纪百货),公共设施,公共厕所,男洗手间,兴华中路34号新世纪百货F3层,重庆市,重庆市,涪陵区,107.39354899511045,29.702216487705858
男洗手间(新世纪百货),公共设施,公共厕所,男洗手间,兴华中路34号新世纪百货F2层,重庆市,重庆市,涪陵区,107.39354799564424,29.702216487887423
男洗手间(新世纪百货),公共设施,公共厕所,男洗手间,兴华中路34号新世纪百货F5层,重庆市,重庆市,涪陵区,107.39346104158778,29.70222650191792
女洗手间(新世纪百货),公共设施,公共厕所,女洗手间,兴华中路34号新世纪百货F5层,重庆市,重庆市,涪陵区,107.39343405620761,29.7022255071305
女洗手间(新世纪百货),公共设施,公共厕所,女洗手间,兴华中路34号新世纪百货F2层,重庆市,重庆市,涪陵区,107.39349902117162,29.702226494906462
女洗手间(新世纪百货),公共设施,公共厕所,女洗手间,兴华中路34号新世纪百货F3层,重庆市,重庆市,涪陵区,107.39349902130974,29.702224495292533
男洗手间(依蝶购物广场),公共设施,公共厕所,男洗手间,兴华中路37号依蝶购物广场F2层,重庆市,重庆市,涪陵区,107.39014607481833,29.702653269368348
男洗手间(依蝶购物广场),公共设施,公共厕所,男洗手间,兴华中路37号依蝶购物广场F5层,重庆市,重庆市,涪陵区,107.39017505046343,29.702710248944147
建涪宾馆-洗手间,公共设施,公共厕所,公共厕所,高笋塘路与广场路交叉口西南方向60米,重庆市,重庆市,涪陵区,107.39219649055596,29.70617101735225
女洗手间(依蝶购物广场),公共设施,公共厕所,女洗手间,兴华中路37号依蝶购物广场F2层,重庆市,重庆市,涪陵区,107.39019204237805,29.702654254204614
女洗手间(依蝶购物广场),公共设施,公共厕所,女洗手间,兴华中路37号依蝶购物广场F5层,重庆市,重庆市,涪陵区,107.39015206506767,29.702733252007306
男卫生间(泽胜中央广场),公共设施,公共厕所,男洗手间,兴华中路25号泽胜中央广场F5层,重庆市,重庆市,涪陵区,107.39289825549238,29.703633342507803
男卫生间(泽胜中央广场),公共设施,公共厕所,男洗手间,兴华中路25号泽胜中央广场F2层,重庆市,重庆市,涪陵区,107.39287127723532,29.703540365998233
男卫生间(泽胜中央广场),公共设施,公共厕所,男洗手间,兴华中路25号泽胜中央广场F3层,重庆市,重庆市,涪陵区,107.39287127723532,29.703540365998233
男卫生间(泽胜中央广场),公共设施,公共厕所,男洗手间,兴华中路25号泽胜中央广场F1层,重庆市,重庆市,涪陵区,107.39287127723532,29.703540365998233
男卫生间(泽胜中央广场),公共设施,公共厕所,男洗手间,兴华中路25号泽胜中央广场F4层,重庆市,重庆市,涪陵区,107.39289825549238,29.703633342507803
新街广场-公共厕所,公共设施,公共厕所,公共厕所,钟灵街南50米,重庆市,重庆市,涪陵区,107.4834519150035,29.55195280727432
女卫生间(泽胜中央广场),公共设施,公共厕所,女洗手间,兴华中路25号泽胜中央广场F5层,重庆市,重庆市,涪陵区,107.3928682729324,29.703627349961057
女卫生间(泽胜中央广场),公共设施,公共厕所,女洗手间,兴华中路25号泽胜中央广场F1层,重庆市,重庆市,涪陵区,107.3928822648433,29.703629346631313
女卫生间(泽胜中央广场),公共设施,公共厕所,女洗手间,兴华中路25号泽胜中央广场F3层,重庆市,重庆市,涪陵区,107.39288326427577,29.70362934642116
女卫生间(泽胜中央广场),公共设施,公共厕所,女洗手间,兴华中路25号泽胜中央广场F4层,重庆市,重庆市,涪陵区,107.3928682729324,29.703627349961057
女卫生间(泽胜中央广场),公共设施,公共厕所,女洗手间,兴华中路25号泽胜中央广场F2层,重庆市,重庆市,涪陵区,107.39288326427577,29.70362934642116
哺乳室(新世纪百货),公共设施,公共厕所,婴儿换洗间/哺乳室/母婴室,兴华中路34号新世纪百货F5层,重庆市,重庆市,涪陵区,107.39418166728315,29.70221838102786
应急避难场所(黎明路),公共设施,紧急避难场所,紧急避难场所,通洗路与黎明路交叉口东南100米,重庆市,重庆市,涪陵区,107.3762449282011,29.711180125890674
应急避难场所,公共设施,紧急避难场所,紧急避难场所,105省道东50米,重庆市,重庆市,涪陵区,107.60391876939993,29.744912125672197
应急避难场所,公共设施,紧急避难场所,紧急避难场所,九猴路187号附近,重庆市,重庆市,涪陵区,107.20774137444685,29.406853294709265
应急避难场所,公共设施,紧急避难场所,紧急避难场所,桃大路东50米,重庆市,重庆市,涪陵区,107.22479558723333,29.776499018408956
应急避难场所,公共设施,紧急避难场所,紧急避难场所,边贸路3号,重庆市,重庆市,涪陵区,106.98784314055794,29.511702874709222
应急避难场所,公共设施,紧急避难场所,紧急避难场所,渝巴路南50米,重庆市,重庆市,涪陵区,107.12116962716871,29.68658986486445
应急避难场所,公共设施,紧急避难场所,紧急避难场所,俱进路与茶齐路交叉口东北150米,重庆市,重庆市,涪陵区,107.18985324467225,29.433097364195262
应急避难场所(步阳路),公共设施,紧急避难场所,紧急避难场所,步阳路6号附近,重庆市,重庆市,涪陵区,107.37456950117684,29.70774628527845
应急避难场所,公共设施,紧急避难场所,紧急避难场所,,重庆市,重庆市,涪陵区,107.37945587899425,29.695476513223575
应急场所,公共设施,紧急避难场所,紧急避难场所,体育南路16号附近,重庆市,重庆市,涪陵区,107.38761111683841,29.70128049765986
应急避难场所(白天路),公共设施,紧急避难场所,紧急避难场所,白天路东50米,重庆市,重庆市,涪陵区,107.48952178872017,29.575935318279402
应急避难场所(太极大道),公共设施,紧急避难场所,紧急避难场所,太极大道64-附5号附近,重庆市,重庆市,涪陵区,107.37854149282961,29.702957753250676
应急避难场所(长运花园一区东北),公共设施,紧急避难场所,紧急避难场所,望州路,重庆市,重庆市,涪陵区,107.39264593348932,29.69591490722854
应急避难场所(中共同乐乡委员会东),公共设施,紧急避难场所,紧急避难场所,寿聚路102号附近,重庆市,重庆市,涪陵区,107.19431700509563,29.46416433606053
应急避难场所(平桥村社区卫生服务站西北),公共设施,紧急避难场所,紧急避难场所,渝建路北50米,重庆市,重庆市,涪陵区,107.26033270955685,29.56423261538244
三峡报刊亭,公共设施,报刊亭,报刊亭,交通街与菜袁路交叉口南50米,重庆市,重庆市,渝中区,106.52676825101824,29.540435000974554
三峡报刊亭,公共设施,报刊亭,报刊亭,人和街810调度亭旁,重庆市,重庆市,渝中区,106.55509278063077,29.566883634411074
三峡报刊亭,公共设施,报刊亭,报刊亭,巴蜀路2号附近,重庆市,重庆市,渝中区,106.55870871265748,29.565716929883738
邮政报刊批销部,公共设施,报刊亭,报刊亭,桥西村83号附3号,重庆市,重庆市,渝中区,106.54184216260808,29.56309011099887
三峡报刊亭,公共设施,报刊亭,报刊亭,医学院路80号附近,重庆市,重庆市,渝中区,106.50713277656544,29.53486391919518
报刊亭,公共设施,报刊亭,报刊亭,医学院路西50米,重庆市,重庆市,渝中区,106.50715381680848,29.535215844400422
报刊亭,公共设施,报刊亭,报刊亭,医学院路5号附近,重庆市,重庆市,渝中区,106.50740562093696,29.534007058245123
报刊亭,公共设施,报刊亭,报刊亭,奥体路与长江二路交叉口北100米,重庆市,重庆市,渝中区,106.51005335824799,29.532557399906437
报刊亭,公共设施,报刊亭,报刊亭,时代大道与长江二路交叉口西南100米,重庆市,重庆市,渝中区,106.51134281123743,29.53656959499726
报刊亭,公共设施,报刊亭,报刊亭,袁家岗立交与长江二路交叉口西北50米,重庆市,重庆市,渝中区,106.51137798767778,29.53529019355919
报刊亭,公共设施,报刊亭,报刊亭,长江二路177-1号附近,重庆市,重庆市,渝中区,106.51180512419388,29.536646907630203
报刊亭,公共设施,报刊亭,报刊亭,长江二路156号附近,重庆市,重庆市,渝中区,106.51182312133326,29.53755660826257
报刊亭,公共设施,报刊亭,报刊亭,煤建新村与长江二路交叉口东南50米,重庆市,重庆市,渝中区,106.5124699327145,29.537997311909944
报刊亭,公共设施,报刊亭,报刊亭,大坪支路12号附近,重庆市,重庆市,渝中区,106.511966333512,29.540840762869777
报刊亭,公共设施,报刊亭,报刊亭,大坪正街与彭家花园交叉口东北50米,重庆市,重庆市,渝中区,106.51074769858683,29.54349321231321
报刊亭,公共设施,报刊亭,报刊亭,单巷子与大坪正街交叉口西50米,重庆市,重庆市,渝中区,106.51312644734242,29.543779000584145
报刊亭,公共设施,报刊亭,报刊亭,大坪正街与长江二路交叉口北50米,重庆市,重庆市,渝中区,106.51373015177144,29.543745751411524
报刊亭,公共设施,报刊亭,报刊亭,大坪正街98号附近,重庆市,重庆市,渝中区,106.51467186617242,29.542542908327473
三峡报刊亭,公共设施,报刊亭,报刊亭,袁家岗立交与长江二路交叉口东50米,重庆市,重庆市,渝中区,106.51196266330089,29.535117957723823
报刊亭,公共设施,报刊亭,报刊亭,大坪正街64附近,重庆市,重庆市,渝中区,106.51438900776918,29.543657675843754
报刊亭,公共设施,报刊亭,报刊亭,大坪正街81号附近,重庆市,重庆市,渝中区,106.51515422033589,29.542431329099514
报刊亭,公共设施,报刊亭,报刊亭,大坪正街与长江二路交叉口西50米,重庆市,重庆市,渝中区,106.51506092681372,29.542990850419866
报刊亭,公共设施,报刊亭,报刊亭,经纬大道与长江二路交叉口东北50米,重庆市,重庆市,渝中区,106.51882224897163,29.543610240745977
报刊亭,公共设施,报刊亭,报刊亭,长江二路16街附近,重庆市,重庆市,渝中区,106.5207112949466,29.54433720761951
三峡报刊亭,公共设施,报刊亭,报刊亭,大坪正街93号附近,重庆市,重庆市,渝中区,106.50447566582342,29.54062482474518
三峡报刊亭,公共设施,报刊亭,报刊亭,菜袁路与袁家岗立交交叉口西南50米,重庆市,重庆市,渝中区,106.51277001969919,29.53401372429327
三峡报刊亭,公共设施,报刊亭,报刊亭,长江二路与长江二路二巷交叉口南50米,重庆市,重庆市,渝中区,106.51384264598876,29.54075521144437
三峡报刊亭,公共设施,报刊亭,报刊亭,大坪支路与长江二路交叉口南50米,重庆市,重庆市,渝中区,106.51372527589946,29.54142561830314
三峡报刊亭,公共设施,报刊亭,报刊亭,长江二路与长江二路二巷交叉口东北50米,重庆市,重庆市,渝中区,106.51406724489871,29.541300648310084
三峡报刊亭,公共设施,报刊亭,报刊亭,大坪正街与长江二路交叉口西50米,重庆市,重庆市,渝中区,106.51336721671765,29.54227026645856
三峡报刊亭,公共设施,报刊亭,报刊亭,大坪正街98号附近,重庆市,重庆市,渝中区,106.51473604183418,29.542608067180556
三峡报刊亭,公共设施,报刊亭,报刊亭,大坪佛图关社区大门口,重庆市,重庆市,渝中区,106.51495863084178,29.543165492042647
三峡报刊亭,公共设施,报刊亭,报刊亭,大坪正街与长江二路交叉口南50米,重庆市,重庆市,渝中区,106.515546300736,29.542629371683457
三峡报刊亭,公共设施,报刊亭,报刊亭,大坪正街80附近,重庆市,重庆市,渝中区,106.51606371914231,29.542939725346034
报刊亭,公共设施,报刊亭,报刊亭,体育路116号附近,重庆市,重庆市,渝中区,106.54089852735245,29.558488675119982
报刊亭,公共设施,报刊亭,报刊亭,南区路与菜园坝立交桥交叉口南50米,重庆市,重庆市,渝中区,106.54445481516625,29.553579140452122
报刊亭,公共设施,报刊亭,报刊亭,菜园坝立交桥与菜袁路交叉口西北50米,重庆市,重庆市,渝中区,106.54582148994768,29.551514735362794
报刊亭,公共设施,报刊亭,报刊亭,四新路与牛角沱立交桥交叉口东100米,重庆市,重庆市,渝中区,106.54082325224238,29.56055376680272
报刊亭,公共设施,报刊亭,报刊亭,南区路与菜园坝立交桥交叉口东北50米,重庆市,重庆市,渝中区,106.54587345277528,29.553773012180244
报刊亭,公共设施,报刊亭,报刊亭,上清寺路与牛角沱立交桥交叉口东50米,重庆市,重庆市,渝中区,106.54123606222356,29.561052503226602
报刊亭,公共设施,报刊亭,报刊亭,体育路附近,重庆市,重庆市,渝中区,106.54383236093213,29.55809918422969
三峡报刊亭,公共设施,报刊亭,报刊亭,大黄路与长江二路交叉口南50米,重庆市,重庆市,渝中区,106.51867288238762,29.542949073936057
报刊亭,公共设施,报刊亭,报刊亭,上清寺路9号附近,重庆市,重庆市,渝中区,106.54245143964268,29.56198782969125
报刊亭,公共设施,报刊亭,报刊亭,美专校街25号附近,重庆市,重庆市,渝中区,106.54295246226205,29.56136113492939
报刊亭,公共设施,报刊亭,报刊亭,中山三路129号附近,重庆市,重庆市,渝中区,106.54587023980442,29.557295723910055
报刊亭,公共设施,报刊亭,报刊亭,上清寺路与嘉陵桥路交叉口东北50米,重庆市,重庆市,渝中区,106.5426417955513,29.56232412218203
报刊亭,公共设施,报刊亭,报刊亭,中山三路与中山支路交叉口东50米,重庆市,重庆市,渝中区,106.54625690609127,29.55799825986647
报刊亭,公共设施,报刊亭,报刊亭,中山三路与南区公园路交叉口东50米,重庆市,重庆市,渝中区,106.54891374386584,29.555489448923304
报刊亭,公共设施,报刊亭,报刊亭,中山三路与春森路交叉口东50米,重庆市,重庆市,渝中区,106.54614063087425,29.55907163639418
报刊亭,公共设施,报刊亭,报刊亭,中山四路3附近,重庆市,重庆市,渝中区,106.54256355920158,29.563719458218873
报刊亭,公共设施,报刊亭,报刊亭,中山三路159号附近,重庆市,重庆市,渝中区,106.5448982202886,29.560922411710443
三峡报刊亭,公共设施,报刊亭,报刊亭,中山三路与美专校街交叉口西南50米,重庆市,重庆市,渝中区,106.54432810478173,29.561566988110275
报刊亭,公共设施,报刊亭,报刊亭,中山三路与人民路交叉口西50米,重庆市,重庆市,渝中区,106.54380503892388,29.56268048696944
报刊亭,公共设施,报刊亭,报刊亭,中山三路与人民路交叉口南50米,重庆市,重庆市,渝中区,106.54419982339107,29.562197493517857
报刊亭,公共设施,报刊亭,报刊亭,中山三路与人民路交叉口西南50米,重庆市,重庆市,渝中区,106.54405753747555,29.562438107689967
报刊亭,公共设施,报刊亭,报刊亭,中山支路38附近,重庆市,重庆市,渝中区,106.54699321888606,29.558291643080253
报刊亭,公共设施,报刊亭,报刊亭,中山三路与枇杷山正街交叉口西50米,重庆市,重庆市,渝中区,106.54872435157702,29.5566466608164
报刊亭,公共设施,报刊亭,报刊亭,人民路与学田湾正街交叉口东南50米,重庆市,重庆市,渝中区,106.54539506182658,29.56239591766234
报刊亭,公共设施,报刊亭,报刊亭,学田湾正街55号附近,重庆市,重庆市,渝中区,106.54748987917469,29.562101272213628
报刊亭,公共设施,报刊亭,报刊亭,嘉陵桥路与四新路交叉口东100米,重庆市,重庆市,渝中区,106.54147037796535,29.563732067710326
报刊亭,公共设施,报刊亭,报刊亭,奥体路4-7号附近,重庆市,重庆市,渝中区,106.50736154512232,29.533129271309278
报刊亭,公共设施,报刊亭,报刊亭,人民路与蒲草田交叉口西南50米,重庆市,重庆市,渝中区,106.55105871300873,29.565607901869186
报刊亭,公共设施,报刊亭,报刊亭,人民路与蒲草田交叉口东50米,重庆市,重庆市,渝中区,106.55155249740135,29.56572877211648
报刊亭,公共设施,报刊亭,报刊亭,中山一路220号附近,重庆市,重庆市,渝中区,106.55674758107945,29.55839540827245
报刊亭,公共设施,报刊亭,报刊亭,中山一路218号附近,重庆市,重庆市,渝中区,106.55697488654849,29.55840777426775
报刊亭,公共设施,报刊亭,报刊亭,中山一路与纯阳洞交叉口西南50米,重庆市,重庆市,渝中区,106.55751461887004,29.558150738170873
三峡报刊亭,公共设施,报刊亭,报刊亭,中山一路与临华路交叉口东北50米,重庆市,重庆市,渝中区,106.55765678965518,29.558420868311575
报刊亭,公共设施,报刊亭,报刊亭,人民路71号附近,重庆市,重庆市,渝中区,106.55322504204923,29.56666046717322
报刊亭,公共设施,报刊亭,报刊亭,中山一路与捍卫路交叉口西北100米,重庆市,重庆市,渝中区,106.5583776923592,29.55891183254725
报刊亭,公共设施,报刊亭,报刊亭,人和街21号附近,重庆市,重庆市,渝中区,106.55463422897697,29.565026502292177
报刊亭,公共设施,报刊亭,报刊亭,中山一路75号附近,重庆市,重庆市,渝中区,106.5621592259154,29.5579158247741
报刊亭,公共设施,报刊亭,报刊亭,民生路与金汤街交叉口东北50米,重庆市,重庆市,渝中区,106.56476381498207,29.559360834538133
报刊亭,公共设施,报刊亭,报刊亭,响水桥与解放西路交叉口西50米,重庆市,重庆市,渝中区,106.56895784125369,29.551900619662547
三峡报刊亭,公共设施,报刊亭,报刊亭,长江二路与奥体路交叉路口北侧,重庆市,重庆市,渝中区,106.51019174402018,29.53275172801616
报刊亭,公共设施,报刊亭,报刊亭,北区路与黄花园立交桥交叉口东50米,重庆市,重庆市,渝中区,106.56519792560017,29.564516559116754
报刊亭,公共设施,报刊亭,报刊亭,解放西路99号附近,重庆市,重庆市,渝中区,106.57130045305564,29.551942102023734
三峡报刊亭,公共设施,报刊亭,报刊亭,长江一路与长江二路交叉口东南150米,重庆市,重庆市,渝中区,106.52948137310328,29.5504962462181
报刊亭,公共设施,报刊亭,报刊亭,新华路与解放碑地下环道交叉口西北50米,重庆市,重庆市,渝中区,106.57072987073533,29.55561617075
报刊亭,公共设施,报刊亭,报刊亭,民权路与民生路交叉口南50米,重庆市,重庆市,渝中区,106.570877910346,29.55659396898051
报刊亭,公共设施,报刊亭,报刊亭,临江路20号附近,重庆市,重庆市,渝中区,106.56838975032555,29.56311792234139
报刊亭,公共设施,报刊亭,报刊亭,凯旋路与解放碑地下环道交叉口西北50米,重庆市,重庆市,渝中区,106.57339051691429,29.554286265151536
报刊亭,公共设施,报刊亭,报刊亭,八一路与磁器街交叉口东南50米,重庆市,重庆市,渝中区,106.5725049025338,29.556558604103003
报刊亭,公共设施,报刊亭,报刊亭,凯旋路与新华路交叉口东南50米,重庆市,重庆市,渝中区,106.57291320721578,29.555231475241253
报刊亭,公共设施,报刊亭,报刊亭,中华路与步行街交叉口西南50米,重庆市,重庆市,渝中区,106.57194747372654,29.558351413218308
报刊亭,公共设施,报刊亭,报刊亭,左营街与新华路交叉口西南100米,重庆市,重庆市,渝中区,106.57541529978849,29.557091019280644
报刊亭,公共设施,报刊亭,报刊亭,左营街与新华路交叉口东北50米,重庆市,重庆市,渝中区,106.5757604036858,29.55770907988049
三峡报刊亭,公共设施,报刊亭,报刊亭,大坪正街与大坪正街二巷交叉口东南50米,重庆市,重庆市,渝中区,106.51187592316587,29.54341652131878
报刊亭,公共设施,报刊亭,报刊亭,临江支路与江家巷交叉口北50米,重庆市,重庆市,渝中区,106.57435042548687,29.563968647951082
报刊亭,公共设施,报刊亭,报刊亭,临江支路与九尺坎交叉口南50米,重庆市,重庆市,渝中区,106.5753079022906,29.563111772222978
报刊亭,公共设施,报刊亭,报刊亭,大坪正街8-4号附近,重庆市,重庆市,渝中区,106.5155312087811,29.54347100962394
报刊亭,公共设施,报刊亭,报刊亭,民族路18号新重庆广场附近,重庆市,重庆市,渝中区,106.57818686830542,29.563588823666386
报刊亭,公共设施,报刊亭,报刊亭,民族路与罗汉寺街交叉口西北50米,重庆市,重庆市,渝中区,106.57854795813533,29.5636600506524
报刊亭,公共设施,报刊亭,报刊亭,打铜街与民族路交叉口东50米,重庆市,重庆市,渝中区,106.58011932623037,29.562998314281288
报刊亭,公共设施,报刊亭,报刊亭,打铜街与陕西路交叉口北50米,重庆市,重庆市,渝中区,106.58164155441503,29.56243640461973
报刊亭,公共设施,报刊亭,报刊亭,大黄路与菜袁路交叉口东北50米,重庆市,重庆市,渝中区,106.5205873562658,29.53770839576427
报刊亭,公共设施,报刊亭,报刊亭,陕西路9号附近,重庆市,重庆市,渝中区,106.5839833542832,29.5669179900565
报刊亭,公共设施,报刊亭,报刊亭,朝东路5附近,重庆市,重庆市,渝中区,106.58368828678549,29.56820640682525
报刊亭,公共设施,报刊亭,报刊亭,信义街与朝千路交叉口东北200米,重庆市,重庆市,渝中区,106.58353017220225,29.570202640736685
三峡报刊亭,公共设施,报刊亭,报刊亭,菜园坝立交桥与菜袁路交叉口东北50米,重庆市,重庆市,渝中区,106.54423957760828,29.5506607619134
三峡报刊亭,公共设施,报刊亭,报刊亭,体育路与健康路交叉口南50米,重庆市,重庆市,渝中区,106.54218327367248,29.55577248260779
三峡报刊亭,公共设施,报刊亭,报刊亭,南区路与建兴正街交叉口西南50米,重庆市,重庆市,渝中区,106.54477341910743,29.553548818614015
三峡报刊亭,公共设施,报刊亭,报刊亭,菜袁路与长江滨江路交叉口东南50米,重庆市,重庆市,渝中区,106.54679527475122,29.551294796859708
三峡报刊亭,公共设施,报刊亭,报刊亭,上清寺路与嘉陵桥路交叉口西50米,重庆市,重庆市,渝中区,106.54213079405721,29.56214907541527
三峡报刊亭,公共设施,报刊亭,报刊亭,上清寺路4附近,重庆市,重庆市,渝中区,106.54251250678583,29.562897638785465
三峡报刊亭,公共设施,报刊亭,报刊亭,中山三路与美专校街交叉口东50米,重庆市,重庆市,渝中区,106.5447338619294,29.561756771185312
三峡报刊亭,公共设施,报刊亭,报刊亭,中山三路与美专校街交叉口北50米,重庆市,重庆市,渝中区,106.54458256084153,29.562018361528153
三峡报刊亭,公共设施,报刊亭,报刊亭,中山支路16号附近,重庆市,重庆市,渝中区,106.54778365971754,29.55763445684846
三峡报刊亭,公共设施,报刊亭,报刊亭,中山三路与南区公园路交叉口东北50米,重庆市,重庆市,渝中区,106.54892774999513,29.5557923658944
三峡报刊亭,公共设施,报刊亭,报刊亭,中山四路1号附近,重庆市,重庆市,渝中区,106.5431346489806,29.564237505582813
三峡报刊亭,公共设施,报刊亭,报刊亭,中山四路13附近,重庆市,重庆市,渝中区,106.54322881684993,29.56450261384326
三峡报刊亭,公共设施,报刊亭,报刊亭,人民路与学田湾正街交叉口西50米,重庆市,重庆市,渝中区,106.54499630503344,29.562611014553728
三峡报刊亭,公共设施,报刊亭,报刊亭,人民路与学田湾正街交叉口东50米,重庆市,重庆市,渝中区,106.54570160414694,29.562825396855086
三峡报刊亭,公共设施,报刊亭,报刊亭,学田湾正街与春森路交叉口西50米,重庆市,重庆市,渝中区,106.54643598691639,29.56216213221819
三峡报刊亭,公共设施,报刊亭,报刊亭,南区路80-12号附近,重庆市,重庆市,渝中区,106.55256376418932,29.55414476426713
三峡报刊亭,公共设施,报刊亭,报刊亭,中山二路北50米,重庆市,重庆市,渝中区,106.55087486065693,29.55802825879694
三峡报刊亭,公共设施,报刊亭,报刊亭,中山四路与人民支路交叉口南50米,重庆市,重庆市,渝中区,106.54654085046477,29.56771538876926
三峡报刊亭,公共设施,报刊亭,报刊亭,人民路224号附近,重庆市,重庆市,渝中区,106.54917857551781,29.566030193746887
三峡报刊亭,公共设施,报刊亭,报刊亭,中山二路16号附近,重庆市,重庆市,渝中区,106.55462960715565,29.55846783062656
三峡报刊亭,公共设施,报刊亭,报刊亭,嘉陵江滨江路262附近,重庆市,重庆市,渝中区,106.54793524502132,29.5692146559724
三峡报刊亭,公共设施,报刊亭,报刊亭,人民路168号附近,重庆市,重庆市,渝中区,106.55064301816105,29.565950006136802
三峡报刊亭,公共设施,报刊亭,报刊亭,中山二路与临华路交叉口东50米,重庆市,重庆市,渝中区,106.55558495008349,29.558852316393878
三峡报刊亭,公共设施,报刊亭,报刊亭,人和街与华福巷交叉口西南50米,重庆市,重庆市,渝中区,106.55276551016918,29.563770664716884
三峡报刊亭,公共设施,报刊亭,报刊亭,中山一路185号附近,重庆市,重庆市,渝中区,106.55655833768228,29.558167180536095
三峡报刊亭,公共设施,报刊亭,报刊亭,中一支路与捍卫路交叉口西50米,重庆市,重庆市,渝中区,106.55833565748912,29.558591881760616
三峡报刊亭,公共设施,报刊亭,报刊亭,中一支路与捍卫路交叉口西南50米,重庆市,重庆市,渝中区,106.55853993061491,29.55836528319183
三峡报刊亭,公共设施,报刊亭,报刊亭,北区路53号附近,重庆市,重庆市,渝中区,106.55822308193609,29.565949088663587
三峡报刊亭,公共设施,报刊亭,报刊亭,和平路286附2号附近,重庆市,重庆市,渝中区,106.56391908174373,29.557706317318075
三峡报刊亭,公共设施,报刊亭,报刊亭,和平路与新民街交叉口西南50米,重庆市,重庆市,渝中区,106.56370985575641,29.557959945292023
三峡报刊亭,公共设施,报刊亭,报刊亭,中山一路与金汤街交叉口南50米,重庆市,重庆市,渝中区,106.564349447791,29.55875351066866
三峡报刊亭,公共设施,报刊亭,报刊亭,业成花园路与民生路交叉口东南50米,重庆市,重庆市,渝中区,106.5651842098206,29.559446346437138
三峡报刊亭,公共设施,报刊亭,报刊亭,业成花园路与民生路交叉口北50米,重庆市,重庆市,渝中区,106.5651011202547,29.559638170931137
三峡报刊亭,公共设施,报刊亭,报刊亭,业成花园路与民生路交叉口东50米,重庆市,重庆市,渝中区,106.56548948451805,29.559618673830318
三峡报刊亭,公共设施,报刊亭,报刊亭,大同路与潘家沟交叉口西50米,重庆市,重庆市,渝中区,106.56789865511927,29.558114145714974
三峡报刊亭,公共设施,报刊亭,报刊亭,民生巷与民生路交叉口东50米,重庆市,重庆市,渝中区,106.56749018867919,29.560402844156602
三峡报刊亭,公共设施,报刊亭,报刊亭,北区路与华一路交叉口西50米,重庆市,重庆市,渝中区,106.565482219409,29.564028094080662
三峡报刊亭,公共设施,报刊亭,报刊亭,大同巷与民生路交叉口南50米,重庆市,重庆市,渝中区,106.568243804172,29.560250776866695
三峡报刊亭,公共设施,报刊亭,报刊亭,民权路与民生路交叉口西南100米,重庆市,重庆市,渝中区,106.57035957765552,29.55639849844614
三峡报刊亭,公共设施,报刊亭,报刊亭,民权路与民生路交叉口西南100米,重庆市,重庆市,渝中区,106.57066578805784,29.556305853372688
三峡报刊亭,公共设施,报刊亭,报刊亭,四贤巷与解放碑地下环道交叉口西北50米,重庆市,重庆市,渝中区,106.56995822471815,29.557712595234527
三峡报刊亭,公共设施,报刊亭,报刊亭,大同路与民生路交叉口东北50米,重庆市,重庆市,渝中区,106.5691745206903,29.560124872350805
三峡报刊亭,公共设施,报刊亭,报刊亭,临江路与大井巷交叉口西50米,重庆市,重庆市,渝中区,106.56839984626309,29.561614468384658
三峡报刊亭,公共设施,报刊亭,报刊亭,临江路与大井巷交叉口东北50米,重庆市,重庆市,渝中区,106.56896826664739,29.56184402871881
三峡报刊亭,公共设施,报刊亭,报刊亭,北区路1号附近,重庆市,重庆市,渝中区,106.56915636433331,29.562564981627517
三峡报刊亭,公共设施,报刊亭,报刊亭,临江路与解放碑地下环道交叉口西南50米,重庆市,重庆市,渝中区,106.56991194338737,29.561963021079524
三峡报刊亭,公共设施,报刊亭,报刊亭,中华路与邹容路交叉口西50米,重庆市,重庆市,渝中区,106.57029523617834,29.56148260135163
三峡报刊亭,公共设施,报刊亭,报刊亭,中华路与邹容路交叉口北50米,重庆市,重庆市,渝中区,106.57062544105008,29.561773844771515
三峡报刊亭,公共设施,报刊亭,报刊亭,中华路与解放碑地下环道交叉口东南50米,重庆市,重庆市,渝中区,106.57062842294296,29.56211672580177
三峡报刊亭,公共设施,报刊亭,报刊亭,邹容支路与邹容路交叉口西南50米,重庆市,重庆市,渝中区,106.57151007039877,29.5607071320054
报刊亭,公共设施,报刊亭,报刊亭,鹅岭正街185号附近,重庆市,重庆市,渝中区,106.53250355260023,29.55111962224598
三峡报刊亭,公共设施,报刊亭,报刊亭,中华路与八一路交叉口西北50米,重庆市,重庆市,渝中区,106.57337128432486,29.55808686712492
三峡报刊亭,公共设施,报刊亭,报刊亭,中华路与八一路交叉口东50米,重庆市,重庆市,渝中区,106.57368745314274,29.557975196845376
三峡报刊亭,公共设施,报刊亭,报刊亭,中华路与五一路交叉口西北50米,重庆市,重庆市,渝中区,106.57407966839708,29.557613680256377
三峡报刊亭,公共设施,报刊亭,报刊亭,五四路与江家巷交叉口北50米,重庆市,重庆市,渝中区,106.57363119314807,29.561927728579583
三峡报刊亭,公共设施,报刊亭,报刊亭,五四路与八一路交叉口西50米,重庆市,重庆市,渝中区,106.57490884174611,29.561209112072095
三峡报刊亭,公共设施,报刊亭,报刊亭,临江支路与沧白路交叉口南50米,重庆市,重庆市,渝中区,106.57411833444883,29.563634560999517
三峡报刊亭,公共设施,报刊亭,报刊亭,民族路37附近,重庆市,重庆市,渝中区,106.57681061618133,29.560705834501007
三峡报刊亭,公共设施,报刊亭,报刊亭,民族巷与民族路交叉口西南100米,重庆市,重庆市,渝中区,106.5763353151288,29.562969657768893
三峡报刊亭,公共设施,报刊亭,报刊亭,八一路与解放碑地下环道交叉口北50米,重庆市,重庆市,渝中区,106.57666246992217,29.56232814163123
三峡报刊亭,公共设施,报刊亭,报刊亭,新华路与正阳街交叉口东北100米,重庆市,重庆市,渝中区,106.5778229532714,29.56040269789071
三峡报刊亭,公共设施,报刊亭,报刊亭,五一路与解放碑地下环道交叉口西50米,重庆市,重庆市,渝中区,106.57686549217233,29.563142009062577
三峡报刊亭,公共设施,报刊亭,报刊亭,民族路与解放碑地下环道交叉口东北50米,重庆市,重庆市,渝中区,106.57738462716068,29.56372219513373
三峡报刊亭,公共设施,报刊亭,报刊亭,民族路与沧白路交叉口东北50米,重庆市,重庆市,渝中区,106.57779872866932,29.56411735906653
三峡报刊亭,公共设施,报刊亭,报刊亭,棉花街与沧白路交叉口东北50米,重庆市,重庆市,渝中区,106.57766765118885,29.564783028795883
三峡报刊亭,公共设施,报刊亭,报刊亭,民族路与沧白路交叉口东南50米,重庆市,重庆市,渝中区,106.57814184427754,29.563790720349463
三峡报刊亭,公共设施,报刊亭,报刊亭,新华路85附近,重庆市,重庆市,渝中区,106.57970130921755,29.56200940284248
三峡报刊亭,公共设施,报刊亭,报刊亭,民族路与筷子街交叉口南50米,重庆市,重庆市,渝中区,106.57927416168138,29.563058753154124
三峡报刊亭,公共设施,报刊亭,报刊亭,打铜街与新华路交叉口北50米,重庆市,重庆市,渝中区,106.57993828430767,29.563179137250547
三峡报刊亭,公共设施,报刊亭,报刊亭,新华路80号附近,重庆市,重庆市,渝中区,106.58018330157465,29.563601140164938
报刊亭,公共设施,报刊亭,报刊亭,中山三路与菜园坝长江大桥交叉口西北50米,重庆市,重庆市,渝中区,106.54560487996467,29.555094977758912
三峡报刊亭,公共设施,报刊亭,报刊亭,千厮门行街与新华路交叉口北50米,重庆市,重庆市,渝中区,106.5807913259964,29.56473010781479
报刊亭,公共设施,报刊亭,报刊亭,上清寺路与美专校街交叉口西南100米,重庆市,重庆市,渝中区,106.54176311159166,29.56126658634052
报刊亭,公共设施,报刊亭,报刊亭,中山三路与体育路交叉口西150米,重庆市,重庆市,渝中区,106.5448272381093,29.55835018653015
三峡报刊亭,公共设施,报刊亭,报刊亭,信义街与新华路交叉口西50米,重庆市,重庆市,渝中区,106.58174631445075,29.566684962853532
三峡报刊亭,公共设施,报刊亭,报刊亭,信义街与朝千路交叉口西南150米,重庆市,重庆市,渝中区,106.58233328692,29.567828875764732
三峡报刊亭,公共设施,报刊亭,报刊亭,长江滨江路东50米,重庆市,重庆市,渝中区,106.58539630488978,29.56602488720777
三峡报刊亭,公共设施,报刊亭,报刊亭,长江滨江路东50米,重庆市,重庆市,渝中区,106.5847121978183,29.568915605892446
报刊亭,公共设施,报刊亭,报刊亭,民生巷与民生路交叉口北50米,重庆市,重庆市,渝中区,106.56705982121053,29.5605412819621
三峡报刊亭,公共设施,报刊亭,报刊亭,北区路61号附近,重庆市,重庆市,渝中区,106.55739099793286,29.56595676189388
报刊亭,公共设施,报刊亭,报刊亭,凯旋路与新华路交叉口西南50米,重庆市,重庆市,渝中区,106.57245894804618,29.555336004270014
报刊亭,公共设施,报刊亭,报刊亭,北区路与解放碑地下环道交叉口北50米,重庆市,重庆市,渝中区,106.57029317850242,29.562443257151873
报刊亭,公共设施,报刊亭,报刊亭,棉花街8号景江山小区南行20米,重庆市,重庆市,渝中区,106.57895396914464,29.56513680582408
三峡报刊亭,公共设施,报刊亭,报刊亭,上清寺路2号附近,重庆市,重庆市,渝中区,106.54207661617218,29.563338535168914
三峡报刊亭,公共设施,报刊亭,报刊亭,下罗家湾路与中山支路交叉口北50米,重庆市,重庆市,渝中区,106.5463690584322,29.558878170938947
三峡报刊亭,公共设施,报刊亭,报刊亭,中山三路与枇杷山正街交叉口东北50米,重庆市,重庆市,渝中区,106.54924922804948,29.556961562816397
三峡报刊亭,公共设施,报刊亭,报刊亭,中山二路与中山支路交叉口东北50米,重庆市,重庆市,渝中区,106.54896473496557,29.557122954928044
三峡报刊亭,公共设施,报刊亭,报刊亭,中山四路75号附近,重庆市,重庆市,渝中区,106.54376574555374,29.56638209795568
三峡报刊亭,公共设施,报刊亭,报刊亭,戴家巷与解放碑地下环道交叉口东北50米,重庆市,重庆市,渝中区,106.57163802120904,29.562889482815017
三峡报刊亭,公共设施,报刊亭,报刊亭,公园路与新华路交叉口东北50米,重庆市,重庆市,渝中区,106.57705775300758,29.55978535274641
三峡报刊亭,公共设施,报刊亭,报刊亭,民族路与筷子街交叉口东50米,重庆市,重庆市,渝中区,106.57954120125763,29.56332083423055
书报刊亭,公共设施,报刊亭,报刊亭,枣子岚垭正街与菜市巷交叉口东北50米,重庆市,重庆市,渝中区,106.55127630779488,29.5614417800292
报刊亭,公共设施,报刊亭,报刊亭,体育路与重庆村交叉口西南方向140米,重庆市,重庆市,渝中区,106.54371514155167,29.55799397333904
报刊亭,公共设施,报刊亭,报刊亭,凯旋路与解放碑地下环道交叉口西北50米,重庆市,重庆市,渝中区,106.57222081722105,29.555231811631096
报刊亭(五一技校店),公共设施,报刊亭,报刊亭,经纬大道561号五一技校门口(石油路口站背后),重庆市,重庆市,渝中区,106.50429275724736,29.546848926899763
三峡报刊亭,公共设施,报刊亭,报刊亭,医学院路靠近重庆医科大学附属第一医院山峡报亭,重庆市,重庆市,渝中区,106.5074888729979,29.533836370397026
公共厕所,公共设施,公共厕所,公共厕所,八一路176号,重庆市,重庆市,渝中区,106.573512291762,29.559206593496757
公共厕所,公共设施,公共厕所,公共厕所,长江一路53号附近,重庆市,重庆市,渝中区,106.53307894540332,29.550233369866906
公共厕所,公共设施,公共厕所,公共厕所,临华路21号,重庆市,重庆市,渝中区,106.55718903045488,29.560834250613667
公共厕所,公共设施,公共厕所,公共厕所,鹅岭正街178号,重庆市,重庆市,渝中区,106.5314290325153,29.55091102307401
公共厕所,公共设施,公共厕所,公共厕所,大坪长江二路俊豪时代北100米,重庆市,重庆市,渝中区,106.51210608154838,29.534940442434426
公共厕所(装修中),公共设施,公共厕所,公共厕所,华一新街与石黄隧道交叉口西50米,重庆市,重庆市,渝中区,106.56154034516794,29.561260743154772
公共厕所,公共设施,公共厕所,公共厕所,长江支路20号附近,重庆市,重庆市,渝中区,106.51713048516194,29.54596960186879
公共厕所,公共设施,公共厕所,公共厕所,中兴路与解放碑地下环道交叉口南50米,重庆市,重庆市,渝中区,106.56966414631442,29.555509076644768
公共厕所,公共设施,公共厕所,公共厕所,大坪正街118号嘉华鑫城C栋,重庆市,重庆市,渝中区,106.50511855126514,29.540629732684206
公共厕所,公共设施,公共厕所,公共厕所,上清寺路与李子坝正街交叉口东南50米,重庆市,重庆市,渝中区,106.53874795724924,29.560155227212423
重庆人民广场公共厕所,公共设施,公共厕所,公共厕所,学田湾正街2号(人民广场商圈区域),重庆市,重庆市,渝中区,106.54878802794917,29.56401414760361
公共厕所,公共设施,公共厕所,公共厕所,鹅岭正街175号,重庆市,重庆市,渝中区,106.53059106333606,29.550378111285347
公共厕所,公共设施,公共厕所,公共厕所,大黄路与黄杨路交叉口南200米,重庆市,重庆市,渝中区,106.52131040676214,29.535641185767332
公共厕所,公共设施,公共厕所,公共厕所,长江二路58号附近,重庆市,重庆市,渝中区,106.51742844224957,29.54363732112433
公共厕所,公共设施,公共厕所,公共厕所,电视塔村,重庆市,重庆市,渝中区,106.52040847835092,29.544443331890655
公共厕所,公共设施,公共厕所,公共厕所,交通街115号附近,重庆市,重庆市,渝中区,106.52714821082417,29.540329037015056
公共厕所,公共设施,公共厕所,公共厕所,临华路21号5-8,重庆市,重庆市,渝中区,106.5566093217078,29.559621740929373
公共厕所,公共设施,公共厕所,公共厕所,筷子街55号附近,重庆市,重庆市,渝中区,106.57851903330734,29.562252530113955
公共厕所,公共设施,公共厕所,公共厕所,大坪正街146号附近,重庆市,重庆市,渝中区,106.50198233485571,29.540375488348253
公共厕所,公共设施,公共厕所,公共厕所,大坪正街42附近,重庆市,重庆市,渝中区,106.5081503700656,29.540923582428718
卫生间(新世纪百货),公共设施,公共厕所,公共厕所,龙湖时代天街B馆新世纪百货4F层,重庆市,重庆市,渝中区,106.50890455492568,29.540868819533433
卫生间(新世纪百货),公共设施,公共厕所,公共厕所,龙湖时代天街B馆新世纪百货2F层,重庆市,重庆市,渝中区,106.50883535458969,29.54087661345217
卫生间(新世纪百货),公共设施,公共厕所,公共厕所,龙湖时代天街B馆新世纪百货3F层,重庆市,重庆市,渝中区,106.50890856627103,29.54087282977433
公共厕所,公共设施,公共厕所,公共厕所,长江二路132号附近,重庆市,重庆市,渝中区,106.51288092662332,29.540861400910373
公共厕所,公共设施,公共厕所,公共厕所,经纬大道,重庆市,重庆市,渝中区,106.50257176105568,29.545643251406222
公共厕所,公共设施,公共厕所,公共厕所,九坑子路265号附近,重庆市,重庆市,渝中区,106.51546674187014,29.548313007370275
公共厕所,公共设施,公共厕所,公共厕所,石油路地铁站2B口东南200米,重庆市,重庆市,渝中区,106.50550376784518,29.539145444054164
男卫生间(都市广场B座),公共设施,公共厕所,男洗手间,邹容路118号都市广场B座B1层,重庆市,重庆市,渝中区,106.57169613903766,29.561483041182576
公共厕所,公共设施,公共厕所,公共厕所,菜袁路38号,重庆市,重庆市,渝中区,106.54306532491991,29.5504473431517
公共厕所,公共设施,公共厕所,公共厕所,化龙桥正街与华村立交桥交叉口西南100米,重庆市,重庆市,渝中区,106.51846081785382,29.55117040467694
公共厕所,公共设施,公共厕所,公共厕所,龙隐路南50米,重庆市,重庆市,渝中区,106.49546897090624,29.557401636149798
公共厕所,公共设施,公共厕所,公共厕所,中国石油虎歇路加油站(金银湾小区旁),重庆市,重庆市,渝中区,106.49658211879245,29.543492121441123
公共厕所,公共设施,公共厕所,公共厕所,嘉陵新路58附近,重庆市,重庆市,渝中区,106.53007665080561,29.553314725860545
卫生间(英利·大融城),公共设施,公共厕所,公共厕所,大坪正街19号英利·大融城F5层,重庆市,重庆市,渝中区,106.51226711540582,29.542065167657288
卫生间(英利·大融城),公共设施,公共厕所,公共厕所,大坪正街19号英利·大融城F4层,重庆市,重庆市,渝中区,106.51226611255872,29.54206516475506
卫生间(英利·大融城),公共设施,公共厕所,公共厕所,大坪正街19号英利·大融城F2层,重庆市,重庆市,渝中区,106.51226410662606,29.542069157429182
卫生间(英利·大融城),公共设施,公共厕所,公共厕所,大坪正街19号英利·大融城F3层,重庆市,重庆市,渝中区,106.51226611249912,29.54206616437471
卫生间(英利·大融城),公共设施,公共厕所,公共厕所,大坪正街19号英利·大融城B2层,重庆市,重庆市,渝中区,106.51224503279985,29.542399976458814
公共厕所,公共设施,公共厕所,公共厕所,大坪正街5号附近,重庆市,重庆市,渝中区,106.5142928122112,29.542408873585437
公共厕所,公共设施,公共厕所,公共厕所,临华路与名仕城支路交叉口西北50米,重庆市,重庆市,渝中区,106.55468850925878,29.56159181239486
公共厕所,公共设施,公共厕所,公共厕所,嘉陵新路29号,重庆市,重庆市,渝中区,106.53305163664724,29.554392773093685
公共厕所,公共设施,公共厕所,公共厕所,长江二路132附3号附近,重庆市,重庆市,渝中区,106.51315973050873,29.540596306518314
公共厕所,公共设施,公共厕所,公共厕所,南区路与菜园坝立交桥交叉口西50米,重庆市,重庆市,渝中区,106.54418027170364,29.553940430563088
公共厕所,公共设施,公共厕所,公共厕所,新都巷12-13号附近,重庆市,重庆市,渝中区,106.54065000786747,29.558688050623132
公共厕所,公共设施,公共厕所,公共厕所,中大街与解放东路交叉口东50米,重庆市,重庆市,渝中区,106.58037665921962,29.558023252624203
公共厕所,公共设施,公共厕所,公共厕所,体育路125号附近,重庆市,重庆市,渝中区,106.54139656361755,29.558047935488037
公共厕所,公共设施,公共厕所,公共厕所,岚园路与枣子岚垭正街一巷交叉口西南200米,重庆市,重庆市,渝中区,106.55220496228806,29.558305605450975
公共厕所,公共设施,公共厕所,公共厕所,岚园路与枣子岚垭正街一巷交叉口西南150米,重庆市,重庆市,渝中区,106.55269469462868,29.558772321053834
邹容公园-公共厕所,公共设施,公共厕所,公共厕所,南区公园路与南区路交叉口东50米,重庆市,重庆市,渝中区,106.5511965836381,29.554563114387154
公共厕所,公共设施,公共厕所,公共厕所,大坪正街与渝州路交叉口西北50米,重庆市,重庆市,渝中区,106.49956225390629,29.538904809973765
公共厕所,公共设施,公共厕所,公共厕所,长江一路70号捷鹏汽车销售服务有限公司峨岭店附近,重庆市,重庆市,渝中区,106.52671058810704,29.549195546919808
公共厕所,公共设施,公共厕所,公共厕所,南区路与石板坡立交桥交叉口东北100米,重庆市,重庆市,渝中区,106.5571033268594,29.553831644608305
公共厕所,公共设施,公共厕所,公共厕所,金港塔巷128号,重庆市,重庆市,渝中区,106.5563011049916,29.556137491362787
公共厕所,公共设施,公共厕所,公共厕所,人民路227号-附4号附近,重庆市,重庆市,渝中区,106.54505943597431,29.562395222464545
公共厕所,公共设施,公共厕所,公共厕所,兴隆街与石黄隧道交叉口西南50米,重庆市,重庆市,渝中区,106.5601049391065,29.556925196523185
公共厕所,公共设施,公共厕所,公共厕所,李子坝正街60号(李子坝公园),重庆市,重庆市,渝中区,106.53184081159422,29.55422883338338
公共厕所,公共设施,公共厕所,公共厕所,医学院路f栋-39号,重庆市,重庆市,渝中区,106.5067805824143,29.5376977809665
公共厕所,公共设施,公共厕所,公共厕所,渝中区人和街58号附1号,重庆市,重庆市,渝中区,106.55418351067522,29.566039367484727
公共厕所,公共设施,公共厕所,公共厕所,中兴路与南区路交叉口西北150米,重庆市,重庆市,渝中区,106.56379321506857,29.553267764440207
公共厕所,公共设施,公共厕所,公共厕所,纸盐河街39洪崖洞天成巷洪崖洞民俗风貌区03层,重庆市,重庆市,渝中区,106.57518871705838,29.56541185984992
公共厕所,公共设施,公共厕所,公共厕所,马蹄街5号,重庆市,重庆市,渝中区,106.5644338204775,29.553804418290937
公共厕所,公共设施,公共厕所,公共厕所,马蹄街5号,重庆市,重庆市,渝中区,106.5651355488365,29.552877669546074
公共厕所,公共设施,公共厕所,公共厕所,解放西路67附12号附近,重庆市,重庆市,渝中区,106.57304842979153,29.552681535438868
卫生间(英利·大融城),公共设施,公共厕所,公共厕所,民权路26号英利·大融城F6层,重庆市,重庆市,渝中区,106.57122600696847,29.5587575441782
卫生间(英利·大融城),公共设施,公共厕所,公共厕所,民权路26号英利·大融城F5层,重庆市,重庆市,渝中区,106.57122600696847,29.5587575441782
卫生间(英利·大融城),公共设施,公共厕所,公共厕所,民权路26号英利·大融城F4层,重庆市,重庆市,渝中区,106.57122600696847,29.5587575441782
卫生间(英利·大融城),公共设施,公共厕所,公共厕所,民权路26号英利·大融城F2层,重庆市,重庆市,渝中区,106.57122600696847,29.5587575441782
卫生间(英利·大融城),公共设施,公共厕所,公共厕所,民权路26号英利·大融城F1层,重庆市,重庆市,渝中区,106.57133908244023,29.558684685208053
公共厕所,公共设施,公共厕所,公共厕所,长江二路157-附2号,重庆市,重庆市,渝中区,106.51239874441549,29.537768194295868
公共厕所,公共设施,公共厕所,公共厕所,桂花园路54号附近,重庆市,重庆市,渝中区,106.53777404955233,29.557191049325187
公共厕所,公共设施,公共厕所,公共厕所,朝千路28号附近,重庆市,重庆市,渝中区,106.5789419930384,29.564681958077475
公共厕所,公共设施,公共厕所,公共厕所,菜袁路65号附近,重庆市,重庆市,渝中区,106.53812436936451,29.547568398375894
卫生间(大都会广场),公共设施,公共厕所,公共厕所,邹容路68号大都会广场F1层,重庆市,重庆市,渝中区,106.57541212927858,29.559979975799006
卫生间(大都会广场),公共设施,公共厕所,公共厕所,邹容路68号大都会广场LG层,重庆市,重庆市,渝中区,106.57539712433253,29.559957971210462
卫生间(大都会广场),公共设施,公共厕所,公共厕所,邹容路68号大都会广场F6层,重庆市,重庆市,渝中区,106.57562515773307,29.560983792608557
公共厕所,公共设施,公共厕所,公共厕所,守备街与花街子交叉口东50米,重庆市,重庆市,渝中区,106.57156654054991,29.553273880839694
公共厕所,公共设施,公共厕所,公共厕所,中华路与新华路交叉口东50米,重庆市,重庆市,渝中区,106.57532727945697,29.556811047371383
公共厕所,公共设施,公共厕所,公共厕所,嘉滨路88号洪崖洞民俗风貌区2-4层,重庆市,重庆市,渝中区,106.57450444357367,29.564886458762466
公共厕所(装修中),公共设施,公共厕所,公共厕所,九坑子路56附近,重庆市,重庆市,渝中区,106.51549890224979,29.54711954454585
卫生间(大都会广场),公共设施,公共厕所,公共厕所,邹容路68号大都会广场LG层,重庆市,重庆市,渝中区,106.5755191156578,29.56096571168455
公共厕所,公共设施,公共厕所,公共厕所,中山二路174-附5号附近,重庆市,重庆市,渝中区,106.5468318560044,29.559539869496298
公共厕所,公共设施,公共厕所,公共厕所,信义街与朝千路交叉口东北150米,重庆市,重庆市,渝中区,106.58331919716387,29.569796682035626
公共厕所,公共设施,公共厕所,公共厕所,长江滨江路160号附近,重庆市,重庆市,渝中区,106.57611985965228,29.552301342104066
公共厕所,公共设施,公共厕所,公共厕所,石油路52号附近,重庆市,重庆市,渝中区,106.49333907453703,29.549963967427793
公共厕所,公共设施,公共厕所,公共厕所,大坪正街118号嘉华鑫城C栋,重庆市,重庆市,渝中区,106.50343559752608,29.54079066578712
公共厕所,公共设施,公共厕所,公共厕所,中山四路85号西北方向190米,重庆市,重庆市,渝中区,106.54396600277455,29.568547766387685
公共厕所,公共设施,公共厕所,公共厕所,长江二路37号附8号,重庆市,重庆市,渝中区,106.5214252571054,29.54332055523857
公共厕所,公共设施,公共厕所,公共厕所,南区路北50米,重庆市,重庆市,渝中区,106.5628322340377,29.55305253476699
公共厕所,公共设施,公共厕所,公共厕所,民新街与黄杨路交叉口东南100米,重庆市,重庆市,渝中区,106.52293884147537,29.533296542473074
公共厕所,公共设施,公共厕所,公共厕所,北区路与黄花园立交桥交叉口西南50米,重庆市,重庆市,渝中区,106.56004039438479,29.564902249863056
公共厕所,公共设施,公共厕所,公共厕所,北区路与巴蜀路交叉口北150米,重庆市,重庆市,渝中区,106.55943757752304,29.566399812224322
公共厕所,公共设施,公共厕所,公共厕所,嘉陵江滨江路北50米,重庆市,重庆市,渝中区,106.51324915407284,29.554542355404326
公共厕所,公共设施,公共厕所,公共厕所,维新巷14号附近,重庆市,重庆市,渝中区,106.5691096244025,29.557534732508497
邹容公园-公共厕所,公共设施,公共厕所,公共厕所,邹容公园(重庆市第三人民医院东南),重庆市,重庆市,渝中区,106.55194074585918,29.554933347379322
东方花苑饭店-洗手间,公共设施,公共厕所,公共厕所,学田湾正街55号(近上清寺人民大礼堂),重庆市,重庆市,渝中区,106.54730455654871,29.561997939392587
公共厕所,公共设施,公共厕所,公共厕所,大同路70号交通银行左侧,重庆市,重庆市,渝中区,106.56858213029619,29.55917155030824
重庆朝天门广场-公共厕所,公共设施,公共厕所,公共厕所,朝千路114号附近,重庆市,重庆市,渝中区,106.58481718234262,29.569043604462443
公共厕所,公共设施,公共厕所,公共厕所,鹅岭正街176号鹅岭公园内,重庆市,重庆市,渝中区,106.52558154349933,29.552324410534577
公共厕所,公共设施,公共厕所,公共厕所,嘉陵江滨江路98附近,重庆市,重庆市,渝中区,106.57267350129905,29.56502673826069
洗手间,公共设施,公共厕所,公共厕所,经纬大道774号协信星光天地F3,重庆市,重庆市,渝中区,106.49884557716015,29.548073191617267
公共厕所,公共设施,公共厕所,公共厕所,长江支路27附11号附近,重庆市,重庆市,渝中区,106.5145043103042,29.54400387523111
女洗手间,公共设施,公共厕所,公共厕所,大坪正街与单巷子交叉口西南方向70米,重庆市,重庆市,渝中区,106.5130081511867,29.543136902473716
公共厕所,公共设施,公共厕所,公共厕所,五一路99号协信星光广场F4,重庆市,重庆市,渝中区,106.577476820987,29.560900266983204
公共厕所,公共设施,公共厕所,公共厕所,解放东路82号附近,重庆市,重庆市,渝中区,106.57907833895757,29.55930396410603
公共厕所,公共设施,公共厕所,公共厕所,长滨路二层路银星商城(协信商厦东南),重庆市,重庆市,渝中区,106.58374848668808,29.564773637565725
公共厕所,公共设施,公共厕所,公共厕所,下徐家坡与长江一路交叉口北50米,重庆市,重庆市,渝中区,106.53409926719597,29.550709688440055
两江丽景酒店-洗手间,公共设施,公共厕所,公共厕所,黄花园立交桥与双钢路交叉口西北方向40米,重庆市,重庆市,渝中区,106.56161727242022,29.56397089096346
公共厕所,公共设施,公共厕所,公共厕所,菜园坝重庆站附近,重庆市,重庆市,渝中区,106.54563515873586,29.551304430154158
博顿美锦酒店-洗手间,公共设施,公共厕所,公共厕所,公园路19号(新华路雅兰电子城对面),重庆市,重庆市,渝中区,106.57782502477261,29.55919213366256
洪崖洞大酒店-洗手间,公共设施,公共厕所,公共厕所,沧白路56号(解放碑王府井商场旁),重庆市,重庆市,渝中区,106.57626715784232,29.565225806454976
重庆人民广场-公共厕所,公共设施,公共厕所,公共厕所,人民路173号(近人民大礼堂人民广场),重庆市,重庆市,渝中区,106.54933788592028,29.56533874345631
公共厕所,公共设施,公共厕所,公共厕所,八一路260号,重庆市,重庆市,渝中区,106.57259294423785,29.55669463920971
金海洋酒店洗手间,公共设施,公共厕所,公共厕所,陕西路22号长航大厦,重庆市,重庆市,渝中区,106.58252443164534,29.565511785899762
公共厕所,公共设施,公共厕所,公共厕所,体育路与八一隧道交叉口东南150米,重庆市,重庆市,渝中区,106.54263304971155,29.557711755778065
公共厕所,公共设施,公共厕所,公共厕所,学田湾正街37附1号附近,重庆市,重庆市,渝中区,106.54909066240792,29.56200944488866
公共厕所,公共设施,公共厕所,公共厕所,中兴路穆斯林大厦对面,重庆市,重庆市,渝中区,106.56817900870303,29.55588827642786
岷山园林大酒店-洗手间,公共设施,公共厕所,公共厕所,长江二路173号,重庆市,重庆市,渝中区,106.51261538586999,29.537309997645007
得意潮馆-男洗手间,公共设施,公共厕所,公共厕所,较场口86号得意潮馆B1层,重庆市,重庆市,渝中区,106.57213970288394,29.556376316315827
恒通云鼎-洗手间,公共设施,公共厕所,公共厕所,八一路260号,重庆市,重庆市,渝中区,106.5726809633981,29.557208537132098
扬子岛酒店-洗手间,公共设施,公共厕所,公共厕所,邹容路82号附1号(太平洋百货解放碑商场对面),重庆市,重庆市,渝中区,106.57432663877329,29.560135991225327
公共厕所,公共设施,公共厕所,公共厕所,嘉陵江滨江路194附近,重庆市,重庆市,渝中区,106.55873763841058,29.567603314256786
公共厕所,公共设施,公共厕所,公共厕所,临江路与大井巷交叉口东50米,重庆市,重庆市,渝中区,106.56905232975005,29.56183812458334
万友康年大酒店-洗手间,公共设施,公共厕所,公共厕所,大坪长江二路77号(地铁站出口、毗邻大坪医院、龙湖时代天街),重庆市,重庆市,渝中区,106.51608278182577,29.54277384240367
公共厕所,公共设施,公共厕所,公共厕所,华一路与黄花园立交桥交叉口西北50米,重庆市,重庆市,渝中区,106.56599567552665,29.56424166442063
公共厕所,公共设施,公共厕所,公共厕所,长江一路43号孔亮鳝鱼火锅(万州二店)附近,重庆市,重庆市,渝中区,106.54321431125304,29.555618765219833
公共厕所,公共设施,公共厕所,公共厕所,大同路72号附近,重庆市,重庆市,渝中区,106.56894822047408,29.56237581708227
公共厕所,公共设施,公共厕所,公共厕所,菜袁路3附1号附近,重庆市,重庆市,渝中区,106.54702568383547,29.551368233342963
公共厕所,公共设施,公共厕所,公共厕所,南区路181附近,重庆市,重庆市,渝中区,106.5474863997442,29.553137503613566
公共厕所,公共设施,公共厕所,公共厕所,上清寺路与美专校街交叉口东南100米,重庆市,重庆市,渝中区,106.54260379767533,29.561015506198736
公共厕所,公共设施,公共厕所,公共厕所,临江路与沧白路交叉口东南50米,重庆市,重庆市,渝中区,106.57407932120421,29.563538560268043
公共厕所,公共设施,公共厕所,公共厕所,得意世界B区负1楼,重庆市,重庆市,渝中区,106.5719335946097,29.556146197506553
人民公园-公共厕所,公共设施,公共厕所,公共厕所,公园路19号,重庆市,重庆市,渝中区,106.57788908256414,29.55851942198528
公共厕所,公共设施,公共厕所,公共厕所,信义街与朝千路交叉口东50米,重庆市,重庆市,渝中区,106.58338925456445,29.568815055878297
公共厕所(装修中),公共设施,公共厕所,公共厕所,陕西路,重庆市,重庆市,渝中区,106.5819895090718,29.563680152362455
公共厕所,公共设施,公共厕所,公共厕所,枇杷山正街88号附近,重庆市,重庆市,渝中区,106.55241045934895,29.555291069587216
公共厕所,公共设施,公共厕所,公共厕所,民族巷6号附1号,重庆市,重庆市,渝中区,106.57666338996455,29.563698656136093
公共厕所,公共设施,公共厕所,公共厕所,嘉陵江滨江路与朝东路交叉口北50米,重庆市,重庆市,渝中区,106.58356463854929,29.562237451288276
女洗手间,公共设施,公共厕所,公共厕所,人民路129号三峡古玩城F1,重庆市,重庆市,渝中区,106.55072921188922,29.565044485841128
协信公馆-洗手间,公共设施,公共厕所,公共厕所,黄花园立交桥与双钢路交叉口东南方向140米,重庆市,重庆市,渝中区,106.56262044426379,29.562686762700263
凤凰佳居酒店-洗手间,公共设施,公共厕所,公共厕所,凤凰台6号,重庆市,重庆市,渝中区,106.56794804023622,29.552215352753553
公共厕所,公共设施,公共厕所,公共厕所,长江滨江路109号,重庆市,重庆市,渝中区,106.58218385810471,29.55793730863086
男洗手间,公共设施,公共厕所,公共厕所,,重庆市,重庆市,渝中区,106.56876038250327,29.55719046633466
公共厕所,公共设施,公共厕所,公共厕所,中兴路1-3附近,重庆市,重庆市,渝中区,106.56861401850098,29.561497753602143
公共厕所,公共设施,公共厕所,公共厕所,十八梯132号,重庆市,重庆市,渝中区,106.56942501545873,29.55480707136046
女洗手间(女人广场),公共设施,公共厕所,公共厕所,青年路与中华路交叉口东南方向70米,重庆市,重庆市,渝中区,106.57129205015485,29.558731620628873
协信星光广场-洗手间,公共设施,公共厕所,公共厕所,五一路99号协信星光广场F5,重庆市,重庆市,渝中区,106.57713570999145,29.560954992890107
女洗手间,公共设施,公共厕所,公共厕所,民权路2号重百大楼F4,重庆市,重庆市,渝中区,106.57252573060245,29.5596954923973
JW万豪酒店-洗手间,公共设施,公共厕所,公共厕所,鲁祖庙与青年路交叉口东南方向70米,重庆市,重庆市,渝中区,106.5707647179975,29.55861512128405
洗手间,公共设施,公共厕所,公共厕所,八一路53号大都会东方广场F8,重庆市,重庆市,渝中区,106.57530005661184,29.560420724471765
公共厕所(重庆站),公共设施,公共厕所,公共厕所,南区路249号重庆站2F层,重庆市,重庆市,渝中区,106.54422545136326,29.552350109101535
卫生间(日月光中心广场),公共设施,公共厕所,公共厕所,民权路89号日月光中心广场F3层,重庆市,重庆市,渝中区,106.56761545822744,29.557557015499977
重庆大世界酒店-洗手间,公共设施,公共厕所,公共厕所,中华路与邹容路交叉口北50米,重庆市,重庆市,渝中区,106.57077854531673,29.561718024025527
卫生间(日月光中心广场),公共设施,公共厕所,公共厕所,民权路89号日月光中心广场F3层,重庆市,重庆市,渝中区,106.56869432386387,29.557333340138342
卫生间(日月光中心广场),公共设施,公共厕所,公共厕所,民权路89号日月光中心广场F4层,重庆市,重庆市,渝中区,106.56875037531266,29.557183457597425
卫生间(日月光中心广场),公共设施,公共厕所,公共厕所,民权路89号日月光中心广场B1层,重庆市,重庆市,渝中区,106.56899655482742,29.55728569666589
公共厕所,公共设施,公共厕所,公共厕所,大坪正街与彭家花园交叉口东50米,重庆市,重庆市,渝中区,106.51137049817116,29.54316215024951
公共厕所,公共设施,公共厕所,公共厕所,石油路与虎头岩隧道交叉口东北50米,重庆市,重庆市,渝中区,106.50554736929766,29.547968234533926
无障碍洗手间,公共设施,公共厕所,公共厕所,大坪长江路174号龙湖时代天街F4,重庆市,重庆市,渝中区,106.50778342187996,29.538979246612136
公共厕所,公共设施,公共厕所,公共厕所,大坪正街与医学院路交叉口西南方向190米,重庆市,重庆市,渝中区,106.50067553397636,29.539266005508384
公共厕所(暂停营业),公共设施,公共厕所,公共厕所,菜袁路与黄沙溪立交桥交叉口西北150米,重庆市,重庆市,渝中区,106.51850771805599,29.538143448937863
卫生间(英利·大融城),公共设施,公共厕所,女洗手间,大坪正街19号英利·大融城F2层,重庆市,重庆市,渝中区,106.51251776713869,29.54306451345023
公共厕所,公共设施,公共厕所,公共厕所,经纬大道与长和路交叉路口往东约50米,重庆市,重庆市,渝中区,106.50226166522667,29.548661197112423
卫生间(大都会广场),公共设施,公共厕所,公共厕所,邹容路68号大都会广场F6层,重庆市,重庆市,渝中区,106.57534710744837,29.559889953934512
卫生间(大都会广场),公共设施,公共厕所,公共厕所,邹容路68号大都会广场F1层,重庆市,重庆市,渝中区,106.57548910234883,29.560982680798002
公共厕所,公共设施,公共厕所,公共厕所,长江二路与长江二路二巷交叉口西南方向60米,重庆市,重庆市,渝中区,106.51379252911772,29.540349222588077
公共厕所,公共设施,公共厕所,公共厕所,李子坝正街113-1号附近,重庆市,重庆市,渝中区,106.52440751061583,29.552699142962176
公共厕所,公共设施,公共厕所,公共厕所,九坑子路265号附近,重庆市,重庆市,渝中区,106.51691881325128,29.547472441220545
公共厕所,公共设施,公共厕所,公共厕所,瑞天路134号,重庆市,重庆市,渝中区,106.50528413728459,29.55570160654549
公共厕所,公共设施,公共厕所,公共厕所,龙隐路153号,重庆市,重庆市,渝中区,106.49503980945897,29.5554550537322
男洗手间(英利·大融城),公共设施,公共厕所,公共厕所,大坪正街二巷与大坪支路交叉口东北方向80米,重庆市,重庆市,渝中区,106.5123383066025,29.542248304099225
公共厕所,公共设施,公共厕所,公共厕所,,重庆市,重庆市,渝中区,106.52479396722555,29.544899078649767
重庆枇杷山公园-公共厕所,公共设施,公共厕所,公共厕所,枇杷山正街84-附4号附近,重庆市,重庆市,渝中区,106.55332784462084,29.55563858355967
重庆枇杷山公园-公共厕所,公共设施,公共厕所,公共厕所,中山二路南100米,重庆市,重庆市,渝中区,106.55310544232336,29.556746786523778
公共厕所,公共设施,公共厕所,公共厕所,余松路(协信云栖谷东北侧约50米),重庆市,重庆市,渝中区,106.49222157291936,29.552903535122795
公共厕所,公共设施,公共厕所,公共厕所,嘉陵新路20附近,重庆市,重庆市,渝中区,106.53440073566509,29.554425054684934
公共厕所,公共设施,公共厕所,公共厕所,长江二路,重庆市,重庆市,渝中区,106.52322604015653,29.542626723707983
公共厕所,公共设施,公共厕所,公共厕所,南区路与菜园坝立交桥交叉口东北50米,重庆市,重庆市,渝中区,106.54589248704264,29.553785046774394
公共厕所,公共设施,公共厕所,公共厕所,嘉陵桥路与四新路交叉口东100米,重庆市,重庆市,渝中区,106.54137318560772,29.563667876341935
鹅岭公园-公共厕所,公共设施,公共厕所,公共厕所,鹅岭正街176号鹅岭公园内,重庆市,重庆市,渝中区,106.53170863858122,29.551868369371725
公共厕所,公共设施,公共厕所,公共厕所,桂花园路76号,重庆市,重庆市,渝中区,106.53336333697138,29.55475840518931
公共厕所,公共设施,公共厕所,公共厕所,桂花园路50号,重庆市,重庆市,渝中区,106.53689820383866,29.556230353450573
公共厕所,公共设施,公共厕所,公共厕所,鹅岭正街1号二厂文创公园内,重庆市,重庆市,渝中区,106.53575881383796,29.55409243806468
重庆广场宾馆-洗手间,公共设施,公共厕所,公共厕所,学田湾正街2号,重庆市,重庆市,渝中区,106.54868988680732,29.56355012082931
男洗手间(八一广场),公共设施,公共厕所,男洗手间,八一路238号八一广场B1层,重庆市,重庆市,渝中区,106.57299008013983,29.55811450227816
公共厕所,公共设施,公共厕所,公共厕所,体育路19号附1号,重庆市,重庆市,渝中区,106.54104580787165,29.558815883936763
公共厕所,公共设施,公共厕所,公共厕所,,重庆市,重庆市,渝中区,106.54319106069588,29.55910845367961
公共厕所,公共设施,公共厕所,公共厕所,中山二路89号附2号,重庆市,重庆市,渝中区,106.55071564088496,29.557363201603188
公共厕所(重百大楼店),公共设施,公共厕所,公共厕所,民权路2号F2层,重庆市,重庆市,渝中区,106.57283789342446,29.55988572169033
公共厕所,公共设施,公共厕所,公共厕所,交通街29号附近,重庆市,重庆市,渝中区,106.52503496606714,29.538468170914836
周公馆-公共厕所,公共设施,公共厕所,公共厕所,人民支路96-4号,重庆市,重庆市,渝中区,106.54688945969836,29.56804197874469
公共厕所,公共设施,公共厕所,公共厕所,枇杷山后街78号,重庆市,重庆市,渝中区,106.55607189603482,29.55431177663405
公共厕所,公共设施,公共厕所,公共厕所,枣子岚垭正街13-5号,重庆市,重庆市,渝中区,106.55323947204903,29.55970795696345
公共厕所,公共设施,公共厕所,公共厕所,枣子岚垭正街11号中二路社区,重庆市,重庆市,渝中区,106.55339073130288,29.559187411710333
西来寺公共厕所,公共设施,公共厕所,公共厕所,临江路71号附近,重庆市,重庆市,渝中区,106.56849393109329,29.56141164796751
公共厕所,公共设施,公共厕所,公共厕所,和平路250号,重庆市,重庆市,渝中区,106.56364783059598,29.557314095164635
英利大融城-女洗手间,公共设施,公共厕所,公共厕所,民权路26号英利·大融城B1,重庆市,重庆市,渝中区,106.57153120652174,29.55860590733093
公共厕所,公共设施,公共厕所,公共厕所,临江路120号附近,重庆市,重庆市,渝中区,106.56764128073992,29.560946827694007
女人广场-洗手间,公共设施,公共厕所,公共厕所,大同路16号女人广场B1,重庆市,重庆市,渝中区,106.56859204064011,29.560831966385518
公共厕所,公共设施,公共厕所,公共厕所,李子坝正街91附近,重庆市,重庆市,渝中区,106.52801562500058,29.5529725586247
公共厕所,公共设施,公共厕所,公共厕所,磁器街与新华路交叉口东南方向110米,重庆市,重庆市,渝中区,106.57389877839742,29.55422375065955
重百大楼-洗手间,公共设施,公共厕所,公共厕所,民权路2号重百大楼F10,重庆市,重庆市,渝中区,106.57256975163266,29.559760511288992
公共厕所,公共设施,公共厕所,公共厕所,大溪沟街与嘉陵江滨江路交叉口西南方向80米,重庆市,重庆市,渝中区,106.557888591715,29.566948209666712
公共厕所,公共设施,公共厕所,公共厕所,解放东路409号,重庆市,重庆市,渝中区,106.57481723963899,29.55372074151272
公共厕所,公共设施,公共厕所,公共厕所,新民街115号,重庆市,重庆市,渝中区,106.56575778897613,29.558628368657292
女洗手间(得意潮馆),公共设施,公共厕所,女洗手间,较场口86号得意潮馆B1层,重庆市,重庆市,渝中区,106.57149234579718,29.555817877263877
公共厕所,公共设施,公共厕所,公共厕所,凯旋路16号融创白象街内,重庆市,重庆市,渝中区,106.57577159386867,29.55453724122988
公共厕所,公共设施,公共厕所,公共厕所,戴家巷9-9号,重庆市,重庆市,渝中区,106.57219628841526,29.56401663463525
公共厕所,公共设施,公共厕所,公共厕所,嘉陵新路68号附近,重庆市,重庆市,渝中区,106.53105897849844,29.553846015063126
英利大融城-男洗手间,公共设施,公共厕所,公共厕所,民权路26号英利·大融城B1,重庆市,重庆市,渝中区,106.57145016057822,29.558533851753445
公共厕所,公共设施,公共厕所,公共厕所,新华路153号,重庆市,重庆市,渝中区,106.57899723463055,29.560773383201003
公共厕所(CQ-YZ-0029),公共设施,公共厕所,公共厕所,嘉陵江滨江路与陕西路交叉路口往西北约100米,重庆市,重庆市,渝中区,106.5816374552528,29.564122804604658
公共厕所,公共设施,公共厕所,公共厕所,嘉陵新路14附近,重庆市,重庆市,渝中区,106.5349098649048,29.554847129881274
公共厕所,公共设施,公共厕所,公共厕所,凯旋路16号融创白象街内,重庆市,重庆市,渝中区,106.57564056883145,29.5540703047145
公共厕所,公共设施,公共厕所,公共厕所,朝千路4号,重庆市,重庆市,渝中区,106.58150522790926,29.567795441686716
重百大楼-洗手间,公共设施,公共厕所,公共厕所,民权路2号重百大楼F8,重庆市,重庆市,渝中区,106.57252573060245,29.5596954923973
公共厕所,公共设施,公共厕所,公共厕所,朝东路1-附1号,重庆市,重庆市,渝中区,106.58410823749688,29.568829378597147
公共厕所,公共设施,公共厕所,公共厕所,王家坡长江一路30号广璐大厦附近,重庆市,重庆市,渝中区,106.538829522264,29.553495825869565
公共厕所,公共设施,公共厕所,公共厕所,,重庆市,重庆市,渝中区,106.58483817183117,29.56919456058467
公共厕所,公共设施,公共厕所,公共厕所,沧白路42号,重庆市,重庆市,渝中区,106.57789065035107,29.56590579535507
公共厕所,公共设施,公共厕所,公共厕所,菜袁路6号附近,重庆市,重庆市,渝中区,106.5450520334336,29.551997968569804
公共厕所,公共设施,公共厕所,公共厕所,滨江路51号,重庆市,重庆市,渝中区,106.58443655531697,29.563125523366377
公共厕所,公共设施,公共厕所,公共厕所,中山三路131号附近,重庆市,重庆市,渝中区,106.54510380429605,29.557543053408857
公共厕所,公共设施,公共厕所,公共厕所,枇杷山正街126号第三医院旁,重庆市,重庆市,渝中区,106.54948165925593,29.556302248492827
公共厕所,公共设施,公共厕所,公共厕所,长江滨江路319附近,重庆市,重庆市,渝中区,106.5539989767731,29.55345456025125
公共厕所,公共设施,公共厕所,公共厕所,中山二路136号重庆医科大学附属儿童医院附近,重庆市,重庆市,渝中区,106.5522881447236,29.55740907984983
公共厕所,公共设施,公共厕所,公共厕所,南区路76附近,重庆市,重庆市,渝中区,106.55580958100978,29.553464649380526
公共厕所,公共设施,公共厕所,公共厕所,江南大道与石板坡立交桥交叉口东南50米,重庆市,重庆市,渝中区,106.55939933849218,29.552622699905204
公共厕所,公共设施,公共厕所,公共厕所,和平路与金汤街交叉口西50米,重庆市,重庆市,渝中区,106.56300314710053,29.557609110952225
公共厕所(日月光中心广场),公共设施,公共厕所,公共厕所,民权路89号日月光中心广场F2层,重庆市,重庆市,渝中区,106.5673342535865,29.55709085160182
公共厕所(日月光中心广场),公共设施,公共厕所,公共厕所,民权路89号日月光中心广场LG1层,重庆市,重庆市,渝中区,106.56732724863613,29.557075848706013
天地湖-公共厕所(暂停营业),公共设施,公共厕所,公共厕所,临湖路与瑞天路交叉口东南150米,重庆市,重庆市,渝中区,106.50780456107692,29.55445651224273
公共厕所,公共设施,公共厕所,公共厕所,上清寺路69号附近,重庆市,重庆市,渝中区,106.53645830864012,29.555030754224447
公共厕所,公共设施,公共厕所,公共厕所,嘉陵江滨江路与李子坝正街交叉口南100米,重庆市,重庆市,渝中区,106.53501499215679,29.556711705034235
公共厕所,公共设施,公共厕所,公共厕所,嘉陵江滨江路与李子坝正街交叉口南100米,重庆市,重庆市,渝中区,106.53726879704152,29.559880904560025
公共厕所,公共设施,公共厕所,公共厕所,健康路50号花园大厦B幢旁,重庆市,重庆市,渝中区,106.54024833601578,29.55607509763979
大田湾公共厕所,公共设施,公共厕所,公共厕所,体育路143号附近,重庆市,重庆市,渝中区,106.54320107637922,29.559173451782687
公共厕所(环球购物中心),公共设施,公共厕所,公共厕所,民族路188号环球购物中心B1层,重庆市,重庆市,渝中区,106.57386830210507,29.5620988823644
公共厕所,公共设施,公共厕所,公共厕所,中山三路1号楼下,重庆市,重庆市,渝中区,106.5490479776985,29.555405739278584
公共厕所,公共设施,公共厕所,公共厕所,嘉陵江滨江路268附6号附近,重庆市,重庆市,渝中区,106.5469054370663,29.568914707298603
重庆朝天门广场-公共厕所,公共设施,公共厕所,公共厕所,信义街与朝千路交叉口东北150米,重庆市,重庆市,渝中区,106.58345020954015,29.569577819750194
公共厕所,公共设施,公共厕所,公共厕所,枇杷山后街与石板坡正街交叉口西50米,重庆市,重庆市,渝中区,106.55708018367754,29.555745908742207
卫生间(日月光中心广场),公共设施,公共厕所,公共厕所,民权路89号日月光中心广场F1层,重庆市,重庆市,渝中区,106.56733125231919,29.55706985563563
公共厕所,公共设施,公共厕所,公共厕所,兴隆街129号,重庆市,重庆市,渝中区,106.55870525724612,29.55635626732266
公共厕所,公共设施,公共厕所,公共厕所,马蹄街20号,重庆市,重庆市,渝中区,106.56384218991684,29.55454036436913
公共厕所(暂停营业),公共设施,公共厕所,公共厕所,和平路248号,重庆市,重庆市,渝中区,106.563995189685,29.55716561437885
公共厕所,公共设施,公共厕所,公共厕所,北区路5号附近,重庆市,重庆市,渝中区,106.56687660576253,29.561558697913902
公共厕所,公共设施,公共厕所,公共厕所,解放西路9号东南50米,重庆市,重庆市,渝中区,106.57380380997759,29.552879157798596
重庆珊瑚公园-公共厕所,公共设施,公共厕所,公共厕所,长江滨江路336号附近,重庆市,重庆市,渝中区,106.55014599319041,29.55246691500321
重庆珊瑚公园-公共厕所,公共设施,公共厕所,公共厕所,长江滨江路346附近,重庆市,重庆市,渝中区,106.55150215386382,29.553182184029215
肯德基(大礼堂餐厅)-洗手间,公共设施,公共厕所,公共厕所,人民路133号泰古广场1楼,重庆市,重庆市,渝中区,106.5504206706215,29.565668687395952
女洗手间(环球购物中心),公共设施,公共厕所,女洗手间,民族路188号环球购物中心B1层,重庆市,重庆市,渝中区,106.57409442800324,29.561840176902926
重庆大世界酒店-公共厕所,公共设施,公共厕所,公共厕所,邹容路118号(世界贸易中心对面),重庆市,重庆市,渝中区,106.57087760374625,29.561825088439353
李子坝抗战遗址公园-公共厕所,公共设施,公共厕所,公共厕所,李子坝正街抗战遗址公园,重庆市,重庆市,渝中区,106.53084943175458,29.554626202355948
重庆枇杷山公园-公共厕所,公共设施,公共厕所,公共厕所,中山二路282附近,重庆市,重庆市,渝中区,106.55521146198798,29.558158935514143
大都会东方广场-无障碍洗手间,公共设施,公共厕所,公共厕所,八一路53号大都会东方广场F2,重庆市,重庆市,渝中区,106.5749648929844,29.560755321977336
大坪协信星光天地-女洗手间,公共设施,公共厕所,公共厕所,经纬大道774号协信星光天地F3,重庆市,重庆市,渝中区,106.4978787064774,29.548011314673765
女洗手间(重庆新世纪百货),公共设施,公共厕所,公共厕所,青年路18号重庆新世纪百货F2层,重庆市,重庆市,渝中区,106.57172522785254,29.560268504210125
公共厕所(日月光中心广场),公共设施,公共厕所,公共厕所,潘家沟与新民街交叉口西南方向50米,重庆市,重庆市,渝中区,106.56664467125071,29.557032042891507
麦当劳(重庆鼎好广场店)-洗手间,公共设施,公共厕所,公共厕所,,重庆市,重庆市,渝中区,106.5687714324033,29.556481735588
重庆珊瑚公园-公共厕所(暂停营业),公共设施,公共厕所,公共厕所,菜园坝立交桥与长江滨江路交叉口南150米,重庆市,重庆市,渝中区,106.54877471427957,29.551942477594576
龙湖时代天街A馆-无障碍洗手间,公共设施,公共厕所,公共厕所,,重庆市,重庆市,渝中区,106.50695486275158,29.541510834136535
龙湖时代天街A馆-无障碍洗手间,公共设施,公共厕所,公共厕所,长江二路,重庆市,重庆市,渝中区,106.5088235798117,29.536522253030373
公共厕所(国泰优活城市广场北区),公共设施,公共厕所,公共厕所,邹容路108号国泰优活城市广场北区B1层,重庆市,重庆市,渝中区,106.57256961190679,29.56214465933114
重庆滨江公园-公共厕所,公共设施,公共厕所,公共厕所,长江滨江路216号附近,重庆市,重庆市,渝中区,106.56654391700756,29.551341000634437
无障碍洗手间(国泰优活城市广场北区),公共设施,公共厕所,残障洗手间/无障碍洗手间,邹容路108号国泰优活城市广场北区B2层,重庆市,重庆市,渝中区,106.57250857457375,29.562193583361353
公共厕所,公共设施,公共厕所,公共厕所,,重庆市,重庆市,渝中区,106.55003547121682,29.55823760458981
重庆雾都宾馆-洗手间,公共设施,公共厕所,公共厕所,上曾家岩24号,重庆市,重庆市,渝中区,106.54697964046092,29.567718272948564
无障碍洗手间(国泰优活城市广场南区),公共设施,公共厕所,残障洗手间/无障碍洗手间,邹容路108号国泰优活城市广场南区LG层,重庆市,重庆市,渝中区,106.57205636235236,29.56135444328232
无障碍洗手间(国泰优活城市广场南区),公共设施,公共厕所,残障洗手间/无障碍洗手间,邹容路108号国泰优活城市广场南区B1层,重庆市,重庆市,渝中区,106.57228548444145,29.56155359583558
无障碍洗手间(国泰优活城市广场北区),公共设施,公共厕所,残障洗手间/无障碍洗手间,邹容路108号国泰优活城市广场北区B1层,重庆市,重庆市,渝中区,106.57250657355775,29.56219158215058
无障碍洗手间(国泰优活城市广场北区),公共设施,公共厕所,残障洗手间/无障碍洗手间,邹容路108号国泰优活城市广场北区L2层,重庆市,重庆市,渝中区,106.57312489782566,29.562465070552793
无障碍洗手间(国泰优活城市广场北区),公共设施,公共厕所,残障洗手间/无障碍洗手间,邹容路108号国泰优活城市广场北区L1层,重庆市,重庆市,渝中区,106.57311389194278,29.56246506028088
男洗手间(得意潮馆),公共设施,公共厕所,男洗手间,较场口86号得意潮馆F2层,重庆市,重庆市,渝中区,106.57153437351477,29.55578793039277
男洗手间(得意潮馆),公共设施,公共厕所,男洗手间,较场口86号得意潮馆F2层,重庆市,重庆市,渝中区,106.57160643092696,29.555564084065484
男洗手间(得意潮馆),公共设施,公共厕所,男洗手间,较场口86号得意潮馆F3层,重庆市,重庆市,渝中区,106.57151035687559,29.55581889500498
男洗手间(得意潮馆),公共设施,公共厕所,男洗手间,较场口86号得意潮馆F4层,重庆市,重庆市,渝中区,106.57151035693418,29.555817895368527
男洗手间(得意潮馆),公共设施,公共厕所,男洗手间,较场口86号得意潮馆B1层,重庆市,重庆市,渝中区,106.57150535577534,29.555784902338754
男洗手间(得意潮馆),公共设施,公共厕所,男洗手间,较场口86号得意潮馆F3层,重庆市,重庆市,渝中区,106.57232083761977,29.555871675910026
