名称,大类,中类,小类,地址,省,市,区,WGS84_经度,WGS84_纬度
王二包自然保护区,风景名胜,风景名胜,风景名胜,龙双公路,重庆市,重庆市,万州区,108.7474796168548,30.665033576970764
慈云寺,风景名胜,风景名胜,寺庙道观,沙龙路1段1068号,重庆市,重庆市,万州区,108.37097139023767,30.803999261338255
奇芳花谷,风景名胜,风景名胜,风景名胜,甘宁镇,重庆市,重庆市,万州区,108.26962248937407,30.663957219351097
万州大瀑布群景区,风景名胜,风景名胜,国家级景点,甘宁镇甘宁河段,重庆市,重庆市,万州区,108.24805351595457,30.65578676497509
弥陀禅院,风景名胜,风景名胜,寺庙道观,北山一支路199号,重庆市,重庆市,万州区,108.38106202475836,30.825620502700055
真原堂,风景名胜,风景名胜,教堂,申明坝滨湖路1599号,重庆市,重庆市,万州区,108.36156257311777,30.852092165631596
万州石桥水乡湿地公园,风景名胜,风景名胜,省级景点,武陵镇石桥村,重庆市,重庆市,万州区,108.23841856428442,30.570296013142894
三峡移民纪念馆,风景名胜,风景名胜,纪念馆,南滨大道市民广场附近,重庆市,重庆市,万州区,108.39718078126653,30.81101555887579
歇凤山,风景名胜,风景名胜,风景名胜,塘坊大道与059县道交叉口东北100米,重庆市,重庆市,万州区,108.35040846832894,30.90309688730658
万州大河梨园风景区,风景名胜,风景名胜,风景名胜,055县道附近,重庆市,重庆市,万州区,108.44465237083155,30.812056362623554
西山公园-西山钟楼,风景名胜,风景名胜,风景名胜,王牌路13号附3号西山公园,重庆市,重庆市,万州区,108.38260230269239,30.806220084153846
林铁故里,风景名胜,风景名胜,纪念馆,孙家收费站附近,重庆市,重庆市,万州区,108.01156372500608,30.729674861827334
万县九五惨案纪念馆,风景名胜,风景名胜,纪念馆,南石沟10号,重庆市,重庆市,万州区,108.36026121102856,30.815144458999
龙冠自然风景区,风景名胜,风景名胜,风景名胜,X055号,重庆市,重庆市,万州区,108.42590015583062,30.78625052780228
悠石子,风景名胜,风景名胜,风景名胜,灵凤村,重庆市,重庆市,万州区,108.33837961092429,30.721297230565543
基督教圣十字堂,风景名胜,风景名胜,教堂,天龙路181号,重庆市,重庆市,万州区,108.36395484945889,30.827341787869262
西山广场,风景名胜,风景名胜,风景名胜,静园路301号,重庆市,重庆市,万州区,108.37988957310213,30.80303468252872
万州大瀑布,风景名胜,风景名胜,国家级景点,甘宁镇内,重庆市,重庆市,万州区,108.24803047653407,30.656327531395323
文峰塔,风景名胜,风景名胜,风景名胜,江南大道,重庆市,重庆市,万州区,108.42066587974158,30.820158247011875
全胜寨,风景名胜,风景名胜,风景名胜,经开大道灵凤村鸡心岭附近,重庆市,重庆市,万州区,108.3310007741032,30.721225057354463
清真寺,风景名胜,风景名胜,回教寺,沙龙路2段951号,重庆市,重庆市,万州区,108.38272085806041,30.797369787054638
凤凰花果山景区,风景名胜,风景名胜,风景名胜,凤凰社区5组,重庆市,重庆市,万州区,108.69164035970972,30.80640322832695
万州西游洞,风景名胜,风景名胜,风景名胜,盐井乡盐井社区,重庆市,重庆市,万州区,108.42037364399988,30.609062255990466
圣心堂,风景名胜,风景名胜,风景名胜,龙康路1附近,重庆市,重庆市,万州区,108.36676219262847,30.740858065856724
老祠堂,风景名胜,风景名胜,风景名胜,553县道附近,重庆市,重庆市,万州区,108.73192887831306,30.564741309386886
李家祠堂,风景名胜,风景名胜,风景名胜,,重庆市,重庆市,万州区,108.0568301968694,30.776193923301328
陈家祠堂,风景名胜,风景名胜,风景名胜,,重庆市,重庆市,万州区,108.409880390041,30.69073892281601
杨家祠堂,风景名胜,风景名胜,风景名胜,,重庆市,重庆市,万州区,108.52137446163522,30.828573667438697
周家祠堂,风景名胜,风景名胜,风景名胜,,重庆市,重庆市,万州区,108.61701316676078,30.853613933196254
玄音亭,风景名胜,风景名胜,风景名胜,甘宁镇甘宁河段万州大瀑布群旅游区内,重庆市,重庆市,万州区,108.25211026143697,30.65893664019361
观音寺,风景名胜,风景名胜,寺庙道观,,重庆市,重庆市,万州区,108.74484236813244,30.699281840872555
清山庵,风景名胜,风景名胜,风景名胜,三一八国道,重庆市,重庆市,万州区,108.5511696388605,30.75413169484251
龙泉寺,风景名胜,风景名胜,寺庙道观,,重庆市,重庆市,万州区,108.03091991820665,30.72095067761806
方家祠堂,风景名胜,风景名胜,风景名胜,063乡道南100米,重庆市,重庆市,万州区,108.81976753538822,30.67186417630886
林家祠堂,风景名胜,风景名胜,风景名胜,,重庆市,重庆市,万州区,108.54174480670771,30.92523308637284
严家祠堂,风景名胜,风景名胜,风景名胜,,重庆市,重庆市,万州区,108.63294648971022,30.714083224486288
民国场滑坡抢险纪念碑,风景名胜,风景名胜,风景名胜,万开高速安全路入口和万开高速的交叉口附近,重庆市,重庆市,万州区,108.43843154984972,30.99942447945308
凤山国际旅游度假区,风景名胜,风景名胜,风景名胜,高峰镇灵凤村,重庆市,重庆市,万州区,108.34440729562192,30.727073584795768
南浦三生石,风景名胜,风景名胜,风景名胜,熊家老屋南,重庆市,重庆市,万州区,108.51099773354368,30.904825192912615
刻碑修墓,风景名胜,风景名胜,风景名胜,名亨路171-14号附近,重庆市,重庆市,万州区,108.36042504295337,30.82789222432013
陈家祠堂,风景名胜,风景名胜,风景名胜,,重庆市,重庆市,万州区,108.45712116155532,30.551261036725155
重庆市天主教万州教区,风景名胜,风景名胜,教堂,高笋塘街道金龙路398号,重庆市,重庆市,万州区,108.36547365975294,30.80040756480076
福音堂,风景名胜,风景名胜,教堂,天台路370/372,重庆市,重庆市,万州区,108.44379614713445,30.759983304396847
七彩熊家沟风景区,风景名胜,风景名胜,风景名胜,沙田村一组,重庆市,重庆市,万州区,108.60208024708997,30.878639761536142
永宁寨,风景名胜,风景名胜,风景名胜,甘宁镇,重庆市,重庆市,万州区,108.26763271495628,30.669488464822933
石人景区,风景名胜,风景名胜,风景名胜,高村村,重庆市,重庆市,万州区,108.29396184596781,30.59571665832337
三龙庵,风景名胜,风景名胜,风景名胜,长地坪-鹿山,重庆市,重庆市,万州区,108.32143800863973,30.732582757096857
刘氏宗祠,风景名胜,风景名胜,风景名胜,,重庆市,重庆市,万州区,108.02199708090889,30.822815210780877
流云廊,风景名胜,风景名胜,风景名胜,,重庆市,重庆市,万州区,108.63532790069685,30.56413774758547
刻碑修墓,风景名胜,风景名胜,风景名胜,龙宝大街165号附近,重庆市,重庆市,万州区,108.37759302099305,30.754745936529194
晒网寺,风景名胜,风景名胜,风景名胜,郭武路,重庆市,重庆市,万州区,108.25699665632847,30.508535464503183
三仙洞沟自然保护区,风景名胜,风景名胜,风景名胜,万州区太安镇钟刘村3组老屋院子,重庆市,重庆市,万州区,108.72079941287969,30.800336255938785
宝莲寺,风景名胜,风景名胜,寺庙道观,,重庆市,重庆市,万州区,108.13596137305575,30.662114887086098
刻碑修墓,风景名胜,风景名胜,风景名胜,G318(沪聂线),重庆市,重庆市,万州区,108.19864170601006,30.791754269120133
修坟刻碑,风景名胜,风景名胜,风景名胜,S105(五新路),重庆市,重庆市,万州区,108.3969141772533,30.694240054626743
天地宫,风景名胜,风景名胜,风景名胜,兴盛路8号-东50米附近,重庆市,重庆市,万州区,108.26283969134364,30.8162393606732
观音庙,风景名胜,风景名胜,寺庙道观,石峰支路附近,重庆市,重庆市,万州区,108.37442017853387,30.781656742994485
虬溪书院,风景名胜,风景名胜,风景名胜,长滩镇鱼阳路,重庆市,重庆市,万州区,108.6071774128937,30.7412047852755
圣母无原罪堂,风景名胜,风景名胜,教堂,金龙路398号附近,重庆市,重庆市,万州区,108.36547965267268,30.800391565965022
报恩寺,风景名胜,风景名胜,寺庙道观,龙双公路,重庆市,重庆市,万州区,108.80061817912281,30.66358539194551
汪氏石刻,风景名胜,风景名胜,风景名胜,G318(沪聂线),重庆市,重庆市,万州区,108.50155483395763,30.773323287327475
基督教感恩堂,风景名胜,风景名胜,教堂,,重庆市,重庆市,万州区,108.5422701684644,30.90864682216797
王母庙,风景名胜,风景名胜,风景名胜,走马镇石告村九组,重庆市,重庆市,万州区,108.42144532568203,30.4907292543714
双流桥,风景名胜,风景名胜,风景名胜,103省道南100米,重庆市,重庆市,万州区,108.2687521508006,30.664858584288297
清溪桥,风景名胜,风景名胜,风景名胜,103省道南150米,重庆市,重庆市,万州区,108.2672263923076,30.6641931580095
新宝塔,风景名胜,风景名胜,风景名胜,江南大道(文峰塔东北侧约100米),重庆市,重庆市,万州区,108.42173411908024,30.820821001473284
老祠堂,风景名胜,风景名胜,风景名胜,,重庆市,重庆市,万州区,108.26135830860369,30.80451567359445
罗田石寨塘石斛公园,风景名胜,风景名胜,风景名胜,,重庆市,重庆市,万州区,108.56297752818007,30.480810342192072
罗家祠堂,风景名胜,风景名胜,风景名胜,,重庆市,重庆市,万州区,108.17115279311524,30.554687276539184
龙王湖景区,风景名胜,风景名胜,风景名胜,郭村镇,重庆市,重庆市,万州区,108.16397002188461,30.557677748846327
杜鹃花山,风景名胜,风景名胜,风景名胜,后山镇大茅坪,重庆市,重庆市,万州区,108.12189173513778,30.802964726669284
乐天之家生态旅游区,风景名胜,风景名胜,风景名胜,高梁镇碑梁村,重庆市,重庆市,万州区,108.29885291014983,30.886583841285688
大唐荔园,风景名胜,风景名胜,风景名胜,下中村,重庆市,重庆市,万州区,108.24553753716833,30.520351506882108
王家祠堂,风景名胜,风景名胜,风景名胜,G42(沪蓉高速公路),重庆市,重庆市,万州区,108.29809359945135,30.740058671912955
郝家祠堂,风景名胜,风景名胜,风景名胜,103省道北150米,重庆市,重庆市,万州区,108.28730704000327,30.672073869060814
李家祠堂,风景名胜,风景名胜,风景名胜,,重庆市,重庆市,万州区,108.62181940412104,30.78890547125297
谭家祠堂,风景名胜,风景名胜,风景名胜,,重庆市,重庆市,万州区,108.17773947606631,30.68656028812543
田家祠堂,风景名胜,风景名胜,风景名胜,,重庆市,重庆市,万州区,108.09143442596742,30.832054593692952
赖家祠堂,风景名胜,风景名胜,风景名胜,,重庆市,重庆市,万州区,108.00561062495692,30.79489189771932
东林寺,风景名胜,风景名胜,寺庙道观,,重庆市,重庆市,万州区,108.28919595843368,30.58930037954526
曹田崖山寨,风景名胜,风景名胜,风景名胜,万州机场路南(万州区陈家坝街道大石15组),重庆市,重庆市,万州区,108.4182398358462,30.79695449923234
龙王庙,风景名胜,风景名胜,寺庙道观,,重庆市,重庆市,万州区,108.09512638052148,30.695360018446355
良公祠,风景名胜,风景名胜,风景名胜,,重庆市,重庆市,万州区,108.56534905001878,30.799287907673108
陈家祠堂,风景名胜,风景名胜,风景名胜,,重庆市,重庆市,万州区,108.61447479736427,30.835720251896728
见证三峡文化街,风景名胜,风景名胜,风景名胜,新城路98附近,重庆市,重庆市,万州区,108.37620421033627,30.811946841166346
潭獐峡风景区(建设中),风景名胜,风景名胜,国家级景点,,重庆市,重庆市,万州区,108.81866021539086,30.679048843681187
七星观(装修中),风景名胜,风景名胜,寺庙道观,,重庆市,重庆市,万州区,108.59865058163571,30.904574900733643
心连心广场,风景名胜,公园广场,城市广场,天城周家坝石城路99号,重庆市,重庆市,万州区,108.36624583698399,30.838968459191477
西山公园,风景名胜,公园广场,公园,王牌路13号,重庆市,重庆市,万州区,108.38001033779335,30.804946558630963
沙龙公园,风景名胜,公园广场,公园,沙龙路一段1278号,重庆市,重庆市,万州区,108.36675772066685,30.803250456454528
南滨公园,风景名胜,公园广场,公园,南滨大道与梨花路交叉口西南50米,重庆市,重庆市,万州区,108.39605647489455,30.801898560292802
南平广场,风景名胜,公园广场,城市广场,高粱镇泗华路,重庆市,重庆市,万州区,108.30178580333569,30.82625680526232
观音岩公园,风景名胜,公园广场,公园,科园路335号,重庆市,重庆市,万州区,108.38164520536434,30.775378178879052
太白岩山顶公园,风景名胜,公园广场,公园,沙龙路一段(长城长大酒店西),重庆市,重庆市,万州区,108.36868193374019,30.807375961820867
市民广场,风景名胜,公园广场,城市广场,南滨大道东100米,重庆市,重庆市,万州区,108.39756569201367,30.812277864090007
天子湖公园,风景名胜,公园广场,公园,滨湖路14附近,重庆市,重庆市,万州区,108.36070546088987,30.857823114703567
江南新区南山公园,风景名胜,公园广场,公园,南山路28号,重庆市,重庆市,万州区,108.4057579538226,30.8196152587114
天生城公园,风景名胜,公园广场,公园,天龙路附近,重庆市,重庆市,万州区,108.3592055970882,30.83268828891383
古红橘主题公园,风景名胜,公园广场,公园,新村路附近,重庆市,重庆市,万州区,108.49898730850538,30.844404036967294
古红桔公园,风景名胜,公园广场,公园,太龙镇向坪村,重庆市,重庆市,万州区,108.48916995675387,30.835735465444188
北山观公园,风景名胜,公园广场,公园,北山一支路,重庆市,重庆市,万州区,108.38211793145184,30.829984376711124
万州区狮子山公园,风景名胜,公园广场,公园,杜家花园路146号,重庆市,重庆市,万州区,108.37147924606943,30.839471230699193
山湾公园,风景名胜,公园广场,公园,红光小学,重庆市,重庆市,万州区,108.35653523369706,30.814220357939533
三峡移民广场(建设中),风景名胜,公园广场,城市广场,北滨大道二段与静园路交叉口西南100米,重庆市,重庆市,万州区,108.38318110234303,30.803537174453858
翠屏山公园,风景名胜,公园广场,公园,北山大道319号,重庆市,重庆市,万州区,108.41399882586644,30.8106066344957
龙都广场,风景名胜,公园广场,城市广场,龙都大道,重庆市,重庆市,万州区,108.40619388819624,30.767572269155096
沙河人口文化广场,风景名胜,公园广场,城市广场,凤仙路与申明中路交叉口西南150米,重庆市,重庆市,万州区,108.35556738438142,30.848508826882714
银河公园,风景名胜,公园广场,公园,联合坝立交,重庆市,重庆市,万州区,108.43258761875222,30.775131724071105
樱花渡体育公园,风景名胜,公园广场,公园,牌楼长江大桥南桥头,重庆市,重庆市,万州区,108.40573119937783,30.788261206829706
五桥运动公园(建设中),风景名胜,公园广场,公园,扁寨路,重庆市,重庆市,万州区,108.42890850495053,30.76092075844182
悦林公园,风景名胜,公园广场,公园,,重庆市,重庆市,万州区,108.36521149095188,30.946563121348916
白岩寨公园(建设中),风景名胜,公园广场,公园,上海大道长龙家园东侧,重庆市,重庆市,万州区,108.46268952047035,30.76871997220183
滩边河湿地公园,风景名胜,公园广场,公园,,重庆市,重庆市,万州区,108.32236283446197,30.70766114923452
万州西山公园,风景名胜,公园广场,公园,,重庆市,重庆市,万州区,108.37530029754248,30.753571538687982
樱花渡公园,风景名胜,公园广场,公园,牌楼长江大桥南桥头,重庆市,重庆市,万州区,108.40332497917092,30.793099902679394
鹰嘴岩小游园(建设中),风景名胜,公园广场,公园,周家坝立交桥头,重庆市,重庆市,万州区,108.3653922675303,30.84913882576225
爱情天梯,风景名胜,公园广场,城市广场,天津路138西南方向140米,重庆市,重庆市,万州区,108.40075134808535,30.765592924677815
螺蛳包社区广场,风景名胜,公园广场,城市广场,龙宝大街400-附16号附近,重庆市,重庆市,万州区,108.37160920410497,30.754519672365678
小周镇人口文化广场,风景名胜,公园广场,城市广场,民安街18东北方向90米,重庆市,重庆市,万州区,108.52384131936645,30.92258289602571
大桥溪音乐广场,风景名胜,公园广场,城市广场,北滨大道三段10附近,重庆市,重庆市,万州区,108.39037798330988,30.824368428821142
南门口广场,风景名胜,公园广场,城市广场,北滨路南口,重庆市,重庆市,万州区,108.38281913815888,30.820316255196015
万州江南会展广场,风景名胜,公园广场,城市广场,南滨大道与玉龙路交叉口,重庆市,重庆市,万州区,108.40204549362043,30.795055577162337
燕山文化广场,风景名胜,公园广场,城市广场,复兴路北100米,重庆市,重庆市,万州区,108.30673250479147,30.554110936735135
蓝湖广场,风景名胜,公园广场,城市广场,南滨大道东50米,重庆市,重庆市,万州区,108.43082787296183,30.77141403536695
瀼渡移民广场,风景名胜,公园广场,城市广场,沿江路,重庆市,重庆市,万州区,108.30710418168933,30.59123491216657
人口文化广场,风景名胜,公园广场,城市广场,五新路319正北方向160米,重庆市,重庆市,万州区,108.40422789161862,30.70093779914434
三峡·福斯德广场,风景名胜,公园广场,城市广场,太白路99号附一栋,重庆市,重庆市,万州区,108.37600356288631,30.809755212161384
万河市民广场,风景名胜,公园广场,城市广场,,重庆市,重庆市,万州区,108.36288618325703,30.885815242222574
观音岩移民休闲广场,风景名胜,公园广场,城市广场,高笋塘街道万顺路80号,重庆市,重庆市,万州区,108.38114738154341,30.778091093044722
万州站北广场,风景名胜,公园广场,城市广场,站前路北50米,重庆市,重庆市,万州区,108.39491375298796,30.757746966416274
文化广场,风景名胜,公园广场,公园广场,郭村镇,重庆市,重庆市,万州区,108.16790107224226,30.56576232051542
学府广场,风景名胜,公园广场,城市广场,安庆路429号,重庆市,重庆市,万州区,108.4413828383061,30.760214533584474
天仙湖广场,风景名胜,公园广场,城市广场,北滨大道二段和平路119号,重庆市,重庆市,万州区,108.37245050123599,30.820600670069414
高笋塘广场,风景名胜,公园广场,公园广场,高笋塘广场步行街内,重庆市,重庆市,万州区,108.37307833776472,30.813233072449915
三峡海洋世界,风景名胜,公园广场,水族馆,高铁大道,重庆市,重庆市,万州区,108.3627879688292,30.863016356016967
龙沙不锈钢批发部,风景名胜,公园广场,城市广场,永安路与103省道交叉口西南100米,重庆市,重庆市,万州区,108.22984310922072,30.634434573016353
卢湾广场,风景名胜,公园广场,城市广场,075乡道,重庆市,重庆市,万州区,108.47932488095141,30.757168613566268
重庆涪陵沙溪温泉,风景名胜,风景名胜,国家级景点,沙溪大桥(涪陵火车站旁),重庆市,重庆市,涪陵区,107.32219193692139,29.719046687403136
雨台山风景区,风景名胜,风景名胜,风景名胜,大垭口附近,重庆市,重庆市,涪陵区,107.4456863634536,29.72084531755908
中国816工程,风景名胜,风景名胜,风景名胜,白涛街道,重庆市,重庆市,涪陵区,107.50678622235779,29.55682960497786
美心红酒小镇,风景名胜,风景名胜,风景名胜,蔺市镇大桥二社,重庆市,重庆市,涪陵区,107.18163632144761,29.665870283403365
武陵山大裂谷景区,风景名胜,风景名胜,国家级景点,990乡道,重庆市,重庆市,涪陵区,107.57513015802877,29.492792382353162
霍家祠堂,风景名胜,风景名胜,风景名胜,,重庆市,重庆市,涪陵区,107.1437212779312,29.743840115231922
法雨寺,风景名胜,风景名胜,寺庙道观,渝巴路南200米聚云山,重庆市,重庆市,涪陵区,107.34437741180268,29.731966108493893
御泉河风景区,风景名胜,风景名胜,省级景点,土龙桥,重庆市,重庆市,涪陵区,107.45811061869082,29.61607145328031
大木花谷,风景名胜,风景名胜,风景名胜,大木乡迎新三社,重庆市,重庆市,涪陵区,107.6689546020805,29.627015861000853
武陵山森林公园,风景名胜,风景名胜,国家级景点,022乡道北50米,重庆市,重庆市,涪陵区,107.58926758806395,29.541324436090235
周易园,风景名胜,风景名胜,风景名胜,点易路,重庆市,重庆市,涪陵区,107.39116910235163,29.721127576702163
小田溪巴王墓群,风景名胜,风景名胜,风景名胜,陈家嘴村小田溪乌江西岸,重庆市,重庆市,涪陵区,107.47981515156847,29.556508517939097
仙女洞,风景名胜,风景名胜,风景名胜,森林公园上行3公里,重庆市,重庆市,涪陵区,107.36147232270122,29.683584300347622
基督教感恩堂,风景名胜,风景名胜,教堂,兴华花园C-19-3层,重庆市,重庆市,涪陵区,107.40151132272433,29.702983276783392
太极森林公园,风景名胜,公园广场,公园,望州路99号,重庆市,重庆市,涪陵区,107.37620346550467,29.689708350551797
四川红军第二路游击队纪念碑,风景名胜,风景名胜,风景名胜,星星路与红军路交叉口北150米,重庆市,重庆市,涪陵区,107.59515322550722,29.77995175464543
李蔚如故里,风景名胜,风景名胜,纪念馆,大顺镇大顺村1组,重庆市,重庆市,涪陵区,107.04270564898931,29.567793068576567
清溪山谷,风景名胜,风景名胜,风景名胜,马武镇惠民社区三社岩上,重庆市,重庆市,涪陵区,107.22878436397012,29.62741785492743
龙洞沟,风景名胜,风景名胜,风景名胜,渝巴路东50米,重庆市,重庆市,涪陵区,107.25111127102147,29.69104002198546
文庙,风景名胜,风景名胜,寺庙道观,川祖庙街48号正北方向98米,重庆市,重庆市,涪陵区,107.19204887047408,29.6649705772521
乌江赤壁观景台,风景名胜,风景名胜,观景点,319国道,重庆市,重庆市,涪陵区,107.38612645666922,29.61348551162067
古今花海,风景名胜,风景名胜,风景名胜,惠民乡方碑村(大园子近惠万路),重庆市,重庆市,涪陵区,107.23276216210279,29.60452567206848
万佛寺,风景名胜,风景名胜,寺庙道观,007乡道附近,重庆市,重庆市,涪陵区,107.37643832763013,29.730573586643025
黄家祠堂,风景名胜,风景名胜,风景名胜,014乡道南200米,重庆市,重庆市,涪陵区,107.55750011695808,29.931776671978838
白塔寺,风景名胜,风景名胜,寺庙道观,,重庆市,重庆市,涪陵区,107.03588715299031,29.525405596089854
巴山夜雨休闲旅游区,风景名胜,风景名胜,风景名胜,义和镇,重庆市,重庆市,涪陵区,107.20095728484061,29.730239579324113
余家祠堂,风景名胜,风景名胜,风景名胜,三零六省道,重庆市,重庆市,涪陵区,107.11446586478282,29.75817908698674
龙泉寺,风景名胜,风景名胜,寺庙道观,,重庆市,重庆市,涪陵区,107.22197490297881,29.544006161225898
玉皇观,风景名胜,风景名胜,风景名胜,,重庆市,重庆市,涪陵区,107.05025747813474,29.449713505484368
回龙寺,风景名胜,风景名胜,寺庙道观,,重庆市,重庆市,涪陵区,107.54963221851213,29.914401417649756
龙王庙,风景名胜,风景名胜,寺庙道观,,重庆市,重庆市,涪陵区,107.48063974357899,29.793325223148102
玉皇观,风景名胜,风景名胜,风景名胜,,重庆市,重庆市,涪陵区,107.29609507849221,29.672631375848763
法华寺,风景名胜,风景名胜,寺庙道观,,重庆市,重庆市,涪陵区,107.13233451035065,29.72822400362612
冉家祠堂,风景名胜,风景名胜,风景名胜,,重庆市,重庆市,涪陵区,107.47691938134444,29.878288221529843
橘香花海生态农业观光园,风景名胜,风景名胜,风景名胜,护国路128号,重庆市,重庆市,涪陵区,107.08429578070316,29.646316816797892
白塔,风景名胜,风景名胜,风景名胜,渝巴路,重庆市,重庆市,涪陵区,107.42512868007059,29.75406825809472
西普陀,风景名胜,风景名胜,寺庙道观,渝巴路南100米,重庆市,重庆市,涪陵区,107.18487226325583,29.66189900011559
钟家祠堂,风景名胜,风景名胜,风景名胜,,重庆市,重庆市,涪陵区,107.58423713578847,29.754197303617186
庙音庵,风景名胜,风景名胜,风景名胜,李渡-川东造船厂,重庆市,重庆市,涪陵区,107.30500549673827,29.74699631127027
余家祠堂,风景名胜,风景名胜,风景名胜,,重庆市,重庆市,涪陵区,107.23816030388262,29.501348614933093
回龙寺,风景名胜,风景名胜,寺庙道观,,重庆市,重庆市,涪陵区,107.2070104152026,29.65478737990018
倪峰寺,风景名胜,风景名胜,风景名胜,,重庆市,重庆市,涪陵区,107.27719518168612,29.78162347045015
观音庙,风景名胜,风景名胜,寺庙道观,,重庆市,重庆市,涪陵区,107.50446006797428,29.910037681884234
地藏寺,风景名胜,风景名胜,寺庙道观,渝建路北200米,重庆市,重庆市,涪陵区,106.97869916634102,29.509067245626984
刘家祠堂,风景名胜,风景名胜,风景名胜,李渡街道李渡中学附近,重庆市,重庆市,涪陵区,107.29345712057273,29.762544600847985
瞿家祠堂,风景名胜,风景名胜,风景名胜,,重庆市,重庆市,涪陵区,107.01726896672668,29.64747404557346
观音阁,风景名胜,风景名胜,寺庙道观,边贸路与长习路交叉口西北50米,重庆市,重庆市,涪陵区,106.9906943009147,29.509717062754547
杨家祠堂,风景名胜,风景名胜,风景名胜,,重庆市,重庆市,涪陵区,106.99402232709163,29.649402085019283
鹦哥峡观景台,风景名胜,风景名胜,风景名胜,319国道北50米,重庆市,重庆市,涪陵区,107.41773969475669,29.595970889352355
乌江画廊,风景名胜,风景名胜,国家级景点,G319(厦成线),重庆市,重庆市,涪陵区,107.38632831664529,29.61288858828057
泰升农业观光园,风景名胜,风景名胜,风景名胜,珍溪镇东桥村4组,重庆市,重庆市,涪陵区,107.47289674033037,29.913465600821574
云雾阁,风景名胜,风景名胜,风景名胜,990乡道附近,重庆市,重庆市,涪陵区,107.57563594370062,29.502921369962184
816地下核工程,风景名胜,风景名胜,风景名胜,白涛镇X182,重庆市,重庆市,涪陵区,107.5078657186238,29.55646691440794
道中庵,风景名胜,风景名胜,风景名胜,,重庆市,重庆市,涪陵区,107.36707876572689,29.52711676490193
点易洞,风景名胜,风景名胜,风景名胜,江北街道办事处,重庆市,重庆市,涪陵区,107.3883560501613,29.722430315689078
涪陵龟陵古城墙,风景名胜,风景名胜,风景名胜,,重庆市,重庆市,涪陵区,107.27323454748426,29.71393573001632
聚金湖,风景名胜,风景名胜,风景名胜,,重庆市,重庆市,涪陵区,107.2248162995452,29.780935507948616
蔺市古镇,风景名胜,风景名胜,风景名胜,凤阳大道与龙门桥街交叉路口往东约50米,重庆市,重庆市,涪陵区,107.19471940546283,29.663023386041008
涪陵区园林绿化管理处碧筱聚云山公园管理办公室,风景名胜,风景名胜,风景名胜,迎宾大道,重庆市,重庆市,涪陵区,107.3503713845162,29.732259903368924
四镇乡农民运动记念馆,风景名胜,风景名胜,纪念馆,大顺镇大顺村,重庆市,重庆市,涪陵区,107.04253725548203,29.566774791631524
神仙桥,风景名胜,风景名胜,风景名胜,,重庆市,重庆市,涪陵区,107.17191074411029,29.52872732776406
关店清仓泪别涪陵,风景名胜,风景名胜,风景名胜,人民东路26号附近,重庆市,重庆市,涪陵区,107.39463995315005,29.709300973659197
云峰寺,风景名胜,风景名胜,寺庙道观,李渡长江大桥旁,重庆市,重庆市,涪陵区,107.29156061168388,29.72945547670118
张家祠堂,风景名胜,风景名胜,风景名胜,,重庆市,重庆市,涪陵区,107.23594428076521,29.840994162551905
玉柴涪陵,风景名胜,风景名胜,风景名胜,涪南路,重庆市,重庆市,涪陵区,107.35359981253413,29.694275635952934
香榭亭,风景名胜,风景名胜,风景名胜,,重庆市,重庆市,涪陵区,107.40750319991587,29.70793214703145
刘伯承涪陵护国之役纪念馆,风景名胜,风景名胜,纪念馆,新政大道,重庆市,重庆市,涪陵区,107.06561922651494,29.669591987765298
祠堂,风景名胜,风景名胜,风景名胜,,重庆市,重庆市,涪陵区,107.08789012727172,29.523397953444753
长江涪陵,风景名胜,风景名胜,风景名胜,桥南路8号,重庆市,重庆市,涪陵区,107.35730539547241,29.731254259244018
莲台观音,风景名胜,风景名胜,风景名胜,学府路武陵山大裂谷景区内,重庆市,重庆市,涪陵区,107.57941299592711,29.500699015598496
天星古栈道,风景名胜,风景名胜,风景名胜,石沱镇三窍村,重庆市,重庆市,涪陵区,107.0869753031313,29.728655620138234
长益生态观光园,风景名胜,风景名胜,风景名胜,石沱镇长益村,重庆市,重庆市,涪陵区,107.0641855030238,29.712218097891906
天门洞索桥,风景名胜,风景名胜,风景名胜,学府路武陵山大裂谷景区内,重庆市,重庆市,涪陵区,107.57943099737183,29.500863955472113
堡子城公园-涪陵烈士纪念塔,风景名胜,风景名胜,风景名胜,堡子城公园(兴华中路南50米),重庆市,重庆市,涪陵区,107.38550052316636,29.707865247023868
函谷亭,风景名胜,风景名胜,风景名胜,学府路武陵山大裂谷景区内,重庆市,重庆市,涪陵区,107.58060099349322,29.497152271237248
梦溪亭,风景名胜,风景名胜,风景名胜,学府路武陵山大裂谷景区内,重庆市,重庆市,涪陵区,107.58527422823828,29.498673792023535
鸡冠岭,风景名胜,风景名胜,风景名胜,学府路武陵山大裂谷景区内,重庆市,重庆市,涪陵区,107.57911578982623,29.50074680677488
周煌墓,风景名胜,风景名胜,风景名胜,,重庆市,重庆市,涪陵区,107.0390569865328,29.516103932782002
云海阁,风景名胜,风景名胜,风景名胜,,重庆市,重庆市,涪陵区,107.4387119435466,29.733438851596272
报恩寺,风景名胜,风景名胜,寺庙道观,,重庆市,重庆市,涪陵区,107.20688085757133,29.615942613189077
武陵峡,风景名胜,风景名胜,风景名胜,182县道东50米,重庆市,重庆市,涪陵区,107.52252239095243,29.569347908176432
马岭花苑,风景名胜,风景名胜,风景名胜,,重庆市,重庆市,涪陵区,107.41190023045861,29.65492993373727
刘家祠堂,风景名胜,风景名胜,风景名胜,,重庆市,重庆市,涪陵区,107.16928648443155,29.42606468866417
芶家祠堂,风景名胜,风景名胜,风景名胜,,重庆市,重庆市,涪陵区,107.21469671898068,29.562005468543855
龙王庙,风景名胜,风景名胜,寺庙道观,,重庆市,重庆市,涪陵区,107.16380186441165,29.4291327600385
回龙寺,风景名胜,风景名胜,寺庙道观,,重庆市,重庆市,涪陵区,107.08901012364026,29.71657416981593
车家祠堂,风景名胜,风景名胜,风景名胜,,重庆市,重庆市,涪陵区,107.23138224099169,29.38941886419457
蔡家庙,风景名胜,风景名胜,寺庙道观,渝巴路西50米,重庆市,重庆市,涪陵区,107.2377573475555,29.684267009124255
卢家祠堂,风景名胜,风景名胜,风景名胜,一零五省道,重庆市,重庆市,涪陵区,107.24222775371103,29.551040487168635
白鹤梁水下博物馆(暂停营业),风景名胜,风景名胜,国家级景点,滨江大道二段185号,重庆市,重庆市,涪陵区,107.3877251061455,29.71454296682419
美心洋人街水公园,风景名胜,公园广场,公园,蔺市镇美心红酒小镇,重庆市,重庆市,涪陵区,107.18226421105439,29.666299315634397
望州公园,风景名胜,公园广场,公园,望州路宏声大道19号,重庆市,重庆市,涪陵区,107.39072412548362,29.696138365133105
易家坝广场,风景名胜,公园广场,城市广场,广场路19附16号,重庆市,重庆市,涪陵区,107.39068444543717,29.706370390807564
堡子城公园,风景名胜,公园广场,公园,兴华中路68号,重庆市,重庆市,涪陵区,107.38512192922003,29.70714958068519
太极广场,风景名胜,公园广场,城市广场,敦仁街道滨江路124号,重庆市,重庆市,涪陵区,107.38648813359885,29.714982448516604
白鹤森林公园,风景名胜,公园广场,公园,太极大道涪陵区园林管理局附近,重庆市,重庆市,涪陵区,107.3762028702503,29.698352605997673
太极森林公园,风景名胜,公园广场,公园,望州路99号,重庆市,重庆市,涪陵区,107.37620346550467,29.689708350551797
铜鼓湖湿地公园,风景名胜,公园广场,公园,聚业大道西50米,重庆市,重庆市,涪陵区,107.28268108739952,29.732786536657283
插旗山果林公园,风景名胜,公园广场,公园,,重庆市,重庆市,涪陵区,107.41375919108737,29.711859033014775
江东涪清路小游园,风景名胜,公园广场,公园,涪清路326附近,重庆市,重庆市,涪陵区,107.41054454585353,29.72954788086469
太乙门社区公园,风景名胜,公园广场,公园,妙音路,重庆市,重庆市,涪陵区,107.2883579279679,29.739640624744528
桥南公园,风景名胜,公园广场,公园,滨江大道涪陵港航大厦南侧,重庆市,重庆市,涪陵区,107.35804515030901,29.72720884398244
高笋塘森林公园,风景名胜,公园广场,公园,望州路99号附近,重庆市,重庆市,涪陵区,107.37620346550467,29.689708350551797
新妙湿地公园,风景名胜,公园广场,公园,S204(新妙大道),重庆市,重庆市,涪陵区,107.06553267148223,29.665709992408434
北山公园,风景名胜,公园广场,公园,,重庆市,重庆市,涪陵区,107.3934181682172,29.729656604707312
玉屏公园,风景名胜,公园广场,公园,太白大道西侧,重庆市,重庆市,涪陵区,107.27398939316008,29.742317228097573
马头山公园,风景名胜,公园广场,公园,裕民路附近,重庆市,重庆市,涪陵区,107.46839315767085,29.903391520827157
灯杆堡公园,风景名胜,公园广场,公园,文教路焦石镇政府对面,重庆市,重庆市,涪陵区,107.59796361187193,29.720895958028596
南浦公园,风景名胜,公园广场,公园,人民东路37号,重庆市,重庆市,涪陵区,107.39720002869639,29.70739112828942
江南滨江公园,风景名胜,公园广场,公园,滨江大道附近,重庆市,重庆市,涪陵区,107.36861371396131,29.722858783705604
绿地公园,风景名胜,公园广场,公园,迎滨大道,重庆市,重庆市,涪陵区,107.35192690829244,29.732005424597034
双宝公园,风景名胜,公园广场,公园,双宝路55号附13号附近,重庆市,重庆市,涪陵区,107.37016056771002,29.717115057500852
元帅广场,风景名胜,公园广场,城市广场,护国路与045乡道交叉口东100米,重庆市,重庆市,涪陵区,107.06167679737555,29.658642870168748
金菱动物园,风景名胜,公园广场,动物园,蔺市镇红酒小镇运河路1号,重庆市,重庆市,涪陵区,107.18083538985888,29.662160704044094
青年体育广场,风景名胜,公园广场,城市广场,太极大道144附近,重庆市,重庆市,涪陵区,107.38555492557143,29.70130546925067
红蔚广场,风景名胜,公园广场,城市广场,双兴路与政和路交叉口北150米,重庆市,重庆市,涪陵区,107.06058563964547,29.504286842205598
武陵山大裂谷景区-图语广场,风景名胜,公园广场,城市广场,学府路武陵山大裂谷景区内,重庆市,重庆市,涪陵区,107.57226153935453,29.506096069540714
电力广场,风景名胜,公园广场,城市广场,滨江大道二段49号附近,重庆市,重庆市,涪陵区,107.39471257861264,29.714218063752934
涪陵·滨江文化长廊,风景名胜,公园广场,城市广场,滨江大道2段88附41号,重庆市,重庆市,涪陵区,107.37553536640041,29.71895336120826
海怡天广场,风景名胜,公园广场,城市广场,稻香路6号附13号,重庆市,重庆市,涪陵区,107.3750550569113,29.704191506125493
攀华未来广场,风景名胜,公园广场,城市广场,聚龙大道76号附20号,重庆市,重庆市,涪陵区,107.26169816989515,29.759124006966548
移民广场,风景名胜,公园广场,城市广场,103省道北50米,重庆市,重庆市,涪陵区,107.18697816368403,29.662908452796298
青电广场,风景名胜,公园广场,城市广场,安镇西路西200米,重庆市,重庆市,涪陵区,107.1741629785806,29.516786377123847
心悦家居水族馆,风景名胜,公园广场,水族馆,建峰东路,重庆市,重庆市,涪陵区,107.45165297107816,29.53953508299471
江畔广场,风景名胜,公园广场,公园广场,顺江大道,重庆市,重庆市,涪陵区,107.40146919505415,29.690432766717038
白涛新街广场活动中心,风景名胜,公园广场,城市广场,钟灵街,重庆市,重庆市,涪陵区,107.48379801067253,29.55201580234442
海怡天·君临东城休闲广场,风景名胜,公园广场,城市广场,兴华东路24附近,重庆市,重庆市,涪陵区,107.4027595819254,29.697628565695446
乌江榨菜广场,风景名胜,公园广场,城市广场,滨江大道96号区附近,重庆市,重庆市,涪陵区,107.39077587288217,29.713759997140347
顺江中心广场,风景名胜,公园广场,城市广场,顺江大道69附22号附近,重庆市,重庆市,涪陵区,107.3999633560388,29.691663315069224
杰勋广场,风景名胜,公园广场,公园广场,新妙镇陈家湾,重庆市,重庆市,涪陵区,107.05481894114294,29.659422495821794
石沱老街人民广场,风景名胜,公园广场,城市广场,宛平路与181县道交叉口西北50米,重庆市,重庆市,涪陵区,107.1370893266147,29.714979275903445
新妙健身广场,风景名胜,公园广场,公园广场,群益路31号附近,重庆市,重庆市,涪陵区,107.04878007377604,29.65696318761041
八一六公园,风景名胜,公园广场,公园,白涛镇麦子坪村7区,重庆市,重庆市,涪陵区,107.45797857895506,29.53804349832176
锦绣广场,风景名胜,公园广场,城市广场,滨江大道二段2号,重庆市,重庆市,涪陵区,107.39770938039945,29.714311848724062
红岩革命纪念馆,风景名胜,风景名胜,纪念馆,红岩村52号,重庆市,重庆市,渝中区,106.49542789309827,29.55665878155389
保卫中国同盟总部旧址,风景名胜,风景名胜,风景名胜,两路口新村5号,重庆市,重庆市,渝中区,106.54521204022409,29.556968485773766
瞰胜楼,风景名胜,风景名胜,风景名胜,,重庆市,重庆市,渝中区,106.53455417170129,29.552944967719043
湖广会馆,风景名胜,风景名胜,国家级景点,长江滨江路芭蕉园1号,重庆市,重庆市,渝中区,106.58286872445773,29.5607066634097
人民解放纪念碑,风景名胜,风景名胜,纪念馆,民族路177号,重庆市,重庆市,渝中区,106.57334615375926,29.560092122858606
重庆长江索道,风景名胜,风景名胜,省级景点,新华路151号,重庆市,重庆市,渝中区,106.58294881772039,29.559144263230138
长江大桥,风景名胜,风景名胜,风景名胜,石板坡和南岸区梨子园之间,重庆市,重庆市,渝中区,106.55943762713594,29.548498284610726
罗汉寺,风景名胜,风景名胜,寺庙道观,罗汉寺街7号,重庆市,重庆市,渝中区,106.57795485835298,29.56266598578756
天主教重庆总教区若瑟堂主教座堂天主堂,风景名胜,风景名胜,教堂,民生路若瑟堂巷1号(近新华社旧址),重庆市,重庆市,渝中区,106.5660068992497,29.56059597425128
戴笠公馆旧址,风景名胜,风景名胜,风景名胜,中山四路,重庆市,重庆市,渝中区,106.5456572345524,29.567717584484466
山城步道,风景名胜,风景名胜,风景名胜,中兴路234号立案渝中区法院旁,重庆市,重庆市,渝中区,106.56536776439256,29.552912953550006
清真寺,风景名胜,风景名胜,回教寺,中兴路5号重庆穆斯林大厦,重庆市,重庆市,渝中区,106.56836417862185,29.555466642340534
能仁寺,风景名胜,风景名胜,寺庙道观,中华路92号,重庆市,重庆市,渝中区,106.5730851011827,29.55862940573202
重庆大轰炸惨案遗址,风景名胜,风景名胜,风景名胜,较场口87号附4号,重庆市,重庆市,渝中区,106.57203662031883,29.55675107941507
中英联络处旧址,风景名胜,风景名胜,风景名胜,五四路39号,重庆市,重庆市,渝中区,106.57198724195362,29.56271189219066
菩提金刚塔,风景名胜,风景名胜,风景名胜,观音岩,重庆市,重庆市,渝中区,106.5567456416627,29.557317794150418
重庆市基督教圣爱堂,风景名胜,风景名胜,教堂,民权路65号(近解放碑),重庆市,重庆市,渝中区,106.5720565668126,29.557865695739103
中国民主建国会成立旧址,风景名胜,风景名胜,风景名胜,西四街与解放东路交叉口南50米,重庆市,重庆市,渝中区,106.57937354411689,29.55688603138386
罗斯福图书馆旧址,风景名胜,风景名胜,风景名胜,长江一路11号,重庆市,重庆市,渝中区,106.54283162636658,29.55454633372455
WFC-会仙楼观景台,风景名胜,风景名胜,风景名胜,环球金融中心73、74层,重庆市,重庆市,渝中区,106.57421047542428,29.56198322896047
风雨亭,风景名胜,风景名胜,风景名胜,八一隧道南区路口附近,重庆市,重庆市,渝中区,106.54465515112128,29.55431329176036
邹容公园-邹容烈士纪念碑,风景名胜,风景名胜,风景名胜,南区路160号,重庆市,重庆市,渝中区,106.54953383850228,29.554744915157524
国民政府经济部旧址,风景名胜,风景名胜,风景名胜,新华路41-43号,重庆市,重庆市,渝中区,106.58084638506581,29.563845452656555
模范人民警察张国富烈士纪念碑,风景名胜,风景名胜,纪念馆,长江一路1号-附7号,重庆市,重庆市,渝中区,106.54485347742212,29.555119411913427
张培爵烈士纪念碑,风景名胜,风景名胜,风景名胜,嘉滨路88号洪崖洞11层,重庆市,重庆市,渝中区,106.57534682047542,29.564787212279295
仁爱堂,风景名胜,风景名胜,教堂,七星岗山城巷80号,重庆市,重庆市,渝中区,106.56290127760437,29.553553446417244
特园,风景名胜,风景名胜,风景名胜,聚富苑一路4号,重庆市,重庆市,渝中区,106.54194532981032,29.56375410150775
大溪沟电厂旧址,风景名胜,风景名胜,风景名胜,北区路与大溪沟街交叉口东北100米,重庆市,重庆市,渝中区,106.55638360113193,29.566654876446787
厚庐,风景名胜,风景名胜,风景名胜,中兴路与南区路交叉口西北150米,重庆市,重庆市,渝中区,106.5641365579222,29.553285216053638
鹅岭公园-烈士墓,风景名胜,风景名胜,风景名胜,鹅岭公园内,重庆市,重庆市,渝中区,106.53373032330695,29.552375175691157
中国民主同盟成立纪念碑,风景名胜,风景名胜,纪念馆,中山四路1号中国民主党派历史陈列馆附近,重庆市,重庆市,渝中区,106.5422258951189,29.563644751928173
国民政府立法院、司法院及蒙藏委员会旧址,风景名胜,风景名胜,风景名胜,中山一路312号,重庆市,重庆市,渝中区,106.55569709901673,29.55899845210826
真耶稣教会(嘉陵新路),风景名胜,风景名胜,教堂,化龙桥街道佛图关轻轨站,重庆市,重庆市,渝中区,106.52890080546996,29.5530138299036
通远门段城门及城墙,风景名胜,风景名胜,风景名胜,和平路和金汤街交汇处,重庆市,重庆市,渝中区,106.56362374644755,29.558331695237737
中央银行、农民银行暨美丰银行旧址,风景名胜,风景名胜,风景名胜,新华路74号银行大楼,重庆市,重庆市,渝中区,106.58017828200627,29.56392102387607
重庆谈判旧址群吴铁城官邸,风景名胜,风景名胜,风景名胜,嘉陵新路64号附近,重庆市,重庆市,渝中区,106.53027511932815,29.553493164359757
中共中央南方局暨八路军驻重庆办事处旧址,风景名胜,风景名胜,风景名胜,红岩村52号,重庆市,重庆市,渝中区,106.49672173502657,29.55683859968133
洪崖洞,风景名胜,风景名胜,国家级景点,嘉陵江滨江路88号,重庆市,重庆市,渝中区,106.57459348618413,29.564858546052843
《新华日报》营业部旧址,风景名胜,风景名胜,风景名胜,民生路240号,重庆市,重庆市,渝中区,106.567039797528,29.560656216802066
晋冀鲁豫军区子弟学校学生宿舍旧址,风景名胜,风景名胜,风景名胜,中山四路11号重庆市人民小学附近,重庆市,重庆市,渝中区,106.54100137573145,29.5646217176324
周公馆,风景名胜,风景名胜,风景名胜,上清寺中山4路曾家岩50号,重庆市,重庆市,渝中区,106.5467482019277,29.56810567189049
桂园,风景名胜,风景名胜,风景名胜,上清寺中山四路65号(求精中学旁),重庆市,重庆市,渝中区,106.54332994282372,29.5657034075483
巴蔓子墓,风景名胜,风景名胜,风景名胜,七星岗莲花池民生路299号渝海大厦B2层,重庆市,重庆市,渝中区,106.56549749585264,29.559551708028238
巴蜀学校旧校门遗址,风景名胜,风景名胜,风景名胜,巴教村14号右侧5米处,重庆市,重庆市,渝中区,106.55521521988189,29.562376431850726
同盟国中国战区统帅部参谋长官邸旧址,风景名胜,风景名胜,纪念馆,嘉陵新路63号,重庆市,重庆市,渝中区,106.52929775820114,29.553327733687862
澳大利亚公使馆旧址,风景名胜,风景名胜,风景名胜,鹅岭正街176号,重庆市,重庆市,渝中区,106.5326979807568,29.55156094025716
重庆枇杷山公园-红星亭,风景名胜,风景名胜,风景名胜,中山二路南150米,重庆市,重庆市,渝中区,106.55317457725897,29.556238093920207
中央银行农民银行,风景名胜,风景名胜,风景名胜,新华路74号银行大楼,重庆市,重庆市,渝中区,106.58017828200627,29.56392102387607
川康平民商业银行旧址,风景名胜,风景名胜,风景名胜,打铜街16号,重庆市,重庆市,渝中区,106.58061541394935,29.56281568088049
交通银行旧址,风景名胜,风景名胜,风景名胜,打铜街10号,重庆市,重庆市,渝中区,106.58091745806745,29.56275488077207
史迪威将军旧居,风景名胜,风景名胜,纪念馆,嘉陵新路63号,重庆市,重庆市,渝中区,106.52929775820114,29.553327733687862
岳王殿,风景名胜,风景名胜,风景名胜,华村立交桥,重庆市,重庆市,渝中区,106.51702093413114,29.550174724524215
苏联大使馆武官处旧址,风景名胜,风景名胜,风景名胜,书院巷与沧白路交叉口东南50米,重庆市,重庆市,渝中区,106.57619215849454,29.56473791876452
重庆市消防人员殉职纪念碑,风景名胜,风景名胜,风景名胜,新华路与邹容路交叉口东150米,重庆市,重庆市,渝中区,106.57755599770786,29.558295260468608
风雨同舟共商国是纪念雕塑,风景名胜,风景名胜,风景名胜,嘉陵桥路与四新路交叉口东150米,重庆市,重庆市,渝中区,106.54179302880222,29.563691790365894
记忆山城,风景名胜,风景名胜,风景名胜,嘉陵江滨江路88号洪崖洞内,重庆市,重庆市,渝中区,106.57559391145202,29.56497235176293
中共代表团旧址,风景名胜,风景名胜,风景名胜,中山三路151号,重庆市,重庆市,渝中区,106.54513474563431,29.559524404109105
大黄路基督耶稣教福音堂,风景名胜,风景名胜,教堂,大黄路95号附12号,重庆市,重庆市,渝中区,106.52142553288138,29.538676328675987
一号桥,风景名胜,风景名胜,风景名胜,北区路,重庆市,重庆市,渝中区,106.56578462341227,29.561871241034122
国民党老重庆陪都珊瑚坝军用飞机场财务机要室和跳舞厅旧址,风景名胜,风景名胜,风景名胜,南区路73号附2号,重庆市,重庆市,渝中区,106.55721752407572,29.553064110626515
东华观,风景名胜,风景名胜,寺庙道观,凯旋路与文化街交叉口西南50米,重庆市,重庆市,渝中区,106.57509122978978,29.555943164011246
魁星楼,风景名胜,风景名胜,风景名胜,临江门大唐广场17号,重庆市,重庆市,渝中区,106.56992788550009,29.56314161946787
重庆枇杷山公园-盆景园,风景名胜,风景名胜,风景名胜,中山二路东150米,重庆市,重庆市,渝中区,106.55467376862903,29.55680750635726
九三纪念碑,风景名胜,风景名胜,风景名胜,,重庆市,重庆市,渝中区,106.57753196424385,29.558742081794993
辛亥革命十先列纪念碑,风景名胜,风景名胜,纪念馆,鹅岭正街52附近,重庆市,重庆市,渝中区,106.53373638818508,29.551511508502106
真爱堂,风景名胜,风景名胜,教堂,李子坝正街99号江山华庭1单元,重庆市,重庆市,渝中区,106.52889579092626,29.55305180307716
两江游,风景名胜,风景名胜,风景名胜,民族路18号,重庆市,重庆市,渝中区,106.58323937163387,29.566816681812227
玄坛庙,风景名胜,风景名胜,寺庙道观,大坪长江路174号龙湖时代天街F1,重庆市,重庆市,渝中区,106.50987260689354,29.536456352158837
廊卦八羲伏,风景名胜,风景名胜,寺庙道观,中华巷与解放碑地下环道交叉口东南100米,重庆市,重庆市,渝中区,106.57036641108255,29.559321450198887
枇杷山后街观景平台,风景名胜,风景名胜,风景名胜,枇杷山正街119号附近,重庆市,重庆市,渝中区,106.5526408263444,29.55511354926844
中共重庆地方执行委员会旧址,风景名胜,风景名胜,风景名胜,解放路二府衙38号1-17,重庆市,重庆市,渝中区,106.58025352277978,29.560020459018155
渝中区基督教大坪福音堂,风景名胜,风景名胜,教堂,大黄路95号附近,重庆市,重庆市,渝中区,106.52138041519535,29.53864021880616
基督教解放西路礼拜堂,风景名胜,风景名胜,教堂,解放西路73号,重庆市,重庆市,渝中区,106.57277030490653,29.552223441639423
人民大礼堂-南楼,风景名胜,风景名胜,风景名胜,学田湾正街与枣子岚垭正街交叉口东北150米,重庆市,重庆市,渝中区,106.54974565089721,29.563985001687403
重庆枇杷山公园-阜园,风景名胜,风景名胜,风景名胜,中山二路南150米,重庆市,重庆市,渝中区,106.55390966893629,29.556444314261835
廊卦八羲伏,风景名胜,风景名胜,寺庙道观,中华巷与解放碑地下环道交叉口东南100米,重庆市,重庆市,渝中区,106.57036641108255,29.559321450198887
枇杷山后街观景平台,风景名胜,风景名胜,风景名胜,枇杷山正街119号附近,重庆市,重庆市,渝中区,106.5526408263444,29.55511354926844
中共重庆地方执行委员会旧址,风景名胜,风景名胜,风景名胜,解放路二府衙38号1-17,重庆市,重庆市,渝中区,106.58025352277978,29.560020459018155
渝中区基督教大坪福音堂,风景名胜,风景名胜,教堂,大黄路95号附近,重庆市,重庆市,渝中区,106.52138041519535,29.53864021880616
基督教解放西路礼拜堂,风景名胜,风景名胜,教堂,解放西路73号,重庆市,重庆市,渝中区,106.57277030490653,29.552223441639423
人民大礼堂-南楼,风景名胜,风景名胜,风景名胜,学田湾正街与枣子岚垭正街交叉口东北150米,重庆市,重庆市,渝中区,106.54974565089721,29.563985001687403
重庆枇杷山公园-阜园,风景名胜,风景名胜,风景名胜,中山二路南150米,重庆市,重庆市,渝中区,106.55390966893629,29.556444314261835
九三学社成立旧址纪念碑,风景名胜,风景名胜,风景名胜,公园路19号,重庆市,重庆市,渝中区,106.57778304047162,29.558716274477145
江隘炮台,风景名胜,风景名胜,风景名胜,嘉陵江滨江路88号洪崖洞民俗风貌旅游区,重庆市,重庆市,渝中区,106.5757999858991,29.565109472119595
独角戏,风景名胜,风景名胜,风景名胜,沧白路与铁板巷交叉口北50米,重庆市,重庆市,渝中区,106.57524376588609,29.564978058816592
苏联驻华大使馆旧址,风景名胜,风景名胜,风景名胜,枇杷山正街104号(重庆市第三人民医院内),重庆市,重庆市,渝中区,106.55108933562009,29.555846447992206
重庆渝中区老鼓楼衙署遗址高台建筑基址保护工程,风景名胜,风景名胜,风景名胜,解放东路100号附近,重庆市,重庆市,渝中区,106.57838730401146,29.557055303990385
韩国光复军总司令部旧址,风景名胜,风景名胜,风景名胜,解放碑商圈邹容路47号附近,重庆市,重庆市,渝中区,106.5757363345789,29.558725693565023
重庆美国大使馆旧址,风景名胜,风景名胜,风景名胜,体育路与健康路交叉口西南100米,重庆市,重庆市,渝中区,106.54151496149635,29.555344175909415
探索舱·观景台,风景名胜,风景名胜,观景点,接圣街8号(重庆来福士14号门),重庆市,重庆市,渝中区,106.58395124389027,29.568820312183174
七牌坊碑林,风景名胜,风景名胜,风景名胜,大坪支路,重庆市,重庆市,渝中区,106.51377734588183,29.54271427788788
三将军炮台,风景名胜,风景名胜,风景名胜,沧白路56号附近,重庆市,重庆市,渝中区,106.57620812177275,29.565466674811447
重庆环球金融中心观景台,风景名胜,风景名胜,风景名胜,民族路188号,重庆市,重庆市,渝中区,106.57414544225276,29.562017159234056
法国领事馆旧址修缮工程项目部,风景名胜,风景名胜,风景名胜,凤凰台31号,重庆市,重庆市,渝中区,106.56765076436842,29.55282278207467
贺龙雕像,风景名胜,风景名胜,风景名胜,希尔顿酒店大厅入口旁(大田湾体育场正门前),重庆市,重庆市,渝中区,106.54449061658377,29.558110568669395
鲜英旧居,风景名胜,风景名胜,纪念馆,四新路39号-1,重庆市,重庆市,渝中区,106.5401347004352,29.562883399056915
聚兴诚银行旧址,风景名胜,风景名胜,风景名胜,解放东路112号,重庆市,重庆市,渝中区,106.58016257429914,29.55888681021266
通远楼,风景名胜,风景名胜,风景名胜,兴隆街3-4号附近,重庆市,重庆市,渝中区,106.56252366095748,29.557221586958256
重庆白象街传统风貌区,风景名胜,风景名胜,风景名胜,,重庆市,重庆市,渝中区,106.57564555374823,29.55436220208177
泸上龙宫,风景名胜,风景名胜,风景名胜,解放碑较场口恒通云鼎b栋,重庆市,重庆市,渝中区,106.57226572512779,29.557249122813893
品岩亭,风景名胜,风景名胜,风景名胜,,重庆市,重庆市,渝中区,106.50224259420993,29.54890704872441
十八梯传统风貌区,风景名胜,风景名胜,风景名胜,中兴路1号,重庆市,重庆市,渝中区,106.56937693972746,29.555503764663282
孙科重庆旧居(圆庐),风景名胜,风景名胜,纪念馆,嘉陵新路8号,重庆市,重庆市,渝中区,106.53530677061893,29.554640158351802
联合国际火凤凰观景台,风景名胜,风景名胜,观景点,解放碑商圈新华路201号联合国际写字楼,重庆市,重庆市,渝中区,106.57840712278326,29.56023717182024
东华观藏经楼,风景名胜,风景名胜,风景名胜,凯旋路73号,重庆市,重庆市,渝中区,106.57513024542753,29.555963189690516
红岩革命纪念馆-饶国模故居,风景名胜,风景名胜,风景名胜,龙隐路附近,重庆市,重庆市,渝中区,106.49478800833904,29.55630898806968
大化步道,风景名胜,风景名胜,风景名胜,华村立交与嘉鸿大道交叉路口往西南约200米,重庆市,重庆市,渝中区,106.51344804842832,29.54893799258022
抗建堂,风景名胜,风景名胜,风景名胜,中山一路181号抗建大厦7层,重庆市,重庆市,渝中区,106.55698393991001,29.557705042511717
德国领事馆旧址,风景名胜,风景名胜,风景名胜,和平路211-1号,重庆市,重庆市,渝中区,106.56398021131037,29.55654082077933
英国领事馆旧址,风景名胜,风景名胜,风景名胜,金汤街83号,重庆市,重庆市,渝中区,106.56281303840474,29.556044415743337
佛图关碑记石刻,风景名胜,风景名胜,风景名胜,长江一路,重庆市,重庆市,渝中区,106.5261812108459,29.54988789651617
大清邮局白象分号,风景名胜,风景名胜,风景名胜,解放东路257附近,重庆市,重庆市,渝中区,106.5756785845877,29.554062338807583
重庆佛图关公园-杨闇公烈士铜像,风景名胜,风景名胜,风景名胜,长江二路,重庆市,重庆市,渝中区,106.52602779463594,29.5503523194196
洪崖汉三阙,风景名胜,风景名胜,风景名胜,嘉陵江滨江路90号附近,重庆市,重庆市,渝中区,106.57572495208738,29.56517838666264
楼城市阳台,风景名胜,风景名胜,风景名胜,嘉陵江滨江路90号附近,重庆市,重庆市,渝中区,106.57573094159143,29.565398314151842
洪崖洞再造记石碑,风景名胜,风景名胜,风景名胜,嘉陵江滨江路90号附近,重庆市,重庆市,渝中区,106.5757219511834,29.56517338597087
重庆人民广场-张家德雕像,风景名胜,风景名胜,风景名胜,人民路173号人民大礼堂前重庆人民广场,重庆市,重庆市,渝中区,106.54913255100537,29.565117425744646
归故里,风景名胜,风景名胜,纪念馆,千厮门大桥与嘉陵江滨江路交叉口西南100米,重庆市,重庆市,渝中区,106.5755178535744,29.565431127516806
中法学校遗址,风景名胜,风景名胜,风景名胜,,重庆市,重庆市,渝中区,106.55261315598126,29.565805673980943
张治中故居,风景名胜,风景名胜,风景名胜,中山四路65号附近,重庆市,重庆市,渝中区,106.54337803058769,29.565798476936088
太平门遗址,风景名胜,风景名胜,风景名胜,四方街与白象街交叉口南50米,重庆市,重庆市,渝中区,106.57904454859785,29.555595282778913
西南实业大厦,风景名胜,风景名胜,风景名胜,西四街与解放东路交叉口南50米,重庆市,重庆市,渝中区,106.57939055495655,29.55676108776982
国民参政会旧址,风景名胜,风景名胜,风景名胜,中华路168号,重庆市,重庆市,渝中区,106.57119292236702,29.559844120055292
中华全国文艺界抗敌协会遗址,风景名胜,风景名胜,风景名胜,张家花园街141号附近,重庆市,重庆市,渝中区,106.55559369663813,29.5633817141245
国民政府外交部旧址(装修中),风景名胜,风景名胜,风景名胜,解放东路112号,重庆市,重庆市,渝中区,106.5801615741331,29.558886809595183
鹅岭公园,风景名胜,公园广场,公园,鹅岭正街176号,重庆市,重庆市,渝中区,106.5324864306771,29.55250706877454
重庆朝天门广场,风景名胜,公园广场,城市广场,朝千路1号,重庆市,重庆市,渝中区,106.58418017912642,29.56977208293663
重庆人民广场,风景名胜,公园广场,城市广场,人民路173号,重庆市,重庆市,渝中区,106.54853054507623,29.564697404875453
重庆滨江公园,风景名胜,公园广场,公园,长江滨江路166-6号,重庆市,重庆市,渝中区,106.56858160988028,29.55097653704943
人民公园,风景名胜,公园广场,公园,公园路1号,重庆市,重庆市,渝中区,106.57754901028514,29.558044345848323
重庆枇杷山公园,风景名胜,公园广场,公园,两路口街道枇杷山正街74号,重庆市,重庆市,渝中区,106.5541750418725,29.556775656489123
城市阳台,风景名胜,公园广场,城市广场,嘉滨路88号洪崖洞民俗风貌区11层,重庆市,重庆市,渝中区,106.57450444357367,29.564886458762466
蒋家院子,风景名胜,公园广场,城市广场,维新巷18号附近,重庆市,重庆市,渝中区,106.56805390785276,29.555918121145833
重庆珊瑚公园,风景名胜,公园广场,公园,长江滨江南路380号,重庆市,重庆市,渝中区,106.5506528328859,29.552348912739493
洪崖滴翠,风景名胜,公园广场,城市广场,纸盐河街37号重庆洪崖洞,重庆市,重庆市,渝中区,106.57450444357367,29.564886458762466
重庆佛图关公园,风景名胜,公园广场,公园,长江一路鹅颈巷8号,重庆市,重庆市,渝中区,106.52314236178844,29.55039458533304
重庆站站前广场,风景名胜,公园广场,城市广场,南区路与菜园坝立交桥交叉口南200米,重庆市,重庆市,渝中区,106.54469233997182,29.55229510938251
邹容公园,风景名胜,公园广场,公园,南区公园路,重庆市,重庆市,渝中区,106.55101727995178,29.554813690150866
大唐广场,风景名胜,公园广场,城市广场,北区路与解放碑地下环道交叉口北50米,重庆市,重庆市,渝中区,106.57002898616851,29.562625910949667
音乐喷泉广场,风景名胜,公园广场,城市广场,龙湖时代天街3号16栋,重庆市,重庆市,渝中区,106.50892969596113,29.53971933298543
重庆站广场,风景名胜,公园广场,城市广场,菜袁路8号附近,重庆市,重庆市,渝中区,106.54469233997182,29.55229510938251
国际村公园,风景名胜,公园广场,公园,王家坡长江一路30号广璐大厦附近,重庆市,重庆市,渝中区,106.53787843398561,29.554482275746874
虎头岩公园,风景名胜,公园广场,公园,中悦酒店东南(虎头岩立交北),重庆市,重庆市,渝中区,106.49836202113063,29.550059003608585
下肖家湾公园,风景名胜,公园广场,公园,和泓江山国际小区和复旦中学分校之间,重庆市,重庆市,渝中区,106.52514092701225,29.54371844967826
红岩革命纪念馆-红岩广场,风景名胜,公园广场,城市广场,红岩村52号,重庆市,重庆市,渝中区,106.49576388335468,29.55683172732832
李子坝抗战遗址公园,风景名胜,公园广场,公园,李子坝正街66号,重庆市,重庆市,渝中区,106.53114914267654,29.554706927251576
人和街社区-人口文化园,风景名胜,公园广场,公园,人和街66号附近,重庆市,重庆市,渝中区,106.55393619865691,29.565128257013985
中央山地公园,风景名胜,公园广场,公园,李子坝正街130号附近,重庆市,重庆市,渝中区,106.5243543692127,29.552770974181392
牛角沱滨水公园,风景名胜,公园广场,公园,嘉陵江滨江路300号牛角沱站,重庆市,重庆市,渝中区,106.53851326033119,29.563521490594276
重庆欢乐海底世界,风景名胜,公园广场,水族馆,化龙桥重庆天地企业天地2号楼1层,重庆市,重庆市,渝中区,106.51220826498525,29.5535557090309
概念98城市·文化客厅,风景名胜,公园广场,城市广场,"嘉滨路洪崖洞1楼斜对面300米,江边负一层(嘉陵江边)",重庆市,重庆市,渝中区,106.57152783782522,29.564864673847715
桂花园体育文化公园,风景名胜,公园广场,公园,桂花园路2号,重庆市,重庆市,渝中区,106.53954778731375,29.55766994199259
白象街心公园,风景名胜,公园广场,公园,白象街与解放东路交叉口南50米,重庆市,重庆市,渝中区,106.5807706615378,29.558955152821916
人和花园-游园,风景名胜,公园广场,公园,人和街66号附近,重庆市,重庆市,渝中区,106.55400630706575,29.565051406413954
天地湖,风景名胜,公园广场,公园,化龙桥瑞天路天地,重庆市,重庆市,渝中区,106.50848163202154,29.55262817369725
洪崖滴翠广场,风景名胜,公园广场,城市广场,嘉滨路88号洪崖洞民俗风貌区1-2层洪崖洞民俗风貌区内,重庆市,重庆市,渝中区,106.57407623925162,29.56491207231967
健身广场,风景名胜,公园广场,城市广场,全境七星岗街道银中大厦e栋健身广场,重庆市,重庆市,渝中区,106.55939995521094,29.559173319938946
明光广场,风景名胜,公园广场,城市广场,新民街与和平路交叉路口北侧(解放碑步行街),重庆市,重庆市,渝中区,106.56697693405597,29.557415306703344
重庆市枇杷山公园管理处,风景名胜,公园广场,公园广场,枇杷山正街91号,重庆市,重庆市,渝中区,106.55360925195649,29.55591398006292
渝中街头艺术广场,风景名胜,公园广场,城市广场,磁器街与八一路交叉路口西南侧(解放碑步行街),重庆市,重庆市,渝中区,106.5717965056876,29.556261020168726
海洋天地,风景名胜,公园广场,水族馆,瑞天路企业天地6号楼二层,重庆市,重庆市,渝中区,106.51149525625945,29.55321076738438
两江游三峡游,风景名胜,公园广场,公园,朝天门二码头,重庆市,重庆市,渝中区,106.58505738215133,29.565286015046713
中庭广场,风景名胜,公园广场,城市广场,瑞天路128号,重庆市,重庆市,渝中区,106.5064816428368,29.555616185057797
健康路游园,风景名胜,公园广场,公园,体育路与健康路交叉口西南150米,重庆市,重庆市,渝中区,106.54117827097252,29.555516370794503
化龙桥海洋公园,风景名胜,公园广场,水族馆,化龙桥企业天地2号楼LG层,重庆市,重庆市,渝中区,106.51237576326827,29.553173333957833
石林寺,风景名胜,风景名胜,风景名胜,大渡口跳磴,重庆市,重庆市,大渡口区,106.41221258513937,29.421097765906573
华生园金色蛋糕梦幻王国,风景名胜,风景名胜,省级景点,凤翔路123号,重庆市,重庆市,大渡口区,106.46391807923783,29.468338548698938
春晖亲子公园,风景名胜,风景名胜,风景名胜,,重庆市,重庆市,大渡口区,106.4858305021851,29.43900829704678
大渡口森林公园,风景名胜,风景名胜,风景名胜,跳磴镇双河村6号附14号,重庆市,重庆市,大渡口区,106.41191659132578,29.40309428543638
大渡口区基督教革新村活动点,风景名胜,风景名胜,教堂,跃进支路9号1-10附近,重庆市,重庆市,大渡口区,106.4901841317382,29.492720761404836
南海地球村,风景名胜,风景名胜,风景名胜,跳蹬镇南海村附近,重庆市,重庆市,大渡口区,106.43184643302989,29.378521067079255
大渡口基督教礼拜堂,风景名胜,风景名胜,教堂,革新村马王街28号,重庆市,重庆市,大渡口区,106.48840681002854,29.49371702193023
白云寺,风景名胜,风景名胜,寺庙道观,,重庆市,重庆市,大渡口区,106.4050438651655,29.414377050298633
禾宫殿,风景名胜,风景名胜,风景名胜,钢花路800号,重庆市,重庆市,大渡口区,106.47864138415682,29.477228806350332
义渡古镇,风景名胜,风景名胜,风景名胜,九宫庙街道马桑溪村,重庆市,重庆市,大渡口区,106.4910056991891,29.457153697479324
滑石滩石碾盘,风景名胜,风景名胜,风景名胜,滨江路,重庆市,重庆市,大渡口区,106.49260114405251,29.445346287271022
白沙沱长江铁路大桥,风景名胜,风景名胜,风景名胜,小南海水泥厂,重庆市,重庆市,大渡口区,106.42424328585479,29.355868387448787
金鳌寺财神殿,风景名胜,风景名胜,寺庙道观,金鳌村,重庆市,重庆市,大渡口区,106.4527635282643,29.405966178722295
大渡口区基督教渝钢村教会活动点,风景名胜,风景名胜,教堂,跃进路269号附近,重庆市,重庆市,大渡口区,106.49032054343206,29.492601221690332
千手观音殿,风景名胜,风景名胜,风景名胜,西石路,重庆市,重庆市,大渡口区,106.41100322557337,29.420878164013846
晋愉公园养生坝,风景名胜,风景名胜,风景名胜,晋愉公园内,重庆市,重庆市,大渡口区,106.46780246736698,29.4790308022308
小南海信号台房,风景名胜,风景名胜,风景名胜,跳磴镇白沙沱,重庆市,重庆市,大渡口区,106.42742641688828,29.357558274307827
马王场遗址,风景名胜,风景名胜,风景名胜,共建二支路,重庆市,重庆市,大渡口区,106.4886645502436,29.49407962987346
中华美德公园-孟子雕像,风景名胜,风景名胜,风景名胜,中华美德公园(双山隧道东),重庆市,重庆市,大渡口区,106.47648456629402,29.488972314278524
百花村崖墓群,风景名胜,风景名胜,风景名胜,八桥镇观文岩,重庆市,重庆市,大渡口区,106.48970142590778,29.46393753731786
大渡口公园,风景名胜,公园广场,公园,文体路,重庆市,重庆市,大渡口区,106.47863192997116,29.484320544243985
中华美德公园,风景名胜,公园广场,公园,文体支路222号附近,重庆市,重庆市,大渡口区,106.47647548132653,29.489956849913376
南海温泉公园,风景名胜,公园广场,公园,跳蹬镇,重庆市,重庆市,大渡口区,106.42045393035397,29.374689176091884
大渡口区府广场,风景名胜,公园广场,城市广场,新山村街道文体路126号,重庆市,重庆市,大渡口区,106.47814241244033,29.486383208856978
思源公园,风景名胜,公园广场,公园,钢花路874号,重庆市,重庆市,大渡口区,106.49029408169449,29.465616508163325
双山晋愉公园,风景名胜,公园广场,公园,晋愉绿岛附近,重庆市,重庆市,大渡口区,106.46839820979237,29.476234687268562
揽江公园,风景名胜,公园广场,公园,鱼洞长江大桥桥头,重庆市,重庆市,大渡口区,106.49667935191694,29.410495657100586
东海诗情广场,风景名胜,公园广场,城市广场,双林路与诗情路交叉口东150米,重庆市,重庆市,大渡口区,106.46537497192124,29.498445706655104
心湖西体育文化公园,风景名胜,公园广场,公园,双林路53附近,重庆市,重庆市,大渡口区,106.46377821550338,29.49323683199312
隋唐公园,风景名胜,公园广场,公园,钢花路507号附1号东南方向190米,重庆市,重庆市,大渡口区,106.48480498789262,29.48081412992208
桥口体育文化公园,风景名胜,公园广场,公园,兴盛路,重庆市,重庆市,大渡口区,106.48863658041904,29.442142044780972
来龙寺公园,风景名胜,公园广场,公园,金中大道(荣盛城),重庆市,重庆市,大渡口区,106.46007274940332,29.44867030783385
刘家坝社区公园,风景名胜,公园广场,公园,茄子溪,重庆市,重庆市,大渡口区,106.4866494398971,29.43013726769846
伏牛溪社区公园,风景名胜,公园广场,公园,长征重工有限责任公司附近,重庆市,重庆市,大渡口区,106.46708866012104,29.411793456194413
国学文化广场,风景名胜,公园广场,城市广场,石林大道2号附27号正北方向50米,重庆市,重庆市,大渡口区,106.42673787432405,29.403382042858983
月亮岭公园,风景名胜,公园广场,公园,文体支路与美德路交叉口南100米,重庆市,重庆市,大渡口区,106.48154000076052,29.48893289414064
中交两山丽景公园,风景名胜,公园广场,公园,双园路东200米,重庆市,重庆市,大渡口区,106.46861359611984,29.495804467906037
康乐文化广场,风景名胜,公园广场,城市广场,跃进支路与跃进路交叉口西150米,重庆市,重庆市,大渡口区,106.48927450847773,29.49152157677885
人口计生文化广场,风景名胜,公园广场,城市广场,文体支路与美德路交叉口西南150米,重庆市,重庆市,大渡口区,106.48054113025802,29.488762065703256
白居寺(建设中),风景名胜,公园广场,公园,小山门,重庆市,重庆市,大渡口区,106.49429190880001,29.416249397743638
爱与山社区公园,风景名胜,公园广场,公园,爱与山B区(山海路南),重庆市,重庆市,大渡口区,106.46640409083537,29.49088673431301
绿之缘植物馆,风景名胜,公园广场,植物园,卉星街,重庆市,重庆市,大渡口区,106.4866717888022,29.492110575947876
统战文化广场,风景名胜,公园广场,城市广场,九宫庙统战文化广场(思源公园),重庆市,重庆市,大渡口区,106.48648472225211,29.46738833038974
音乐城堡广场,风景名胜,公园广场,城市广场,凤祥路123号(华生园金色蛋糕梦幻城堡博物馆内)华生园金色蛋糕梦幻王国内,重庆市,重庆市,大渡口区,106.46312814190458,29.467449933983914
下沉广场,风景名胜,公园广场,城市广场,春晖路街道翠柏路101号天安数码城云谷4幢下沉广场,重庆市,重庆市,大渡口区,106.47330503532382,29.466968469665513
九宫庙商圈商业文化广场,风景名胜,公园广场,城市广场,榕华街与步行街交叉口西北50米,重庆市,重庆市,大渡口区,106.47553544410556,29.47999067839262
健身活动广场,风景名胜,公园广场,城市广场,四民村东南方向70米,重庆市,重庆市,大渡口区,106.46939955065585,29.415365746700072
锦天休闲广场,风景名胜,公园广场,城市广场,春晖路518号附近,重庆市,重庆市,大渡口区,106.47244710100944,29.47653161527721
庹家坳社区公园,风景名胜,公园广场,公园,九宫庙街道庹家坳社区居民委员会北70米,重庆市,重庆市,大渡口区,106.47658745217976,29.445897958846192
思贤园,风景名胜,公园广场,公园,跃进路南50米,重庆市,重庆市,大渡口区,106.49492228572842,29.491559468406273
月亮岩公园,风景名胜,公园广场,公园,文体支路与美德路交叉口东南100米,重庆市,重庆市,大渡口区,106.48189803320233,29.488986914121064
大渡口区义渡公园,风景名胜,公园广场,公园,立交东侧偏南,重庆市,重庆市,大渡口区,106.48258492688504,29.457343651515956
爱情公园,风景名胜,公园广场,公园,红狮大道,重庆市,重庆市,大渡口区,106.46884225812919,29.49490247989788
柏华社区公园,风景名胜,公园广场,公园,松青路1106号附4号,重庆市,重庆市,大渡口区,106.47219305670247,29.46575795307484
心湖公园,风景名胜,公园广场,公园广场,,重庆市,重庆市,大渡口区,106.46556176222866,29.493342428900323
三友园,风景名胜,公园广场,公园,跃进路西50米,重庆市,重庆市,大渡口区,106.49368853673775,29.492850196217887
观音桥商圈都市旅游区,风景名胜,风景名胜,国家级景点,,重庆市,重庆市,江北区,106.52590196656968,29.575850950488686
重庆铁山坪森林公园,风景名胜,风景名胜,国家级景点,铁山坪,重庆市,重庆市,江北区,106.67637465531826,29.60828187780621
鸿恩寺森林公园,风景名胜,风景名胜,风景名胜,鸿恩路,重庆市,重庆市,江北区,106.50386002568672,29.57128885971796
徐悲鸿故居,风景名胜,风景名胜,纪念馆,,重庆市,重庆市,江北区,106.47885432925699,29.571067657824543
福音堂,风景名胜,风景名胜,教堂,黄花园大桥北桥头江北嘴中央商务区,重庆市,重庆市,江北区,106.57310515175315,29.575018687302382
黄花园大桥,风景名胜,风景名胜,风景名胜,重庆嘉陵江大桥与北滨一路交叉口,重庆市,重庆市,江北区,106.56320154918866,29.571344535725427
观音寺,风景名胜,风景名胜,寺庙道观,北滨二路西100米,重庆市,重庆市,江北区,106.57224527568957,29.598838116027558
鸿升门,风景名胜,风景名胜,风景名胜,鸿恩路北50米,重庆市,重庆市,江北区,106.50809405520059,29.57702544233495
重庆三、三一惨案烈士墓,风景名胜,风景名胜,风景名胜,建新东路98号-4号,重庆市,重庆市,江北区,106.55549738728617,29.583375715947426
江北区革命烈士纪念堂,风景名胜,风景名胜,纪念馆,建新东路310附近,重庆市,重庆市,江北区,106.55550039140829,29.583377720346746
莲花寺,风景名胜,风景名胜,寺庙道观,铜锣峡温泉附近,重庆市,重庆市,江北区,106.65897348689815,29.592041139016377
天主教重庆总教区江北德肋撒天主堂,风景名胜,风景名胜,教堂,桂花街41号,重庆市,重庆市,江北区,106.57350932430843,29.57569383199197
绿色星球动物主题公园,风景名胜,风景名胜,风景名胜,六号线江北城站3号出口,重庆市,重庆市,江北区,106.56916849082504,29.57762378454127
江北区天主教宗教活动点,风景名胜,风景名胜,教堂,西路与福源路交叉口西北200米,重庆市,重庆市,江北区,106.47390996811868,29.59488575800765
鸿运门,风景名胜,风景名胜,风景名胜,鸿恩路与鸿福香街交叉口东100米路北,重庆市,重庆市,江北区,106.50652250071906,29.576757896468795
锁江遗址,风景名胜,风景名胜,风景名胜,铁山坪铁山坪森林公园内,重庆市,重庆市,江北区,106.66120339577813,29.590130526542954
黄位贤烈士纪念碑,风景名胜,风景名胜,纪念馆,盘溪路150号西南方向60米,重庆市,重庆市,江北区,106.48127355988542,29.58298564501725
福寿园南山福座人文纪念馆,风景名胜,风景名胜,纪念馆,长新路11号附近,重庆市,重庆市,江北区,106.54707633001446,29.57594064058742
铁山圣泉,风景名胜,风景名胜,风景名胜,铁山坪森林公园,重庆市,重庆市,江北区,106.66268376977851,29.598193152217398
霞峰寺,风景名胜,风景名胜,风景名胜,唐凤路与盛华路交叉口东南100米,重庆市,重庆市,江北区,106.81123528162941,29.647237772262915
大石坝兵工厂房,风景名胜,风景名胜,风景名胜,建新西路南50米,重庆市,重庆市,江北区,106.49641441271737,29.563636245539122
王爷庙,风景名胜,风景名胜,寺庙道观,郭鱼路,重庆市,重庆市,江北区,106.6985892832162,29.583839507141004
绿川英子刘仁旧居,风景名胜,风景名胜,风景名胜,建新西路453号附近,重庆市,重庆市,江北区,106.5070146670689,29.564487584074016
郑家院子,风景名胜,风景名胜,风景名胜,建新西路455号附近,重庆市,重庆市,江北区,106.50715004694742,29.56472490011268
重庆鎏嘉码头景区,风景名胜,风景名胜,风景名胜,北滨一路(黄花园大桥下),重庆市,重庆市,江北区,106.55991273813385,29.573484079641663
鱼嘴禹王庙,风景名胜,风景名胜,寺庙道观,红卫路37号,重庆市,重庆市,江北区,106.75044881077254,29.617843914097
寸滩观音阁,风景名胜,风景名胜,寺庙道观,,重庆市,重庆市,江北区,106.59783163358304,29.622086415189123
蜀国阳光军营遗址,风景名胜,风景名胜,风景名胜,铁山坪森林公园,重庆市,重庆市,江北区,106.66694163526728,29.584376422362258
华巅池森林公园,风景名胜,风景名胜,风景名胜,盛华路东150米,重庆市,重庆市,江北区,106.82641229222031,29.65576396218009
东风风光,风景名胜,风景名胜,风景名胜,红兴路与红石路交叉口东北200米,重庆市,重庆市,江北区,106.4924680228109,29.574274716677785
石家花园,风景名胜,风景名胜,风景名胜,红石路附近,重庆市,重庆市,江北区,106.47847228586163,29.57029882410982
重庆江北观音桥,风景名胜,风景名胜,风景名胜,建新南路2号黄金海岸B1-016号(乡村基旁边),重庆市,重庆市,江北区,106.52984378686378,29.575321367101203
仙人堂生命纪念园,风景名胜,风景名胜,纪念馆,观音桥步行街2号融恒时代广场9楼,重庆市,重庆市,江北区,106.53774191475756,29.575269636526645
鱼嘴周家大院,风景名胜,风景名胜,风景名胜,工农路44号,重庆市,重庆市,江北区,106.75214499239628,29.618226121682568
重庆大轰炸惨案墓地遗址,风景名胜,风景名胜,风景名胜,渝航大道与海尔路交叉路口往东南约100米,重庆市,重庆市,江北区,106.60801223358008,29.625332590456292
寸滩至善桥(文物),风景名胜,风景名胜,风景名胜,海尔路(羊坝滩东侧约100米),重庆市,重庆市,江北区,106.59538132987825,29.621984728682364
长龙山天仙观,风景名胜,风景名胜,风景名胜,海尔路,重庆市,重庆市,江北区,106.64491847288028,29.603370044092067
峡江步道,风景名胜,风景名胜,风景名胜,,重庆市,重庆市,江北区,106.66067791252696,29.589287796423903
东升门城墙遗址,风景名胜,风景名胜,风景名胜,水市口街,重庆市,重庆市,江北区,106.5773708604854,29.57673368441248
重庆保税体验旅游景区,风景名胜,风景名胜,风景名胜,海尔路319号,重庆市,重庆市,江北区,106.5843338250481,29.62680736644578
东升门及城墙,风景名胜,风景名胜,风景名胜,,重庆市,重庆市,江北区,106.57736386620729,29.57659872482643
高尔夫江景别墅,风景名胜,风景名胜,风景名胜,宏帆路125附近,重庆市,重庆市,江北区,106.4666728510115,29.60516083571702
3·31殉难志士墓地,风景名胜,风景名胜,风景名胜,建新东路98号附近,重庆市,重庆市,江北区,106.55525103449355,29.583438279148336
重庆铁山坪森林公园-鼓楼,风景名胜,风景名胜,风景名胜,铁山坪陶然路与峡峰路交口附近僧官寺内,重庆市,重庆市,江北区,106.66562574789111,29.59419877760177
重庆铁山坪森林公园-伽蓝殿,风景名胜,风景名胜,风景名胜,铁山坪陶然路与峡峰路交口附近僧官寺内,重庆市,重庆市,江北区,106.66561677362907,29.594190797339074
张王庙滩,风景名胜,风景名胜,风景名胜,工农路2号附近,重庆市,重庆市,江北区,106.74997421249026,29.61530657961842
重庆儿童公园(暂停营业),风景名胜,公园广场,公园,鸿恩路,重庆市,重庆市,江北区,106.51447432032597,29.576071305921005
嘉陵公园,风景名胜,公园广场,公园,建新西路4号附1号,重庆市,重庆市,江北区,106.52668993725392,29.57622590037791
金源广场,风景名胜,公园广场,城市广场,北滨路368号,重庆市,重庆市,江北区,106.52079662087621,29.55955783966965
九街广场,风景名胜,公园广场,城市广场,北城天街52附近,重庆市,重庆市,江北区,106.54050330852426,29.58243252473365
石门公园,风景名胜,公园广场,公园,红石路上九村200号,重庆市,重庆市,江北区,106.484490738443,29.56938266539131
曼哈顿广场,风景名胜,公园广场,城市广场,建新东路339号,重庆市,重庆市,江北区,106.55720461424472,29.585320894196236
江北石子山体育公园,风景名胜,公园广场,公园,锦橙路,重庆市,重庆市,江北区,106.48517056577579,29.605268025632864
重庆鲜花港公园,风景名胜,公园广场,公园,宏帆路翡丽山旁边,重庆市,重庆市,江北区,106.46955331282514,29.607702799497694
永辉公园,风景名胜,公园广场,公园,武江西路与盘溪路交叉口南100米,重庆市,重庆市,江北区,106.47801169424604,29.591469467415973
聚贤岩广场,风景名胜,公园广场,城市广场,北滨二路附近,重庆市,重庆市,江北区,106.56608824974396,29.5729237595563
社区公园,风景名胜,公园广场,公园,盛安路与盛锦路交叉口南50米,重庆市,重庆市,江北区,106.79400920953721,29.644155305446176
塔山公园,风景名胜,公园广场,公园,,重庆市,重庆市,江北区,106.57174181811901,29.60154878242156
赵家山体育文化公园,风景名胜,公园广场,公园,南桥寺盘溪七支路,重庆市,重庆市,江北区,106.47350595050656,29.593231151515706
光华学汇公园,风景名胜,公园广场,公园,盘溪路,重庆市,重庆市,江北区,106.47936125441814,29.596279826869576
天鹅堡森林公园,风景名胜,公园广场,公园,西环路8号-附94号,重庆市,重庆市,江北区,106.52561128453955,29.574879510272407
铁山坪运动公园,风景名胜,公园广场,公园,松缘路和云岭路的交叉口附近,重庆市,重庆市,江北区,106.669919828464,29.591196492046898
溉澜溪体育公园,风景名胜,公园广场,公园,海尔路西150米,重庆市,重庆市,江北区,106.56162979564812,29.606422005205268
寸滩滨江公园,风景名胜,公园广场,公园,鲁能星城外滩营销中心旁,重庆市,重庆市,江北区,106.58336447599338,29.616185944307535
两江粉黛公园,风景名胜,公园广场,公园,鱼嘴镇康泰路,重庆市,重庆市,江北区,106.76430957553374,29.638550936793255
五里店广场,风景名胜,公园广场,城市广场,建新东路286号,重庆市,重庆市,江北区,106.5542286298823,29.582170944828107
朝阳河社区公园,风景名胜,公园广场,公园,海尔路港城工业C区西泽建筑公司内,重庆市,重庆市,江北区,106.6294375501695,29.60994987685321
鱼嘴市民广场,风景名胜,公园广场,城市广场,和韵路与鱼嘴西路交叉口南150米,重庆市,重庆市,江北区,106.75633310463603,29.625464318722834
滨江公园,风景名胜,公园广场,公园,北滨二路与凤澜路交汇处,重庆市,重庆市,江北区,106.57087555672535,29.596724402538996
铁山坪森林公园-观景平台,风景名胜,公园广场,城市广场,铁山坪铁山坪森林公园内,重庆市,重庆市,江北区,106.66526607722805,29.588939149850845
溉澜溪广场,风景名胜,公园广场,城市广场,凤澜路,重庆市,重庆市,江北区,106.56999896526996,29.59674447371884
管园,风景名胜,公园广场,公园,,重庆市,重庆市,江北区,106.56312501704193,29.5790598101151
志愿服务广场,风景名胜,公园广场,城市广场,建新东路119附近,重庆市,重庆市,江北区,106.54047051769362,29.577739017217564
郭家沱文化广场,风景名胜,公园广场,城市广场,郭家沱正街55号附近,重庆市,重庆市,江北区,106.67293859891113,29.570182712039134
鱼嘴鱼乐广场,风景名胜,公园广场,城市广场,和韵路,重庆市,重庆市,江北区,106.76258112923188,29.62857152746784
复盛市民广场,风景名胜,公园广场,城市广场,豪盛路2西北方向90米,重庆市,重庆市,江北区,106.79323554090519,29.641819722100156
观音桥龙湖新壹街-西广场,风景名胜,公园广场,城市广场,建北八支路,重庆市,重庆市,江北区,106.52134060933422,29.584195870844447
观音桥龙湖新壹街-北广场,风景名胜,公园广场,城市广场,红旗河沟立交,重庆市,重庆市,江北区,106.5224364421655,29.5853045021832
滨水绿廊,风景名胜,公园广场,城市广场,北滨一路367号附55号东南方向60米,重庆市,重庆市,江北区,106.52587196892169,29.557625248245376
爱心动物园,风景名胜,公园广场,动物园,玉峰山镇玉峰山生态园,重庆市,重庆市,江北区,106.69218853731131,29.630023036416304
大水井体育文化公园,风景名胜,公园广场,城市广场,李家坪公交站旁,重庆市,重庆市,江北区,106.51757560891441,29.56448211682194
三板溪公园,风景名胜,公园广场,公园广场,101省道东100米,重庆市,重庆市,江北区,106.79797040847653,29.6633418582307
两江高铁广场,风景名胜,公园广场,城市广场,安福路,重庆市,重庆市,江北区,106.79882983502317,29.656415918235428
奇妙的进化之旅,风景名胜,公园广场,动物园,福康路25号龙湖源著天街B1,重庆市,重庆市,江北区,106.48523895806186,29.60209219497352
栋梁河生态公园,风景名胜,公园广场,公园,港城东路5号,重庆市,重庆市,江北区,106.66102862087972,29.62768862729837
云岭广场,风景名胜,公园广场,城市广场,铁山坪森林公园,重庆市,重庆市,江北区,106.67909942931318,29.602330553137595
盘溪河滨河公园,风景名胜,公园广场,公园,玉祥小区2号附4号附近,重庆市,重庆市,江北区,106.48442496840904,29.578962209594394
金观音广场,风景名胜,公园广场,城市广场,观音桥建新西路2号嘉陵公园南侧,重庆市,重庆市,江北区,106.52697682001947,29.573495580891727
建北社区健身广场,风景名胜,公园广场,城市广场,建北六支路90附近,重庆市,重庆市,江北区,106.5241942440348,29.581672449362074
望江车站广场,风景名胜,公园广场,城市广场,望江路与郭兴路交叉路口往东南约50米,重庆市,重庆市,江北区,106.67725612170133,29.57651834228598
重庆铁山坪森林公园-杜鹃园,风景名胜,公园广场,公园,,重庆市,重庆市,江北区,106.6745035538109,29.59742375475898
鸿图广场,风景名胜,公园广场,城市广场,鸿恩寺森林公园旁陶然大观园,重庆市,重庆市,江北区,106.50781420789322,29.577621417745394
重庆市江北嘴中央商务区中央公园,风景名胜,公园广场,公园,黄花园大桥北桥头江北嘴中央商务区,重庆市,重庆市,江北区,106.57233471973716,29.575089930126772
歌乐山国家森林公园,风景名胜,风景名胜,国家级景点,歌乐山街道,重庆市,重庆市,沙坪坝区,106.4242701498421,29.57037023739826
凤凰花海,风景名胜,风景名胜,风景名胜,周家院子,重庆市,重庆市,沙坪坝区,106.34860604444228,29.716613451920207
虎峰山景区,风景名胜,风景名胜,风景名胜,曾家镇虎峰山村,重庆市,重庆市,沙坪坝区,106.26369884746319,29.53898503678711
古书山道观,风景名胜,风景名胜,风景名胜,凤凰镇,重庆市,重庆市,沙坪坝区,106.33703756612675,29.677012864536344
普光寺,风景名胜,风景名胜,寺庙道观,中梁镇寨子坡,重庆市,重庆市,沙坪坝区,106.42170884146907,29.619899817219288
磁器口,风景名胜,风景名胜,国家级景点,磁童路,重庆市,重庆市,沙坪坝区,106.44568119597179,29.58375607051349
念佛堂,风景名胜,风景名胜,寺庙道观,保育路与森林路交叉口南150米,重庆市,重庆市,沙坪坝区,106.41754958625371,29.57598153162337
牵牛洞园林度假山庄,风景名胜,风景名胜,风景名胜,102乡道牵牛洞社88号,重庆市,重庆市,沙坪坝区,106.40385427419228,29.587397178028546
三圣宫张治中旧居,风景名胜,风景名胜,纪念馆,土主镇三圣宫村,重庆市,重庆市,沙坪坝区,106.36884565945836,29.610355265107753
五云山寨,风景名胜,风景名胜,风景名胜,回龙坝镇五云大队(近新桥),重庆市,重庆市,沙坪坝区,106.36846451181407,29.720237058121256
林园,风景名胜,风景名胜,风景名胜,沙坪坝三峡联合职业大学,重庆市,重庆市,沙坪坝区,106.4114810550553,29.539721206590198
伟人怀念馆,风景名胜,风景名胜,纪念馆,童家桥正街2-50号,重庆市,重庆市,沙坪坝区,106.43064410105984,29.58724784775149
花田筑梦,风景名胜,风景名胜,风景名胜,后槽路北50米,重庆市,重庆市,沙坪坝区,106.40973116408964,29.72460787953148
文革墓群,风景名胜,风景名胜,风景名胜,天陈路52号沙坪公园内,重庆市,重庆市,沙坪坝区,106.44871707339748,29.55275315323202
龙泉洞,风景名胜,风景名胜,风景名胜,下土湾路,重庆市,重庆市,沙坪坝区,106.48336242839524,29.553049170794058
重庆大学B区林钟祺雕像,风景名胜,风景名胜,风景名胜,,重庆市,重庆市,沙坪坝区,106.45719956893565,29.56956840302646
基督教堂,风景名胜,风景名胜,教堂,歌乐山街106附1,重庆市,重庆市,沙坪坝区,106.41508548044538,29.572057882657823
中美合作所集中营旧址,风景名胜,风景名胜,风景名胜,壮志路西150米,重庆市,重庆市,沙坪坝区,106.42828868964702,29.580762722224165
莲花湖风景区,风景名胜,风景名胜,风景名胜,曾家镇,重庆市,重庆市,沙坪坝区,106.27812311467149,29.54066922024539
重庆歌乐山烈士陵园烈士诗文碑林,风景名胜,风景名胜,风景名胜,壮志路与童歌路交接处西北方向80米,重庆市,重庆市,沙坪坝区,106.4345510526902,29.57561561527536
罗世文车耀先烈士纪念室,风景名胜,风景名胜,纪念馆,歌乐山街道歌乐山国家森林公园,重庆市,重庆市,沙坪坝区,106.42828868964702,29.580762722224165
辛亥义军过境遗址,风景名胜,风景名胜,世界遗产,上土塆路,重庆市,重庆市,沙坪坝区,106.46994474228781,29.552042430388376
烈士群雕铭,风景名胜,风景名胜,风景名胜,壮志路歌乐山烈士陵园景区内,重庆市,重庆市,沙坪坝区,106.4364309149776,29.574094199148426
重庆大学何鲁雕像,风景名胜,风景名胜,风景名胜,沙坪坝正街174号重庆大学,重庆市,重庆市,沙坪坝区,106.46121217931213,29.569549274605723
小桑田,风景名胜,风景名胜,风景名胜,西永镇劳动村黄家河沟,重庆市,重庆市,沙坪坝区,106.38725224334458,29.57410357477473
飞雪寺,风景名胜,风景名胜,寺庙道观,土主镇,重庆市,重庆市,沙坪坝区,106.35727383992827,29.646105821147763
重庆郭沫若旧居,风景名胜,风景名胜,风景名胜,西永镇香蕉园村全家院子,重庆市,重庆市,沙坪坝区,106.38111996756975,29.599507975282066
重庆冯玉祥旧居,风景名胜,风景名胜,纪念馆,陈家桥镇白鹤村,重庆市,重庆市,沙坪坝区,106.3304280730086,29.6064546429972
观音寺,风景名胜,风景名胜,寺庙道观,,重庆市,重庆市,沙坪坝区,106.4232388623524,29.640732785299136
国立音乐学院旧址纪念亭,风景名胜,风景名胜,风景名胜,新青路,重庆市,重庆市,沙坪坝区,106.27923699008791,29.681035241522356
山洞森林公园,风景名胜,风景名胜,风景名胜,,重庆市,重庆市,沙坪坝区,106.42031864633495,29.508073900261913
重庆歌乐山烈士陵园烈士雕塑区,风景名胜,风景名胜,风景名胜,凌云路歌乐山烈士陵园附近,重庆市,重庆市,沙坪坝区,106.43299681570666,29.576744806406083
黄葛树下龙门阵,风景名胜,风景名胜,风景名胜,三峡广场步行街与小龙坎新街交叉口南50米,重庆市,重庆市,沙坪坝区,106.45902638623674,29.56128274764071
龙泉洞道观,风景名胜,风景名胜,风景名胜,星丰大道平顶山文化公园内,重庆市,重庆市,沙坪坝区,106.4839661597461,29.553542763333247
静修林,风景名胜,风景名胜,风景名胜,,重庆市,重庆市,沙坪坝区,106.41945708044942,29.52336775603392
普照寺,风景名胜,风景名胜,寺庙道观,中土路东200米,重庆市,重庆市,沙坪坝区,106.39106175906268,29.645948726191808
重庆大学周恩来雕像,风景名胜,风景名胜,风景名胜,沙坪坝正街174号重庆大学附近,重庆市,重庆市,沙坪坝区,106.4669278228668,29.567237867376416
重庆大学傅鹰雕像,风景名胜,风景名胜,风景名胜,沙坪坝正街174号重庆大学,重庆市,重庆市,沙坪坝区,106.46190386278012,29.56992289085374
杨虎城将军纪念室,风景名胜,风景名胜,纪念馆,凌云路附近,重庆市,重庆市,沙坪坝区,106.42736969476948,29.58027667797514
重庆歌乐山革命纪念馆,风景名胜,风景名胜,纪念馆,烈士墓政法三村63号,重庆市,重庆市,沙坪坝区,106.43806141038709,29.5746557832806
寨山坪森林公园,风景名胜,公园广场,公园,永盛路与西园一路交叉口旁,重庆市,重庆市,沙坪坝区,106.35680074135962,29.59822906193601
圣恩堂,风景名胜,风景名胜,教堂,天星桥正街42-15号附近,重庆市,重庆市,沙坪坝区,106.44933963681984,29.54795725892611
冰心雕像,风景名胜,风景名胜,风景名胜,渝碚路58-16号附近,重庆市,重庆市,沙坪坝区,106.45720927394721,29.558381375076163
重庆大学潘菽雕像,风景名胜,风景名胜,风景名胜,沙坪坝正街174号重庆大学,重庆市,重庆市,沙坪坝区,106.4631901132595,29.569256400885557
天主堂,风景名胜,风景名胜,教堂,天星桥晒光坪75号,重庆市,重庆市,沙坪坝区,106.44837840234631,29.552529516159872
红岩文化景区,风景名胜,风景名胜,风景名胜,凌云路北100米,重庆市,重庆市,沙坪坝区,106.43111370844531,29.5869946069109
向家祠堂,风景名胜,风景名胜,风景名胜,曾家镇农安村,重庆市,重庆市,沙坪坝区,106.27063555551338,29.57859733207002
香炉山佛寺,风景名胜,风景名胜,风景名胜,,重庆市,重庆市,沙坪坝区,106.35259613212313,29.572357055009682
香云山桂佛寺,风景名胜,风景名胜,寺庙道观,,重庆市,重庆市,沙坪坝区,106.35279745363074,29.576387361386733
玉皇观,风景名胜,风景名胜,风景名胜,龙井湾路西150米,重庆市,重庆市,沙坪坝区,106.40088515485424,29.54827227247348
山洞森林公园,风景名胜,风景名胜,风景名胜,,重庆市,重庆市,沙坪坝区,106.42031864633495,29.508073900261913
歌乐山国家森林公园-雷鸣远神父墓,风景名胜,风景名胜,风景名胜,凌云路,重庆市,重庆市,沙坪坝区,106.42120807207803,29.57722456004177
磁器口-文殊殿,风景名胜,风景名胜,寺庙道观,古镇横街16号宝轮寺内,重庆市,重庆市,沙坪坝区,106.44777824967382,29.584384183447884
磁器口-更夫,风景名胜,风景名胜,风景名胜,磁南街1号磁器口景区内,重庆市,重庆市,沙坪坝区,106.44885139688989,29.5846053809424
磁器口-清代翰林蔗居,风景名胜,风景名胜,风景名胜,黄桷坪一巷13号旁,重庆市,重庆市,沙坪坝区,106.44751588894005,29.581760499121213
重庆歌乐山烈士陵园烈士雕塑区,风景名胜,风景名胜,风景名胜,凌云路歌乐山烈士陵园附近,重庆市,重庆市,沙坪坝区,106.43299681570666,29.576744806406083
黄葛树下龙门阵,风景名胜,风景名胜,风景名胜,三峡广场步行街与小龙坎新街交叉口南50米,重庆市,重庆市,沙坪坝区,106.45902638623674,29.56128274764071
磁器口-桥头观音,风景名胜,风景名胜,风景名胜,磁南街1号磁器口,重庆市,重庆市,沙坪坝区,106.44848072454528,29.583315016159567
龙泉洞道观,风景名胜,风景名胜,风景名胜,星丰大道平顶山文化公园内,重庆市,重庆市,沙坪坝区,106.4839661597461,29.553542763333247
静修林,风景名胜,风景名胜,风景名胜,,重庆市,重庆市,沙坪坝区,106.41945708044942,29.52336775603392
普照寺,风景名胜,风景名胜,寺庙道观,中土路东200米,重庆市,重庆市,沙坪坝区,106.39106175906268,29.645948726191808
中国历史文化名街雕塑,风景名胜,风景名胜,风景名胜,磁南街1号磁器口,重庆市,重庆市,沙坪坝区,106.44848884342396,29.581641586017923
磁器口-龙山义学旧址,风景名胜,风景名胜,风景名胜,磁器口宝轮寺26号,重庆市,重庆市,沙坪坝区,106.44706988526355,29.58377490708102
磁器口-名人墙,风景名胜,风景名胜,风景名胜,磁器口大门钟家院子,重庆市,重庆市,沙坪坝区,106.4483214956304,29.581809176003933
重庆大学周恩来雕像,风景名胜,风景名胜,风景名胜,沙坪坝正街174号重庆大学附近,重庆市,重庆市,沙坪坝区,106.4669278228668,29.567237867376416
重庆大学傅鹰雕像,风景名胜,风景名胜,风景名胜,沙坪坝正街174号重庆大学,重庆市,重庆市,沙坪坝区,106.46190386278012,29.56992289085374
杨虎城将军纪念室,风景名胜,风景名胜,纪念馆,凌云路附近,重庆市,重庆市,沙坪坝区,106.42736969476948,29.58027667797514
磁器口-深水井中华百家姓,风景名胜,风景名胜,风景名胜,磁南街1号磁器口,重庆市,重庆市,沙坪坝区,106.44727436642921,29.582492753844615
重庆歌乐山革命纪念馆,风景名胜,风景名胜,纪念馆,烈士墓政法三村63号,重庆市,重庆市,沙坪坝区,106.43806141038709,29.5746557832806
寨山坪森林公园,风景名胜,公园广场,公园,永盛路与西园一路交叉口旁,重庆市,重庆市,沙坪坝区,106.35680074135962,29.59822906193601
圣恩堂,风景名胜,风景名胜,教堂,天星桥正街42-15号附近,重庆市,重庆市,沙坪坝区,106.44933963681984,29.54795725892611
冰心雕像,风景名胜,风景名胜,风景名胜,渝碚路58-16号附近,重庆市,重庆市,沙坪坝区,106.45720927394721,29.558381375076163
重庆大学潘菽雕像,风景名胜,风景名胜,风景名胜,沙坪坝正街174号重庆大学,重庆市,重庆市,沙坪坝区,106.4631901132595,29.569256400885557
天主堂,风景名胜,风景名胜,教堂,天星桥晒光坪75号,重庆市,重庆市,沙坪坝区,106.44837840234631,29.552529516159872
红岩文化景区,风景名胜,风景名胜,风景名胜,凌云路北100米,重庆市,重庆市,沙坪坝区,106.43111370844531,29.5869946069109
磁器口-西门牌坊,风景名胜,风景名胜,风景名胜,磁童路与二一二国道交接处东侧,重庆市,重庆市,沙坪坝区,106.44378785982533,29.5803834222668
向家祠堂,风景名胜,风景名胜,风景名胜,曾家镇农安村,重庆市,重庆市,沙坪坝区,106.27063555551338,29.57859733207002
香炉山佛寺,风景名胜,风景名胜,风景名胜,,重庆市,重庆市,沙坪坝区,106.35259613212313,29.572357055009682
香云山桂佛寺,风景名胜,风景名胜,寺庙道观,,重庆市,重庆市,沙坪坝区,106.35279745363074,29.576387361386733
玉皇观,风景名胜,风景名胜,风景名胜,龙井湾路西150米,重庆市,重庆市,沙坪坝区,106.40088515485424,29.54827227247348
寅初亭,风景名胜,风景名胜,风景名胜,沙坪坝正街174号重庆大学A区,重庆市,重庆市,沙坪坝区,106.46348785261803,29.569427106950204
重庆大学丁道衡雕像,风景名胜,风景名胜,风景名胜,沙坪坝正街174号重庆大学,重庆市,重庆市,沙坪坝区,106.46159309491331,29.569915107735053
玄龙寺,风景名胜,风景名胜,风景名胜,歌乐山街道上天池度假村,重庆市,重庆市,沙坪坝区,106.4006224055271,29.57762484656041
观音庙,风景名胜,风景名胜,寺庙道观,,重庆市,重庆市,沙坪坝区,106.32058191100633,29.666008647046752
李家祠堂,风景名胜,风景名胜,风景名胜,,重庆市,重庆市,沙坪坝区,106.26003896845917,29.56046126747931
白云寺,风景名胜,风景名胜,寺庙道观,,重庆市,重庆市,沙坪坝区,106.3888544610916,29.54848099936957
普照寺,风景名胜,风景名胜,寺庙道观,,重庆市,重庆市,沙坪坝区,106.42170884146907,29.619899817219288
歌乐山社区公园,风景名胜,风景名胜,风景名胜,森香路51附近,重庆市,重庆市,沙坪坝区,106.41614391065853,29.57386208523075
归国华侨烈士纪念碑,风景名胜,风景名胜,风景名胜,壮志路歌乐山烈士陵园景区内,重庆市,重庆市,沙坪坝区,106.43648499698546,29.574094289467855
井口涌泉广场,风景名胜,公园广场,城市广场,,重庆市,重庆市,沙坪坝区,106.440495408239,29.639685580347933
蒙恩堂,风景名胜,风景名胜,教堂,歌乐山正街106附1号附近,重庆市,重庆市,沙坪坝区,106.41537762722129,29.57201012018602
卢作孚,风景名胜,风景名胜,风景名胜,,重庆市,重庆市,沙坪坝区,106.46512021730383,29.565964548067587
刘牧虎旧居,风景名胜,风景名胜,纪念馆,G85渝昆高速附近,重庆市,重庆市,沙坪坝区,106.41843246174949,29.522127311354698
重庆大学艾芜雕像,风景名胜,风景名胜,风景名胜,沙坪坝正街174号重庆大学,重庆市,重庆市,沙坪坝区,106.46585404379758,29.567023102653227
重庆大学潘序伦雕像,风景名胜,风景名胜,风景名胜,沙坪坝正街174号重庆大学,重庆市,重庆市,沙坪坝区,106.46311389473028,29.56970005176936
重庆大学毛鹤年雕像,风景名胜,风景名胜,风景名胜,沙坪坝正街174号重庆大学A区,重庆市,重庆市,沙坪坝区,106.4658038711692,29.567728724504104
重庆大学冯简雕像,风景名胜,风景名胜,风景名胜,沙坪坝正街174号重庆大学,重庆市,重庆市,沙坪坝区,106.46573868625705,29.56799945879656
郭沫若雕像,风景名胜,风景名胜,风景名胜,渝碚路11号附近,重庆市,重庆市,沙坪坝区,106.45729543069463,29.559106321507926
重庆大学B区毛泽东雕像,风景名胜,风景名胜,风景名胜,沙坪坝北街附近,重庆市,重庆市,沙坪坝区,106.45668827673788,29.57128358750205
重庆大学郑思群雕像,风景名胜,风景名胜,风景名胜,沙坪坝正街174号重庆大学A区,重庆市,重庆市,沙坪坝区,106.46600447884568,29.566271761609574
重庆大学马寅初雕像,风景名胜,风景名胜,风景名胜,沙坪坝正街174号重庆大学,重庆市,重庆市,沙坪坝区,106.46379164603692,29.56900203732654
重庆大学吴宓雕像,风景名胜,风景名胜,风景名胜,沙坪坝正街174号重庆大学,重庆市,重庆市,沙坪坝区,106.46581392438237,29.56728090708414
牵牛洞山寨,风景名胜,风景名胜,风景名胜,牵牛洞88号,重庆市,重庆市,沙坪坝区,106.40407224978006,29.58752119227493
重庆大学周志宏雕像,风景名胜,风景名胜,风景名胜,沙坪坝正街174号重庆大学,重庆市,重庆市,沙坪坝区,106.46229485594081,29.56955401074119
鸿恩宫,风景名胜,风景名胜,寺庙道观,新发村19号,重庆市,重庆市,沙坪坝区,106.41407076337211,29.737662393715016
老门柱广场,风景名胜,风景名胜,风景名胜,大学城中路与慕贤路交叉口西南200米,重庆市,重庆市,沙坪坝区,106.30177097678317,29.59683709623818
东原晴天故事天梯,风景名胜,风景名胜,风景名胜,G212(平安大道),重庆市,重庆市,沙坪坝区,106.43827050631793,29.61105358549056
重庆市坐标原点,风景名胜,风景名胜,风景名胜,歌乐山森林公园内,重庆市,重庆市,沙坪坝区,106.42168084473336,29.570851219444332
白公馆旧址,风景名胜,风景名胜,风景名胜,歌乐山国家森林公园,重庆市,重庆市,沙坪坝区,106.42805553393522,29.57900699819964
烈士墓,风景名胜,风景名胜,风景名胜,壮志路33号,重庆市,重庆市,沙坪坝区,106.43611746111321,29.573786782529304
磁器口-深水井长江石博馆,风景名胜,风景名胜,风景名胜,磁正街110号,重庆市,重庆市,沙坪坝区,106.44726735259314,29.582492739268776
重庆大学黄汲清雕像,风景名胜,风景名胜,风景名胜,沙坪坝正街174号重庆大学,重庆市,重庆市,沙坪坝区,106.46223769452682,29.569869756197527
重庆大学陈豹隐雕像,风景名胜,风景名胜,风景名胜,沙坪坝正街174号重庆大学附近,重庆市,重庆市,沙坪坝区,106.46708325824541,29.566764446009383
磁器口-汪逆跪像,风景名胜,风景名胜,风景名胜,磁南街1号磁器口,重庆市,重庆市,沙坪坝区,106.44810602788982,29.582376533347922
磁器口-文昌宫寨门,风景名胜,风景名胜,风景名胜,磁南街1号磁器口,重庆市,重庆市,沙坪坝区,106.4476568850363,29.586393272903223
磁器口抗战阵亡将士纪念碑,风景名胜,风景名胜,风景名胜,磁器口古镇磁南街,重庆市,重庆市,沙坪坝区,106.44801183747136,29.582404325762436
光弦琴,风景名胜,风景名胜,风景名胜,渝碚路32附44号附近,重庆市,重庆市,沙坪坝区,106.45796296599096,29.55959675677599
重庆大学陈志潜雕像,风景名胜,风景名胜,风景名胜,松林路附近,重庆市,重庆市,沙坪坝区,106.46712750479095,29.564613318563516
重庆大学吕子方雕像,风景名胜,风景名胜,风景名胜,松林路附近,重庆市,重庆市,沙坪坝区,106.46446929294432,29.570225369076272
徐悲鸿雕像,风景名胜,风景名胜,风景名胜,小龙坎新街36附4号附近,重庆市,重庆市,沙坪坝区,106.45710203429014,29.558215177558836
巴金雕像,风景名胜,风景名胜,风景名胜,天陈路15号正东方向140米,重庆市,重庆市,沙坪坝区,106.45725435504109,29.558775341676352
重庆大学沈懋德雕像,风景名胜,风景名胜,风景名胜,松林路附近,重庆市,重庆市,沙坪坝区,106.46446428040936,29.57022135743727
传鉴亭,风景名胜,风景名胜,风景名胜,,重庆市,重庆市,沙坪坝区,106.45677891052861,29.56433622327486
渣滓洞隧道,风景名胜,风景名胜,风景名胜,,重庆市,重庆市,沙坪坝区,106.4307651748363,29.588511612401266
基督教,风景名胜,风景名胜,教堂,,重庆市,重庆市,沙坪坝区,106.30264539234038,29.673597042029833
清风亭,风景名胜,风景名胜,风景名胜,歌乐山,重庆市,重庆市,沙坪坝区,106.42456428977002,29.572632802391603
福果山生命纪念园,风景名胜,风景名胜,纪念馆,,重庆市,重庆市,沙坪坝区,106.43960810480911,29.60418401067925
谢正荣故居,风景名胜,风景名胜,风景名胜,,重庆市,重庆市,沙坪坝区,106.28677497783247,29.545712272017166
青木关果老寨遗址,风景名胜,风景名胜,风景名胜,,重庆市,重庆市,沙坪坝区,106.29568236506502,29.661424517469182
香樟广场,风景名胜,风景名胜,风景名胜,,重庆市,重庆市,沙坪坝区,106.42022008618551,29.51598750075348
爱国主义文化主题巷,风景名胜,风景名胜,风景名胜,桥东路,重庆市,重庆市,沙坪坝区,106.33995372214389,29.625041449327615
童善桥村人工湿地,风景名胜,风景名胜,风景名胜,,重庆市,重庆市,沙坪坝区,106.38822224823588,29.54420186859137
南开中学桃李湖,风景名胜,风景名胜,风景名胜,沙南街1号南开中学内,重庆市,重庆市,沙坪坝区,106.45368498480629,29.56300344979505
山洞抗战遗址群(周均时公馆),风景名胜,风景名胜,风景名胜,G319(厦成线),重庆市,重庆市,沙坪坝区,106.42031941764427,29.511801335696607
桃园石林,风景名胜,风景名胜,风景名胜,,重庆市,重庆市,沙坪坝区,106.40188253916432,29.587313809040293
四川外国语大学雕像,风景名胜,风景名胜,风景名胜,外国语大学图书馆,重庆市,重庆市,沙坪坝区,106.43058983019671,29.57430207213115
山洞抗战遗址群(范绍增公馆),风景名胜,风景名胜,风景名胜,山洞街道平正村75号,重庆市,重庆市,沙坪坝区,106.41736205731529,29.517813131227605
歌乐山生命纪念园,风景名胜,风景名胜,纪念馆,G319(厦成线),重庆市,重庆市,沙坪坝区,106.41469262762038,29.550431297247567
林森墓,风景名胜,风景名胜,风景名胜,,重庆市,重庆市,沙坪坝区,106.41499765251059,29.536140932185337
傅抱石旧居,风景名胜,风景名胜,纪念馆,西科大道24号,重庆市,重庆市,沙坪坝区,106.3888599103918,29.605940644594785
重庆炮校遗址,风景名胜,风景名胜,风景名胜,大学城北路,重庆市,重庆市,沙坪坝区,106.32121954833212,29.612897366179062
国立中央工校校址纪念碑亭,风景名胜,风景名胜,风景名胜,沙滨路,重庆市,重庆市,沙坪坝区,106.47144901512827,29.56512684393028
西永乡韵公园,风景名胜,风景名胜,风景名胜,西城大道与西永金街交叉口西北100米,重庆市,重庆市,沙坪坝区,106.3672492992781,29.59482190408422
山顶公园,风景名胜,风景名胜,风景名胜,梨高路东100米,重庆市,重庆市,沙坪坝区,106.44539573627952,29.549743384052476
虎峰山生态旅游区五彩湖,风景名胜,风景名胜,风景名胜,曾家镇虎峰山村,重庆市,重庆市,沙坪坝区,106.24898655023432,29.546224092371848
范绍增公馆,风景名胜,风景名胜,风景名胜,沙坪坝(山洞派出所后面),重庆市,重庆市,沙坪坝区,106.420073972484,29.516082318956784
虎峰山生态旅游区桃花广场,风景名胜,风景名胜,风景名胜,沙坪坝曾家镇虎峰山村,重庆市,重庆市,沙坪坝区,106.26592617031174,29.544729280951326
艾萨克·牛顿雕像,风景名胜,风景名胜,风景名胜,大学城中路37号重庆师范大学大学城校区,重庆市,重庆市,沙坪坝区,106.29902293084841,29.61574506570879
一一·二七盟员烈士纪念碑,风景名胜,风景名胜,风景名胜,壮志路歌乐山烈士陵园景区内,重庆市,重庆市,沙坪坝区,106.43653006585626,29.574087367207063
字道祠堂,风景名胜,风景名胜,风景名胜,王府井百货8楼字道祠堂,重庆市,重庆市,沙坪坝区,106.46013314202956,29.559769021444442
沙坪公园,风景名胜,公园广场,公园,天陈路52号,重庆市,重庆市,沙坪坝区,106.45116907841918,29.554099983437997
太寺垭森林公园,风景名胜,公园广场,公园,中梁镇后槽路,重庆市,重庆市,沙坪坝区,106.41483903135008,29.73896674595538
平顶山文化公园,风景名胜,公园广场,公园,显丰大道,重庆市,重庆市,沙坪坝区,106.47023967226174,29.549787067015497
海石公园,风景名胜,公园广场,公园,中梁镇庆丰山村,重庆市,重庆市,沙坪坝区,106.40751451885916,29.69710989821419
西城的湖湿地公园,风景名胜,公园广场,公园,大学城东路西50米,重庆市,重庆市,沙坪坝区,106.31288712846512,29.5941598841588
歌乐山文化广场,风景名胜,公园广场,城市广场,歌乐山街道桂花湾,重庆市,重庆市,沙坪坝区,106.41464543600418,29.569398473308297
凤天生态公园,风景名胜,公园广场,公园,天骄年华正东方向170米,重庆市,重庆市,沙坪坝区,106.45554086691726,29.534839225476038
重庆西站站前广场,风景名胜,公园广场,城市广场,重庆西站1层,重庆市,重庆市,沙坪坝区,106.43465968282274,29.502734750840272
覃家岗街道社区体育公园,风景名胜,公园广场,公园,凤天大道120号附36号,重庆市,重庆市,沙坪坝区,106.44788552473304,29.534364349402903
团结公园,风景名胜,公园广场,公园,惠民小区南,重庆市,重庆市,沙坪坝区,106.37113657966029,29.632911315650123
大学城中央公园,风景名胜,公园广场,公园,大学城北路与大学城中路交叉口西南角,重庆市,重庆市,沙坪坝区,106.30179134020274,29.60668203831383
凤凰山文化公园,风景名胜,公园广场,公园,金沙正街80号,重庆市,重庆市,沙坪坝区,106.45098201769213,29.581323086434022
寨山坪森林公园,风景名胜,公园广场,公园,永盛路与西园一路交叉口旁,重庆市,重庆市,沙坪坝区,106.35680074135962,29.59822906193601
平顶山公园,风景名胜,公园广场,公园,石小路,重庆市,重庆市,沙坪坝区,106.4662660393083,29.551754665209373
绣美公园,风景名胜,公园广场,公园,国盛·园墅,重庆市,重庆市,沙坪坝区,106.34307237455687,29.624574965273325
月亮广场,风景名胜,公园广场,城市广场,壮志路33号附近,重庆市,重庆市,沙坪坝区,106.4352632735312,29.57251381679423
虎溪河公园,风景名胜,公园广场,公园,西尊路,重庆市,重庆市,沙坪坝区,106.35140554908037,29.623908923293953
大学城滑板公园,风景名胜,公园广场,公园,大学城中路与大学城南路交叉口北150米,重庆市,重庆市,沙坪坝区,106.30275642371272,29.602365676961664
学府广场,风景名胜,公园广场,城市广场,碧祥路3号碧水云天小区6-7-2,重庆市,重庆市,沙坪坝区,106.32974705080342,29.618108510264705
C97文创公园,风景名胜,公园广场,公园,陈电路97号,重庆市,重庆市,沙坪坝区,106.33577969839826,29.610187427419955
沙滨耍坝公园,风景名胜,公园广场,公园,沙滨路11号肿瘤医院附近正北方向70米,重庆市,重庆市,沙坪坝区,106.47735673794766,29.560023240492104
美丽阳光社区公园,风景名胜,公园广场,公园,212国道东50米,重庆市,重庆市,沙坪坝区,106.44057444334727,29.64129430529466
联芳新公园,风景名胜,公园广场,公园,,重庆市,重庆市,沙坪坝区,106.46783538541327,29.547805302875027
惠民社区公园,风景名胜,公园广场,公园,G93(成渝环线高速),重庆市,重庆市,沙坪坝区,106.37165964843071,29.634795248955868
汇贤体育文化公园,风景名胜,公园广场,公园,学善路和汇贤路的交叉口附近,重庆市,重庆市,沙坪坝区,106.31219076876265,29.59483996851328
红岩魂广场,风景名胜,公园广场,城市广场,童家桥大水井,重庆市,重庆市,沙坪坝区,106.4406446627112,29.574577420611043
新升南苑社区公园,风景名胜,公园广场,公园,,重庆市,重庆市,沙坪坝区,106.43882638591253,29.627558842657052
焕章体育文化公园,风景名胜,公园广场,公园,学城大道,重庆市,重庆市,沙坪坝区,106.33514548275086,29.60627878235297
科学公园(建设中),风景名胜,公园广场,公园,西园一路,重庆市,重庆市,沙坪坝区,106.3581868646918,29.599491609906238
五云社区公园,风景名胜,公园广场,公园,,重庆市,重庆市,沙坪坝区,106.376430994161,29.71099346969194
双朝门孝善文化社区公园,风景名胜,公园广场,公园,石小路148号,重庆市,重庆市,沙坪坝区,106.46209222663403,29.538754741653953
山峡广场,风景名胜,公园广场,城市广场,沙坪坝街道,重庆市,重庆市,沙坪坝区,106.46004298259606,29.558801144765553
沙坪坝站-进站广场,风景名胜,公园广场,城市广场,北站东路200号沙坪坝站F1,重庆市,重庆市,沙坪坝区,106.4554422957387,29.556923704550947
法制文化广场,风景名胜,公园广场,城市广场,双碑西立交(会山康城小区西侧约10米),重庆市,重庆市,沙坪坝区,106.43763308514465,29.60148936530487
重庆拨山镇政府广场,风景名胜,公园广场,城市广场,歌乐山正街与龙洞湾街交叉路口往西北约50米,重庆市,重庆市,沙坪坝区,106.41442926697657,29.570535923360517
白鸽广场(装修中),风景名胜,公园广场,城市广场,融创乐园,重庆市,重庆市,沙坪坝区,106.35632166102971,29.631799013188427
下沉广场,风景名胜,公园广场,城市广场,融创乐园内,重庆市,重庆市,沙坪坝区,106.35792420150548,29.63514571561918
学善社区广场,风景名胜,公园广场,城市广场,大学城南一路175号东南方向40米,重庆市,重庆市,沙坪坝区,106.31052833184718,29.585331105061766
大学城康城社区广场,风景名胜,公园广场,城市广场,康城南路1号正西方向120米,重庆市,重庆市,沙坪坝区,106.30409892060604,29.576498654612706
艺术公园,风景名胜,公园广场,公园,G212(童家桥正街),重庆市,重庆市,沙坪坝区,106.44183163775529,29.592061869325427
石井坡文体中心健身广场,风景名胜,公园广场,城市广场,中心湾157号西北方向60米,重庆市,重庆市,沙坪坝区,106.43927870661489,29.601826141467843
香炉山街道杨家湾小广场,风景名胜,公园广场,城市广场,永德路,重庆市,重庆市,沙坪坝区,106.35119081199744,29.594605005253207
太阳广场,风景名胜,公园广场,城市广场,锦绣东路,重庆市,重庆市,沙坪坝区,106.43563169105224,29.57453772675377
猴子广场,风景名胜,公园广场,城市广场,渝碚路32附6号附近,重庆市,重庆市,沙坪坝区,106.4577674570978,29.560399996080896
井口涌泉广场,风景名胜,公园广场,城市广场,,重庆市,重庆市,沙坪坝区,106.440495408239,29.639685580347933
回龙坝村文化广场,风景名胜,公园广场,城市广场,团歇路东50米,重庆市,重庆市,沙坪坝区,106.38684238547766,29.72320507241916
凤凰广场,风景名胜,公园广场,城市广场,凤回路附近,重庆市,重庆市,沙坪坝区,106.31568168018056,29.68762122332527
松山广场,风景名胜,公园广场,城市广场,歌乐山街道烈士墓壮志路白公馆,重庆市,重庆市,沙坪坝区,106.4315318360161,29.577376397076588
嘉陵文化广场,风景名胜,公园广场,城市广场,双碑街道办事处对面,重庆市,重庆市,沙坪坝区,106.44612440897771,29.610456627089917
虎电滨河公园,风景名胜,公园广场,公园,沿河西路与陈电路交叉口东北50米,重庆市,重庆市,沙坪坝区,106.32988481341741,29.61639974042254
重庆熙街广场,风景名胜,公园广场,公园广场,兴亚熙街(熙街步行街),重庆市,重庆市,沙坪坝区,106.29753785728808,29.603980029940644
红槽房社区文化广场,风景名胜,公园广场,城市广场,红糟房正街99号正东方向20米,重庆市,重庆市,沙坪坝区,106.4439208992716,29.551092957328326
红岩魂上广场,风景名胜,公园广场,城市广场,,重庆市,重庆市,沙坪坝区,106.43896688037903,29.574423448789485
沙坪坝站西广场,风景名胜,公园广场,城市广场,沙坪坝站1F,重庆市,重庆市,沙坪坝区,106.45537914256673,29.557083498538535
泛洋广场,风景名胜,公园广场,城市广场,小龙坎石小路2号,重庆市,重庆市,沙坪坝区,106.46427373748203,29.554727360807913
曾家为民广场,风景名胜,公园广场,城市广场,曾福路6号附9号正东方向146米,重庆市,重庆市,沙坪坝区,106.29395610300048,29.558896752168348
青木关滴翠健身广场,风景名胜,公园广场,城市广场,青东路青木关镇政府对面,重庆市,重庆市,沙坪坝区,106.30769553600989,29.676812354028634
重庆市沙坪坝区和平山党建文化广场,风景名胜,公园广场,城市广场,和平山环线支路,重庆市,重庆市,沙坪坝区,106.43370482131313,29.592480744301792
沙坪坝站东广场,风景名胜,公园广场,公园广场,沙坪坝站1F,重庆市,重庆市,沙坪坝区,106.45678234723599,29.55730773968003
融创海世界,风景名胜,公园广场,水族馆,重庆市沙坪坝区西林大道,重庆市,重庆市,沙坪坝区,106.35383111345911,29.627597011996485
渝新欧零地标广场,风景名胜,公园广场,城市广场,远怀路,重庆市,重庆市,沙坪坝区,106.38185219915829,29.646930118697988
沙坪坝站站前广场(建设中),风景名胜,公园广场,城市广场,沙坪坝站1F,重庆市,重庆市,沙坪坝区,106.45613987295421,29.557185255457355
金科·廊桥水乡城市公园,风景名胜,公园广场,公园广场,大学城南一路与大学城西路交叉口北100米,重庆市,重庆市,沙坪坝区,106.28783252478219,29.587191256729977
文化广场,风景名胜,公园广场,城市广场,高滩岩正街35号西北方向70米,重庆市,重庆市,沙坪坝区,106.45228436695291,29.539351990977707
土主镇市民广场,风景名胜,公园广场,城市广场,和谐街与民心路交叉口北100米,重庆市,重庆市,沙坪坝区,106.36803556939951,29.633744600905406
绿壁公园,风景名胜,公园广场,公园,木兰路与石新路路口上行100米,重庆市,重庆市,沙坪坝区,106.44786919071335,29.522935848948194
锦绣广场,风景名胜,公园广场,城市广场,壮志路33号四川外国语大学,重庆市,重庆市,沙坪坝区,106.43051405914363,29.569048768244077
重庆市沙坪公园管理处,风景名胜,公园广场,公园,天陈路52号,重庆市,重庆市,沙坪坝区,106.45193069438551,29.554259619456392
勤居村公园,风景名胜,公园广场,公园,嘉勤路与嘉建路交叉口南100米,重庆市,重庆市,沙坪坝区,106.44384297390963,29.61276239119104
聚龙广场,风景名胜,公园广场,城市广场,回龙坝北街与龙飞路交叉口南150米,重庆市,重庆市,沙坪坝区,106.37835971617945,29.7066416209209
陈家桥镇体育广场,风景名胜,公园广场,城市广场,盛德路与陈电路交叉口北100米,重庆市,重庆市,沙坪坝区,106.3305640681926,29.61745314213304
芳草地转盘,风景名胜,公园广场,公园,经纬大道北50米,重庆市,重庆市,沙坪坝区,106.47694137560467,29.54658497649022
小龙坎广场,风景名胜,公园广场,公园,,重庆市,重庆市,沙坪坝区,106.46385561825346,29.555681931266736
思群广场,风景名胜,公园广场,城市广场,沙坪坝正街174号重庆大学A区,重庆市,重庆市,沙坪坝区,106.46510216812291,29.566011484432796
西南医院-心连心广场,风景名胜,公园广场,公园广场,仁爱路与健康路交叉口西北50米,重庆市,重庆市,沙坪坝区,106.44656861003887,29.539600590633995
西南医院-心连心广场,风景名胜,公园广场,公园广场,仁爱路与健康路交叉口西北50米,重庆市,重庆市,沙坪坝区,106.44656861003887,29.539600590633995
天星桥街道文体广场,风景名胜,公园广场,公园广场,覃家岗正街49号,重庆市,重庆市,沙坪坝区,106.44834081249947,29.544585391879874
灵湖广场,风景名胜,公园广场,公园广场,大学城东路20号附近,重庆市,重庆市,沙坪坝区,106.32062100263201,29.596851378823008
重庆上邦温泉旅游区,风景名胜,风景名胜,国家级景点,金凤镇上邦路3号,重庆市,重庆市,九龙坡区,106.28493339463935,29.494383720392644
巴国城,风景名胜,风景名胜,风景名胜,红狮大道6号,重庆市,重庆市,九龙坡区,106.46941721914204,29.50434594858345
华岩旅游风景区,风景名胜,风景名胜,风景名胜,华岩村151号,重庆市,重庆市,九龙坡区,106.44047744527262,29.491905441975565
九凤山景区,风景名胜,风景名胜,风景名胜,金梅路西50米,重庆市,重庆市,九龙坡区,106.27651361956222,29.523293853674204
中梁云岭森林公园,风景名胜,风景名胜,风景名胜,华岩镇玉清寺玉仙路,重庆市,重庆市,九龙坡区,106.4184131647003,29.477973377069873
天主堂,风景名胜,风景名胜,教堂,兴沱路,重庆市,重庆市,九龙坡区,106.36578847985712,29.322717529796428
九龙坡区基督教恩典堂,风景名胜,风景名胜,教堂,直港大道30号附20号3层,重庆市,重庆市,九龙坡区,106.52374327731663,29.510662890731076
何家祠堂,风景名胜,风景名胜,风景名胜,华庆路西200米,重庆市,重庆市,九龙坡区,106.43612401587235,29.46706521906838
三多桥白鹭园,风景名胜,风景名胜,风景名胜,白市驿镇,重庆市,重庆市,九龙坡区,106.32624343827503,29.507636402251347
白鹭大庄园,风景名胜,风景名胜,风景名胜,白市驿镇三多桥村,重庆市,重庆市,九龙坡区,106.32781751791647,29.507852294371588
刘伯承六店旧居,风景名胜,风景名胜,纪念馆,渝州路街道经纬大道1165号烟灯山公园及,重庆市,重庆市,九龙坡区,106.48034222198858,29.544107687392632
观音岩观景台,风景名胜,风景名胜,观景点,G93成渝环线高速东50米,重庆市,重庆市,九龙坡区,106.31838700110416,29.272530339459973
走马镇古迹遗址,风景名胜,风景名胜,风景名胜,慈云路与走马互通交叉口东南150米,重庆市,重庆市,九龙坡区,106.28337727922224,29.458524334096946
英雄纪念碑,风景名胜,风景名胜,纪念馆,元明街68号附近,重庆市,重庆市,九龙坡区,106.2896497024153,29.340476890498135
白市驿登山步道,风景名胜,风景名胜,风景名胜,白市驿高田坎村,重庆市,重庆市,九龙坡区,106.37408933607139,29.46677288786774
潜龙飞瀑,风景名胜,风景名胜,风景名胜,煤厂公路北50米,重庆市,重庆市,九龙坡区,106.26557615117567,29.50074831832263
重庆市走马古镇关武庙,风景名胜,风景名胜,风景名胜,走马镇白马路与走新路交叉口西南100米,重庆市,重庆市,九龙坡区,106.29575605312488,29.463321903121212
西池,风景名胜,风景名胜,风景名胜,陶家镇,重庆市,重庆市,九龙坡区,106.31717206565924,29.37151460572855
馨香谷,风景名胜,风景名胜,风景名胜,,重庆市,重庆市,九龙坡区,106.34184072907449,29.452779246158
鹅公岩大桥,风景名胜,风景名胜,风景名胜,南桥头,重庆市,重庆市,九龙坡区,106.52851762767281,29.523139355333576
华龙公园,风景名胜,风景名胜,风景名胜,龙门阵大道西100米,重庆市,重庆市,九龙坡区,106.4437974551915,29.47290934678181
重恩堂,风景名胜,风景名胜,教堂,兰美路142号,重庆市,重庆市,九龙坡区,106.45486889935732,29.525763234511512
重庆清真寺,风景名胜,风景名胜,回教寺,二郎创业大道299号,重庆市,重庆市,九龙坡区,106.44753101361682,29.514830454697822
革命烈士纪念碑,风景名胜,风景名胜,纪念馆,白市驿新店村,重庆市,重庆市,九龙坡区,106.38212219295568,29.496124848179853
重庆九龙坡区中梁山小桥基督教堂,风景名胜,风景名胜,教堂,福园路27号,重庆市,重庆市,九龙坡区,106.43318235166528,29.425378287047952
九龙坡天主堂,风景名胜,风景名胜,教堂,龙泉路86号附近,重庆市,重庆市,九龙坡区,106.48126064890045,29.497984093533848
基督教荣光堂,风景名胜,风景名胜,教堂,六店小区11栋19号,重庆市,重庆市,九龙坡区,106.48352314573981,29.54891916694544
风情小镇,风景名胜,风景名胜,风景名胜,陶家镇开发区,重庆市,重庆市,九龙坡区,106.34216136398818,29.36381598008769
中共海兰生态旅游区委员会,风景名胜,风景名胜,风景名胜,莲花街(金凤莲花新村),重庆市,重庆市,九龙坡区,106.28878851496249,29.506471108048082
中梁山耶稣堂,风景名胜,风景名胜,教堂,田西路东50米,重庆市,重庆市,九龙坡区,106.42516794533176,29.457631064077027
白鹭塘,风景名胜,风景名胜,风景名胜,白市驿白鹭自然保护区,重庆市,重庆市,九龙坡区,106.32494367245509,29.507539937067264
山王殿,风景名胜,风景名胜,风景名胜,长石街北100米,重庆市,重庆市,九龙坡区,106.33592355108736,29.342784132027294
练家祠堂,风景名胜,风景名胜,风景名胜,义田路南150米,重庆市,重庆市,九龙坡区,106.34457557255149,29.514785334911966
三教寺,风景名胜,风景名胜,风景名胜,,重庆市,重庆市,九龙坡区,106.31894638553374,29.443503054937704
大圣寺,风景名胜,风景名胜,风景名胜,千迎路西100米,重庆市,重庆市,九龙坡区,106.28402289952258,29.361295098977006
慈云寺,风景名胜,风景名胜,寺庙道观,,重庆市,重庆市,九龙坡区,106.26902679481938,29.473432833613852
重庆泓瀚生态园,风景名胜,风景名胜,风景名胜,花房子附近,重庆市,重庆市,九龙坡区,106.28598615141601,29.38194036889401
楼房湾社区公园,风景名胜,风景名胜,风景名胜,,重庆市,重庆市,九龙坡区,106.44267987459489,29.482078967650537
半边寺,风景名胜,风景名胜,风景名胜,曲石路东100米,重庆市,重庆市,九龙坡区,106.33686422034845,29.42641869121914
重庆佛学院-男众部,风景名胜,风景名胜,寺庙道观,华岩寺风景区,重庆市,重庆市,九龙坡区,106.44076168276176,29.495910201847476
九龙寺,风景名胜,风景名胜,寺庙道观,九渡口街北150米,重庆市,重庆市,九龙坡区,106.54349205061064,29.48411053935717
万寿寺,风景名胜,风景名胜,寺庙道观,古驿路,重庆市,重庆市,九龙坡区,106.35735787923416,29.46309352491824
毛主席挥手雕塑广场,风景名胜,风景名胜,风景名胜,共荣路,重庆市,重庆市,九龙坡区,106.43798616371778,29.47886987762649
成渝古驿道遗址,风景名胜,风景名胜,风景名胜,走马镇后面山上,重庆市,重庆市,九龙坡区,106.26712423348759,29.453254030350816
重庆市九龙坡区基督教圣一堂,风景名胜,风景名胜,教堂,华福大道北段16号13幢附9-4,重庆市,重庆市,九龙坡区,106.43621405009354,29.45237144879988
大溪河硌五洞,风景名胜,风景名胜,风景名胜,铜罐驿镇仓坝村,重庆市,重庆市,九龙坡区,106.35812457711089,29.34425151340434
芦振龙烈士纪念碑,风景名胜,风景名胜,风景名胜,科城路,重庆市,重庆市,九龙坡区,106.46402667802961,29.512459231625236
万安桥,风景名胜,风景名胜,风景名胜,花果山路,重庆市,重庆市,九龙坡区,106.2872503164422,29.28883065486236
九天飞瀑,风景名胜,风景名胜,风景名胜,天长路,重庆市,重庆市,九龙坡区,106.52296325893619,29.510410888440003
重庆工业文化长廊,风景名胜,风景名胜,风景名胜,,重庆市,重庆市,九龙坡区,106.43655498815349,29.478145772450873
龙居山观景台,风景名胜,风景名胜,观景点,,重庆市,重庆市,九龙坡区,106.38687501291365,29.502177447578976
飞流谷,风景名胜,风景名胜,风景名胜,,重庆市,重庆市,九龙坡区,106.26588479924374,29.501027970076525
云峰寺,风景名胜,风景名胜,寺庙道观,山田路九龙坡云峰山,重庆市,重庆市,九龙坡区,106.41431915892953,29.457787595443932
曲廊听风,风景名胜,风景名胜,风景名胜,五福大道花木世界挖机停车场路,重庆市,重庆市,九龙坡区,106.4522529267006,29.447016605150324
云顶栖霞观景台,风景名胜,风景名胜,观景点,五福大道花木世界赏樱步道,重庆市,重庆市,九龙坡区,106.45176188356366,29.446818603795656
孔二小姐后花园遗址,风景名胜,风景名胜,风景名胜,山田路西50米,重庆市,重庆市,九龙坡区,106.4106533787036,29.481959926531513
重庆市树盆景博览园,风景名胜,风景名胜,风景名胜,金凤镇海含路1号,重庆市,重庆市,九龙坡区,106.30817103820887,29.51688468982666
九龙滨江步道,风景名胜,风景名胜,风景名胜,菜九路,重庆市,重庆市,九龙坡区,106.52507419955123,29.519301879891202
孙家大院,风景名胜,风景名胜,风景名胜,走马镇孙家湾,重庆市,重庆市,九龙坡区,106.3203236034489,29.48310150849328
重庆育才中学陶行知纪念馆,风景名胜,风景名胜,纪念馆,重庆育才中学,重庆市,重庆市,九龙坡区,106.51041795161083,29.523357124675556
陈列室,风景名胜,风景名胜,风景名胜,3社支路,重庆市,重庆市,九龙坡区,106.37487812282919,29.516955926409636
冯玉祥旧居(抗倭楼),风景名胜,风景名胜,纪念馆,渝洲路83号,重庆市,重庆市,九龙坡区,106.49377390164626,29.54108161045558
白市驿县级自然保护区缓冲区,风景名胜,风景名胜,风景名胜,,重庆市,重庆市,九龙坡区,106.32719794549337,29.50966971482394
天山黑墓碑石,风景名胜,风景名胜,风景名胜,迎宾大道,重庆市,重庆市,九龙坡区,106.45611146194365,29.49722008651689
重庆抗战兵工旧址,风景名胜,风景名胜,风景名胜,谢家湾正街11号附13号东南方向60米,重庆市,重庆市,九龙坡区,106.51953236377001,29.52348708587949
九凤生态谷,风景名胜,风景名胜,风景名胜,金梅路西50米九凤山景区附近,重庆市,重庆市,九龙坡区,106.27646868306478,29.52336487435492
鲁迅雕像,风景名胜,风景名胜,风景名胜,杨九路,重庆市,重庆市,九龙坡区,106.53786214896843,29.4907470270852
巴国城生态公园-观景台,风景名胜,风景名胜,观景点,二郎火炬大道巴国城生态公园巴国城生态公园内,重庆市,重庆市,九龙坡区,106.46822114031256,29.502676434364293
公信堂,风景名胜,风景名胜,风景名胜,,重庆市,重庆市,九龙坡区,106.35934290011679,29.528900840233536
开光金佛祈福牌迎请处,风景名胜,风景名胜,风景名胜,华岩村5号附42号华岩寺内,重庆市,重庆市,九龙坡区,106.4423795587952,29.4948646855934
塔山,风景名胜,风景名胜,风景名胜,新世纪百货瑞成商都(兴胜路)重庆市九龙坡区杨家坪步行街26号斌鑫世纪城附2号F5,重庆市,重庆市,九龙坡区,106.51037335382726,29.51444064209726
重庆动物园,风景名胜,公园广场,动物园,西郊一村1号,重庆市,重庆市,九龙坡区,106.50197431516307,29.506800002322652
彩云湖国家湿地公园,风景名胜,公园广场,公园,科城路166号,重庆市,重庆市,九龙坡区,106.47483752681505,29.512593462780117
奥体体育公园,风景名胜,公园广场,公园广场,袁家岗奥体中心体育场内,重庆市,重庆市,九龙坡区,106.49759006185016,29.527724268243457
龙门阵广场,风景名胜,公园广场,城市广场,龙门阵大道199号附30号,重庆市,重庆市,九龙坡区,106.43707923368312,29.48724452790424
渝高公园,风景名胜,公园广场,公园,科园三街101号,重庆市,重庆市,九龙坡区,106.48447392579966,29.53225632818883
重庆奥体中心广场,风景名胜,公园广场,公园广场,渝州路街道长江二路,重庆市,重庆市,九龙坡区,106.50597272610612,29.529297674704907
九龙广场,风景名胜,公园广场,城市广场,西郊路2号附12号,重庆市,重庆市,九龙坡区,106.50717278245101,29.503126016266194
佳宇广场,风景名胜,公园广场,城市广场,直港大道206正北方向90米,重庆市,重庆市,九龙坡区,106.52677716063573,29.508482877759718
桂花园,风景名胜,公园广场,公园广场,金石路东50米,重庆市,重庆市,九龙坡区,106.28641184633602,29.491969763825995
同乐园,风景名胜,公园广场,公园,长江二桥引桥,重庆市,重庆市,九龙坡区,106.53239099231342,29.488283993478785
人和公园,风景名胜,公园广场,公园,华庆路与华龙大道家交叉口劲旅·丽景花园附近,重庆市,重庆市,九龙坡区,106.43873232321295,29.463073574779855
九龙外滩广场,风景名胜,公园广场,城市广场,谢家湾街道九滨路9号,重庆市,重庆市,九龙坡区,106.52340444450004,29.526755388462703
陶家健身广场,风景名胜,公园广场,城市广场,天盐路东150米,重庆市,重庆市,九龙坡区,106.34469852844067,29.36258921013295
重庆巴国城-九龙坡巴国城广场,风景名胜,公园广场,城市广场,高新九龙园区红狮大道6号,重庆市,重庆市,九龙坡区,106.47051526540197,29.502732629893135
华岩志愿服务主题公园,风景名胜,公园广场,公园,民华路民安华福西,重庆市,重庆市,九龙坡区,106.44053125974831,29.430978764321036
长新路消防文化游园,风景名胜,公园广场,公园,消防救援支队街对面,重庆市,重庆市,九龙坡区,106.48892415820126,29.546704979066277
奥韵游园,风景名胜,公园广场,公园,奥韵路与奥体三支路交叉路口向东北约10米,重庆市,重庆市,九龙坡区,106.49700324853933,29.52885205911164
长新路游园,风景名胜,公园广场,公园,长新路,重庆市,重庆市,九龙坡区,106.48882184842589,29.546820630930693
和坪公园,风景名胜,公园广场,公园,杨家坪,重庆市,重庆市,九龙坡区,106.51081675437379,29.512241849749923
双祥游园,风景名胜,公园广场,公园,,重庆市,重庆市,九龙坡区,106.48191161329815,29.529824772532475
九龙外滩,风景名胜,公园广场,城市广场,九滨路19附近,重庆市,重庆市,九龙坡区,106.52353678668484,29.526796729264483
福苑游园,风景名胜,公园广场,公园,华建路和龙门阵大道的交叉口附近,重庆市,重庆市,九龙坡区,106.44645743435889,29.473479407425497
体育文化公园,风景名胜,公园广场,公园,龙门阵大道,重庆市,重庆市,九龙坡区,106.44402114731199,29.484670392303155
草海湾公园,风景名胜,公园广场,公园,起西路,重庆市,重庆市,九龙坡区,106.43039674973193,29.42504434020832
文化休闲广场,风景名胜,公园广场,城市广场,九龙园区华龙大道16号重庆周君记火锅食品工业体验园内,重庆市,重庆市,九龙坡区,106.44765392934279,29.487452507978976
白市驿森林公园站,风景名胜,公园广场,公园,翔驿路,重庆市,重庆市,九龙坡区,106.36567676832888,29.468686414825157
西彭乡趣公园,风景名胜,公园广场,公园,长石街,重庆市,重庆市,九龙坡区,106.32982251633001,29.34263974567766
同心广场,风景名胜,公园广场,城市广场,渝东路与长青路交叉口东100米,重庆市,重庆市,九龙坡区,106.35774029401072,29.427266855248472
七彩园,风景名胜,公园广场,公园,,重庆市,重庆市,九龙坡区,106.43934071590247,29.45649982043502
吉祥公园,风景名胜,公园广场,公园,铝城正街150号正东方向150米,重庆市,重庆市,九龙坡区,106.32812600845241,29.304395318443618
真武宫农业公园,风景名胜,公园广场,公园,真武一路,重庆市,重庆市,九龙坡区,106.31558507374316,29.335942123955412
陡石塔广场,风景名胜,公园广场,城市广场,兴沱路与铜陶路交叉口北100米,重庆市,重庆市,九龙坡区,106.36744460588102,29.322939354670044
重庆市中梁云岭森林公园-尖刀山,风景名胜,公园广场,公园,,重庆市,重庆市,九龙坡区,106.41738349636466,29.478366294209398
烟灯山公园,风景名胜,公园广场,公园,高九路经纬大道1099号21栋15-3(半山七号),重庆市,重庆市,九龙坡区,106.48027299619777,29.54455031971583
燕南公园,风景名胜,公园广场,公园,兴堰路西50米,重庆市,重庆市,九龙坡区,106.49410151761722,29.496995616202092
石坪桥广场,风景名胜,公园广场,公园,石坪桥转盘,重庆市,重庆市,九龙坡区,106.4975383808637,29.519820298111874
黄沙溪社区游园,风景名胜,公园广场,公园,黄沙溪立交桥,重庆市,重庆市,九龙坡区,106.51569811937064,29.535949367532773
鹅公岩公园,风景名胜,公园广场,公园,嘉华大桥南延伸段和鹅公岩大桥九龙坡段的桥墩下,重庆市,重庆市,九龙坡区,106.51831910429783,29.52295991303128
金马村桃花源广场,风景名胜,公园广场,公园广场,金马湖路西50米,重庆市,重庆市,九龙坡区,106.32012755331176,29.475374423719686
花漾湖广场,风景名胜,公园广场,城市广场,经纬大道,重庆市,重庆市,九龙坡区,106.45803696348025,29.529677212812032
铝镇公园,风景名胜,公园广场,公园,铝城大街附近,重庆市,重庆市,九龙坡区,106.32447892410666,29.306410993955563
华岩寺-北大门外广场,风景名胜,公园广场,城市广场,华岩村5号附42号华岩寺内,重庆市,重庆市,九龙坡区,106.44227131249637,29.495759088221828
华岩寺-北大门内广场,风景名胜,公园广场,城市广场,华岩村5号附42号华岩寺内,重庆市,重庆市,九龙坡区,106.4421461363098,29.495027171661484
朝阳公园,风景名胜,公园广场,公园,朝阳路与科城路交叉口东北150米,重庆市,重庆市,九龙坡区,106.46564630901666,29.52089398280674
巴福人民广场,风景名胜,公园广场,城市广场,福兴路,重庆市,重庆市,九龙坡区,106.32709990910253,29.414870281217997
鱼丸宠物园,风景名胜,公园广场,动物园,金凤镇博士农业科技园临·白鹤村13组200号附115号,重庆市,重庆市,九龙坡区,106.29963467375215,29.514139821347396
华福老灶火锅,风景名胜,公园广场,公园,华凤大道339号附201号,重庆市,重庆市,九龙坡区,106.44003131163961,29.43273494856761
幸福公园,风景名胜,公园广场,公园,华福大道北段附近,重庆市,重庆市,九龙坡区,106.44345350548548,29.445431935370465
广厦城·玉龙公园,风景名胜,公园广场,公园,广厦城背后,重庆市,重庆市,九龙坡区,106.52923178908476,29.499240200825202
六店子社区公园,风景名胜,公园广场,公园,经纬大道1111号西北方向160米,重庆市,重庆市,九龙坡区,106.48724907243215,29.54896715264752
美茵运动公园,风景名胜,公园广场,公园,兰美路1200号,重庆市,重庆市,九龙坡区,106.45795268342516,29.53101548036922
西城公园,风景名胜,公园广场,公园,高新大道南50米,重庆市,重庆市,九龙坡区,106.33437480970842,29.516685153922662
民安公园,风景名胜,公园广场,公园,民华路与民安路交汇处,重庆市,重庆市,九龙坡区,106.43740427980393,29.42932608517505
石竹山公园,风景名胜,公园广场,公园,红狮西路,重庆市,重庆市,九龙坡区,106.4613465711251,29.502785479491276
福寿公园,风景名胜,公园广场,公园,S107(西和路),重庆市,重庆市,九龙坡区,106.33239376459268,29.4159176266161
重庆市奥林匹克体育中心五环广场,风景名胜,公园广场,城市广场,奥体路120号,重庆市,重庆市,九龙坡区,106.50739889895192,29.529011003846293
重庆市奥林匹克体育公园五环广场,风景名胜,公园广场,城市广场,长江二路与谢小路交叉路口往东北约100米,重庆市,重庆市,九龙坡区,106.50786424734518,29.529055357811824
御景小游园,风景名胜,公园广场,公园,经纬大道1095号西北方向80米,重庆市,重庆市,九龙坡区,106.4853465438007,29.54783793912592
同创小游园,风景名胜,公园广场,公园,经纬大道半山7号,重庆市,重庆市,九龙坡区,106.47856597420726,29.546777555430427
龙闲公园,风景名胜,公园广场,公园,九龙美食街102号附近,重庆市,重庆市,九龙坡区,106.51990202352195,29.495379942070368
兰花社区广场,风景名胜,公园广场,城市广场,兰美路与兰花创业服务街交叉口西南150米,重庆市,重庆市,九龙坡区,106.45291109738115,29.516914322620842
马鞍山生态公园,风景名胜,公园广场,公园,环湖公路与西沙路交叉口西150米,重庆市,重庆市,九龙坡区,106.34030560051033,29.300024350049416
石板滨河公园,风景名胜,公园广场,公园,长青路8号西南方向150米,重庆市,重庆市,九龙坡区,106.35621751090511,29.425217209454797
腾龙足球公园,风景名胜,公园广场,公园广场,二郎建材机电市场B馆顶楼,重庆市,重庆市,九龙坡区,106.44970769106769,29.51036494258817
高新消防主题公园,风景名胜,公园广场,公园广场,奥体五支路东200米,重庆市,重庆市,九龙坡区,106.50444429052077,29.528606412894394
民康公园,风景名胜,公园广场,公园,,重庆市,重庆市,九龙坡区,106.43559134937603,29.46500731774948
西郊三村社区公园,风景名胜,公园广场,公园,西子路47号,重庆市,重庆市,九龙坡区,106.50941326372424,29.50318657945576
西彭体育公园,风景名胜,公园广场,公园,铝城大道,重庆市,重庆市,九龙坡区,106.3239955140503,29.333242750003812
重庆幻太奇海洋水族馆,风景名胜,公园广场,水族馆,奥体路1号中新城上城负一楼,重庆市,重庆市,九龙坡区,106.50728848445175,29.530582056731518
九龙滨江乐堡啤酒找乐广场,风景名胜,公园广场,城市广场,九滨路,重庆市,重庆市,九龙坡区,106.52348557131765,29.528184038213467
锦绣门窗,风景名胜,公园广场,城市广场,锦虹二路,重庆市,重庆市,九龙坡区,106.44485956609363,29.43778355440867
重庆华岩壁虎王国家攀岩示范公园,风景名胜,公园广场,公园,华岩镇华龙大道28号,重庆市,重庆市,九龙坡区,106.44867714377366,29.484793862205652
含谷镇法治文化广场,风景名胜,公园广场,城市广场,含盛路51附近,重庆市,重庆市,九龙坡区,106.36482498552303,29.522500936239545
天宝广场,风景名胜,公园广场,城市广场,直港大道201附近,重庆市,重庆市,九龙坡区,106.52681013145595,29.51038116521757
奥体篮球公园,风景名胜,公园广场,公园,龙腾大道重庆奥林匹克体育中心内,重庆市,重庆市,九龙坡区,106.50112860283315,29.52709512345829
含谷镇法治文化广场,风景名胜,公园广场,城市广场,含盛路51附近,重庆市,重庆市,九龙坡区,106.36482498552303,29.522500936239545
天宝广场,风景名胜,公园广场,城市广场,直港大道201附近,重庆市,重庆市,九龙坡区,106.52681013145595,29.51038116521757
奥体篮球公园,风景名胜,公园广场,公园,龙腾大道重庆奥林匹克体育中心内,重庆市,重庆市,九龙坡区,106.50112860283315,29.52709512345829
广厦城康体公园,风景名胜,公园广场,公园,广厦城6号9幢附3号附近,重庆市,重庆市,九龙坡区,106.52814449288704,29.492857191161054
重庆白市驿森林公园,风景名胜,公园广场,公园,白市驿镇高田坎村,重庆市,重庆市,九龙坡区,106.37757362032241,29.465161460934045
白塔坪森林公园,风景名胜,公园广场,公园,煤厂公路附近,重庆市,重庆市,九龙坡区,106.27089347763203,29.50677435595489
晨曦广场,风景名胜,公园广场,公园广场,西彭镇铝城南路,重庆市,重庆市,九龙坡区,106.33052985190132,29.30801136534586
九龙西城陶家生态公园,风景名胜,公园广场,公园,九龙园大道36号附近,重庆市,重庆市,九龙坡区,106.34205277630458,29.394270606361925
华龙社区公园,风景名胜,公园广场,公园,华庆路15附近,重庆市,重庆市,九龙坡区,106.43831255222318,29.464656084535893
重庆幻太奇海洋馆,风景名胜,公园广场,水族馆,奥体路1号中新城上城负一楼,重庆市,重庆市,九龙坡区,106.50755327639368,29.53020398694397
重庆动物园-赤狐,风景名胜,公园广场,动物园,杨家坪街道重庆动物园,重庆市,重庆市,九龙坡区,106.5026893567025,29.507961645589596
重庆动物园-非洲狮,风景名胜,公园广场,动物园,杨家坪街道重庆动物园,重庆市,重庆市,九龙坡区,106.50251684439466,29.50801810686641
重庆动物园-金猫,风景名胜,公园广场,动物园,杨家坪街道重庆动物园,重庆市,重庆市,九龙坡区,106.50253690250379,29.508036159110112
重庆动物园-云豹,风景名胜,公园广场,动物园,杨家坪街道重庆动物园,重庆市,重庆市,九龙坡区,106.5023343018528,29.50808153509901
重庆动物园-水獭,风景名胜,公园广场,动物园,杨家坪街道重庆动物园,重庆市,重庆市,九龙坡区,106.50176161934132,29.507927889243533
重庆动物园-青长尾猴,风景名胜,公园广场,动物园,杨家坪街道重庆动物园,重庆市,重庆市,九龙坡区,106.5015981375576,29.507902411356678
重庆动物园-花面狸,风景名胜,公园广场,动物园,杨家坪街道重庆动物园,重庆市,重庆市,九龙坡区,106.50169943763044,29.507892718259612
重庆动物园-猩猩馆,风景名胜,公园广场,动物园,杨家坪街道重庆动物园,重庆市,重庆市,九龙坡区,106.49928825298743,29.508575211762903
重庆动物园-猴馆,风景名胜,公园广场,动物园,杨家坪街道重庆动物园,重庆市,重庆市,九龙坡区,106.4989482119936,29.509099971123096
重庆动物园-金钱豹,风景名胜,公园广场,动物园,杨家坪街道重庆动物园,重庆市,重庆市,九龙坡区,106.4999072048826,29.50664388363684
重庆动物园-非洲狮,风景名胜,公园广场,动物园,杨家坪街道重庆动物园,重庆市,重庆市,九龙坡区,106.49964943173127,29.50678605098921
重庆动物园-大象馆,风景名胜,公园广场,动物园,杨家坪街道重庆动物园,重庆市,重庆市,九龙坡区,106.50237766716513,29.504102355505413
重庆动物园-斑马,风景名胜,公园广场,动物园,杨家坪街道重庆动物园,重庆市,重庆市,九龙坡区,106.5025331016419,29.504508645972116
重庆动物园-矮马,风景名胜,公园广场,动物园,杨家坪街道重庆动物园,重庆市,重庆市,九龙坡区,106.50261836521652,29.50430698657102
重庆动物园-长颈鹿馆,风景名胜,公园广场,动物园,杨家坪街道重庆动物园,重庆市,重庆市,九龙坡区,106.50277082624338,29.504116522900834
重庆动物园-狍子,风景名胜,公园广场,动物园,杨家坪街道重庆动物园,重庆市,重庆市,九龙坡区,106.50395027835027,29.50446288996419
重庆动物园-羚羊馆,风景名胜,公园广场,动物园,杨家坪街道重庆动物园,重庆市,重庆市,九龙坡区,106.50377576536268,29.504460371482455
重庆动物园-岩羊,风景名胜,公园广场,动物园,杨家坪街道重庆动物园,重庆市,重庆市,九龙坡区,106.50397534942321,29.50450694577994
重庆动物园-麋鹿,风景名胜,公园广场,动物园,杨家坪街道重庆动物园,重庆市,重庆市,九龙坡区,106.50395027673731,29.504489878436473
重庆动物园-企鹅馆,风景名胜,公园广场,动物园,杨家坪街道重庆动物园,重庆市,重庆市,九龙坡区,106.50225910203146,29.507709467820064
重庆动物园-鹦鹉苑,风景名胜,公园广场,动物园,杨家坪街道重庆动物园,重庆市,重庆市,九龙坡区,106.50350381746543,29.50693950675084
重庆动物园-白虎,风景名胜,公园广场,动物园,杨家坪街道重庆动物园,重庆市,重庆市,九龙坡区,106.5002642281886,29.507234702580153
重庆动物园-华南虎,风景名胜,公园广场,动物园,杨家坪街道重庆动物园,重庆市,重庆市,九龙坡区,106.50021205773587,29.507499434267952
重庆动物园-马鹿,风景名胜,公园广场,动物园,杨家坪街道重庆动物园,重庆市,重庆市,九龙坡区,106.50139265920139,29.505734716183227
重庆动物园-水鹿,风景名胜,公园广场,动物园,杨家坪街道重庆动物园,重庆市,重庆市,九龙坡区,106.50143178542127,29.50555890798539
重庆动物园-羚牛,风景名胜,公园广场,动物园,杨家坪街道重庆动物园,重庆市,重庆市,九龙坡区,106.5014046985086,29.505672778534052
重庆动物园-白唇鹿,风景名胜,公园广场,动物园,杨家坪街道重庆动物园,重庆市,重庆市,九龙坡区,106.50142276775546,29.505407945284716
重庆动物园-梅花鹿,风景名胜,公园广场,动物园,杨家坪街道重庆动物园,重庆市,重庆市,九龙坡区,106.50155913285334,29.50604808069662
重庆动物园-白犀,风景名胜,公园广场,动物园,杨家坪街道重庆动物园,重庆市,重庆市,九龙坡区,106.50202754580246,29.505569684024007
重庆动物园-牦牛,风景名胜,公园广场,动物园,杨家坪街道重庆动物园,重庆市,重庆市,九龙坡区,106.50210978955081,29.505555935556774
重庆动物园-蒙古野驴,风景名胜,公园广场,动物园,杨家坪街道重庆动物园,重庆市,重庆市,九龙坡区,106.50216695777935,29.505566101985377
重庆动物园-双峰驼,风景名胜,公园广场,动物园,杨家坪街道重庆动物园,重庆市,重庆市,九龙坡区,106.50231539531566,29.505578539983187
重庆动物园-河马馆,风景名胜,公园广场,动物园,杨家坪街道重庆动物园,重庆市,重庆市,九龙坡区,106.50262731024645,29.505671431585448
重庆动物园-小熊猫,风景名胜,公园广场,动物园,杨家坪街道重庆动物园,重庆市,重庆市,九龙坡区,106.50492713831558,29.504589740374254
重庆动物园-黇鹿,风景名胜,公园广场,动物园,杨家坪街道重庆动物园,重庆市,重庆市,九龙坡区,106.50159323427827,29.506038186848798
重庆动物园-金鱼馆,风景名胜,公园广场,动物园,杨家坪街道重庆动物园,重庆市,重庆市,九龙坡区,106.50301443996358,29.50586850269942
重庆动物园-熊猫馆,风景名胜,公园广场,动物园,杨家坪街道重庆动物园,重庆市,重庆市,九龙坡区,106.50417994280356,29.504638498457698
重庆动物园-两爬动物区,风景名胜,公园广场,动物园,杨家坪街道重庆动物园,重庆市,重庆市,九龙坡区,106.50373653901177,29.506322461755904
九龙坡区渝高公园管理办公室,风景名胜,公园广场,公园广场,科园三街101号渝高公园内重庆老年杂志社附近,重庆市,重庆市,九龙坡区,106.48356425224783,29.53254154105966
重庆动物园-恐龙谷,风景名胜,公园广场,动物园,西郊路25号重庆动物园内,重庆市,重庆市,九龙坡区,106.50479579591567,29.50387365618669
彩云湖国家湿地公园西区,风景名胜,公园广场,公园,科城路附近,重庆市,重庆市,九龙坡区,106.46956720429618,29.51121545190253
重庆南山风景区,风景名胜,风景名胜,国家级景点,南山镇南山公园路86号,重庆市,重庆市,南岸区,106.6193351011009,29.559873276607
南山一棵树景区,风景名胜,风景名胜,风景名胜,南山风景区内,重庆市,重庆市,南岸区,106.59896808662022,29.548237405443793
黄葛古道,风景名胜,风景名胜,风景名胜,G65包茂高速附近,重庆市,重庆市,南岸区,106.59318717074065,29.543843592548544
重庆南滨公园-南滨路景区,风景名胜,风景名胜,国家级景点,烟雨路86附近,重庆市,重庆市,南岸区,106.58149745879733,29.546768046505576
涂山寺,风景名胜,风景名胜,寺庙道观,黄梅桠真武山15号,重庆市,重庆市,南岸区,106.60462644787258,29.55292875713663
龙门浩老街,风景名胜,风景名胜,国家级景点,南滨路,重庆市,重庆市,南岸区,106.59071038399338,29.55924369045064
黄桷古道,风景名胜,风景名胜,风景名胜,黄桷垭正街,重庆市,重庆市,南岸区,106.5968210670114,29.542077096153573
空军抗战纪念园,风景名胜,风景名胜,纪念馆,南山街道石牛村,重庆市,重庆市,南岸区,106.64018465042092,29.564226808438143
法国水师兵营旧址,风景名胜,风景名胜,风景名胜,滨江路弹子石谦泰巷142号,重庆市,重庆市,南岸区,106.58077629017649,29.582370069198298
文峰塔,风景名胜,风景名胜,风景名胜,黄桷垭后街,重庆市,重庆市,南岸区,106.5950915712827,29.535770673550928
长嘉汇弹子石老街,风景名胜,风景名胜,国家级景点,泰昌路69号,重庆市,重庆市,南岸区,106.58433341766879,29.582631795205643
德国大使馆旧址,风景名胜,风景名胜,风景名胜,黄桷垭后街文峰段72号,重庆市,重庆市,南岸区,106.59314860256818,29.536813283160036
慈云寺,风景名胜,风景名胜,寺庙道观,南滨路,重庆市,重庆市,南岸区,106.59109867308025,29.56874038462295
老君洞道观,风景名胜,风景名胜,寺庙道观,崇文路彩瑞苑对面,重庆市,重庆市,南岸区,106.59750742016519,29.54471200100855
慈母堂,风景名胜,风景名胜,寺庙道观,石观音山,重庆市,重庆市,南岸区,106.61877429601623,29.589943609699503
观音寺,风景名胜,风景名胜,寺庙道观,学府大道39号,重庆市,重庆市,南岸区,106.5704806633859,29.505055893017367
美国大使馆海军武官处旧址,风景名胜,风景名胜,风景名胜,社会主义学院内,重庆市,重庆市,南岸区,106.59154310658553,29.55817817828404
南山寺,风景名胜,风景名胜,寺庙道观,南山街道花园后路放牛村南山里名宿内,重庆市,重庆市,南岸区,106.64164666060068,29.570778137437312
南山中央湿地公园,风景名胜,公园广场,公园,黄桷垭镇南山街道(金隅大成·南山郡旁),重庆市,重庆市,南岸区,106.59819716474804,29.523171303070356
千佛寺,风景名胜,风景名胜,寺庙道观,玄坛庙派出所对面,重庆市,重庆市,南岸区,106.58917197605984,29.575294805779357
岚苑旅游风景区,风景名胜,风景名胜,风景名胜,黄桷垭文峰段94号,重庆市,重庆市,南岸区,106.59633886919872,29.53405124731023
佛恩寺,风景名胜,风景名胜,寺庙道观,大佛寺(洋人街西入口)附近,重庆市,重庆市,南岸区,106.58612382259493,29.606753867895623
三毛故居,风景名胜,风景名胜,纪念馆,崇文路,重庆市,重庆市,南岸区,106.59791834725155,29.54073644415976
重庆映像历史风貌区,风景名胜,风景名胜,风景名胜,南坪西路60附34号附近,重庆市,重庆市,南岸区,106.55284952075037,29.531700794557562
北瀚农业观光园,风景名胜,风景名胜,风景名胜,渝巴路与黄明路交叉口东北150米,重庆市,重庆市,南岸区,106.70079021283658,29.514662843414374
台湾光复纪念碑,风景名胜,风景名胜,风景名胜,南山生态带黄山风景区黄山路17号(森林地带最东端)重庆抗战遗址博物馆内,重庆市,重庆市,南岸区,106.61488687325111,29.569539044760727
重庆南山植物园-桃花情,风景名胜,风景名胜,风景名胜,南山植物园路101号重庆南山植物园内,重庆市,重庆市,南岸区,106.62637893349738,29.55843578864255
蒋介石黄山府邸,风景名胜,风景名胜,纪念馆,南山植物园1号,重庆市,重庆市,南岸区,106.61300078090143,29.56869189204635
大佛寺,风景名胜,风景名胜,寺庙道观,南滨路,重庆市,重庆市,南岸区,106.58612382259493,29.606753867895623
觉林寺报恩塔,风景名胜,风景名胜,风景名胜,觉林寺95号,重庆市,重庆市,南岸区,106.59502096661436,29.563867248741936
乐和谷,风景名胜,风景名胜,风景名胜,,重庆市,重庆市,南岸区,106.647283135432,29.557093404154177
黄山陪都遗迹陈列馆,风景名胜,风景名胜,纪念馆,南山植物园路1号,重庆市,重庆市,南岸区,106.61494789953511,29.567481708492387
云雾山,风景名胜,风景名胜,风景名胜,长生桥镇广福村附近,重庆市,重庆市,南岸区,106.67788044921697,29.47631427160964
于右任故居,风景名胜,风景名胜,风景名胜,黄桷垭的成都铁路局重庆疗养院内,重庆市,重庆市,南岸区,106.5918174860231,29.532595841008327
福泽生态大观园,风景名胜,风景名胜,风景名胜,迎龙镇大坪村,重庆市,重庆市,南岸区,106.72458864166173,29.543683199170108
星光观景台,风景名胜,风景名胜,观景点,龙门浩与龙门路交叉口西100米,重庆市,重庆市,南岸区,106.5907313613965,29.559490604730133
丹龙体育文化公园,风景名胜,风景名胜,风景名胜,丹龙路,重庆市,重庆市,南岸区,106.55043871579534,29.514282410534634
李奎安故居,风景名胜,风景名胜,风景名胜,黄桷垭正街,重庆市,重庆市,南岸区,106.59859781573927,29.54085127290963
重庆第二师范学院(南山校区)九思园,风景名胜,风景名胜,风景名胜,,重庆市,重庆市,南岸区,106.5916844101036,29.5007299662163
观音庙,风景名胜,风景名胜,寺庙道观,开迎路北150米,重庆市,重庆市,南岸区,106.70918324984797,29.547045242846668
重庆抗战遗址博物馆-周至柔旧居,风景名胜,风景名胜,纪念馆,涂山镇南山公园路重庆黄山风景区西,重庆市,重庆市,南岸区,106.61196528587517,29.56864370431514
涂山寺广场-涂山氏雕像,风景名胜,风景名胜,风景名胜,崇文路13号附5号正东方向50米,重庆市,重庆市,南岸区,106.60255216924138,29.543172256739723
重庆第二师范学院(南山校区)百步梯,风景名胜,风景名胜,风景名胜,文峰正街(重庆第二师范学院南山校区),重庆市,重庆市,南岸区,106.59218936793772,29.497570382668503
古佛寺,风景名胜,风景名胜,寺庙道观,,重庆市,重庆市,南岸区,106.648139303118,29.58378167249194
救主堂,风景名胜,风景名胜,教堂,南坪南山街道黄桷桠文峰段30号,重庆市,重庆市,南岸区,106.59855602764678,29.53780045334228
清水溪步道,风景名胜,风景名胜,风景名胜,黄桷垭镇,重庆市,重庆市,南岸区,106.6099532816745,29.564992410654547
腊梅谷,风景名胜,风景名胜,风景名胜,,重庆市,重庆市,南岸区,106.6359409049093,29.545270374410567
佛缘香纸,风景名胜,风景名胜,风景名胜,华园路5号-附34号北80米,重庆市,重庆市,南岸区,106.45158016033113,29.501562791977786
临风阁,风景名胜,风景名胜,风景名胜,学府大道19号重庆工商大学南山书院内,重庆市,重庆市,南岸区,106.58380680196227,29.508112632316262
翠峰寺,风景名胜,风景名胜,风景名胜,天文北路,重庆市,重庆市,南岸区,106.66502683648895,29.537719768539517
山王庙,风景名胜,风景名胜,风景名胜,G5001重庆绕城高速附近,重庆市,重庆市,南岸区,106.76665354057224,29.595259121481238
南山森林园,风景名胜,风景名胜,风景名胜,慈母山2号隧道与花园后路交叉口南50米,重庆市,重庆市,南岸区,106.64169370288143,29.56811098553195
重庆黄山抗战旧址群,风景名胜,风景名胜,风景名胜,,重庆市,重庆市,南岸区,106.61510367416297,29.56717668057514
双闲庵,风景名胜,风景名胜,风景名胜,,重庆市,重庆市,南岸区,106.70965716871318,29.53192743594773
边珠庙,风景名胜,风景名胜,风景名胜,石冷公路,重庆市,重庆市,南岸区,106.72849504149005,29.538903144979688
三丰洞,风景名胜,风景名胜,风景名胜,龙黄公路老君洞道观内,重庆市,重庆市,南岸区,106.5976502800492,29.545302755634495
大佛造像,风景名胜,风景名胜,风景名胜,大佛寺(洋人街西入口)附近,重庆市,重庆市,南岸区,106.58603283808665,29.606714847750595
黄桷垭老街,风景名胜,风景名胜,风景名胜,,重庆市,重庆市,南岸区,106.60051830418843,29.539206436406186
黄桷湾立交景观台,风景名胜,风景名胜,风景名胜,福民路底,重庆市,重庆市,南岸区,106.59852012305694,29.58775271798526
涂山夏后石刻,风景名胜,风景名胜,风景名胜,涂山雕塑公园,重庆市,重庆市,南岸区,106.6008619618196,29.556840751749736
黔南义庄,风景名胜,风景名胜,风景名胜,,重庆市,重庆市,南岸区,106.59053785181557,29.53532061893896
故宫文物南迁纪念馆,风景名胜,风景名胜,纪念馆,慈云老街1号,重庆市,重庆市,南岸区,106.59116971598985,29.567513820964553
广阳营1-3号营房,风景名胜,风景名胜,风景名胜,广阳岛,重庆市,重庆市,南岸区,106.71820737711458,29.578848479752292
登园民国风情园,风景名胜,风景名胜,风景名胜,重庆市南岸区迎龙镇北斗村,重庆市,重庆市,南岸区,106.704143903238,29.522543670412027
孔香园,风景名胜,风景名胜,风景名胜,铁路疗养院内,重庆市,重庆市,南岸区,106.59303084576104,29.533686495646656
铜锣花谷生态园,风景名胜,风景名胜,风景名胜,弹广路北50米,重庆市,重庆市,南岸区,106.6541637963095,29.59051860517914
自在南山,风景名胜,风景名胜,风景名胜,黄金公路北50米,重庆市,重庆市,南岸区,106.58732333802818,29.50897358468073
民国邮政总局别墅旧址,风景名胜,风景名胜,风景名胜,黄桷垭正街西200米,重庆市,重庆市,南岸区,106.59615859224267,29.540837642494285
云岫楼,风景名胜,风景名胜,纪念馆,,重庆市,重庆市,南岸区,106.6139542873578,29.569850721262867
日月岛芳香植物园-太极岛,风景名胜,风景名胜,风景名胜,江溪路与226县道交叉口东南50米,重庆市,重庆市,南岸区,106.66962769385029,29.524254251567218
建业岗别墅群,风景名胜,风景名胜,风景名胜,下浩路与涂山路交叉口西150米,重庆市,重庆市,南岸区,106.59154310658553,29.55817817828404
南山桃花园,风景名胜,风景名胜,风景名胜,南山街道弹广路桃花山庄,重庆市,重庆市,南岸区,106.64329557034777,29.58699895756219
金山古城,风景名胜,风景名胜,风景名胜,龙黄公路东50米,重庆市,重庆市,南岸区,106.59843017164721,29.55407136080727
九井寺,风景名胜,风景名胜,寺庙道观,学府大道19号后山九井路,重庆市,重庆市,南岸区,106.57847840740996,29.5044121493528
九龙寺,风景名胜,风景名胜,寺庙道观,南滨路,重庆市,重庆市,南岸区,106.53733141698481,29.51769827194935
黔南义庄,风景名胜,风景名胜,风景名胜,,重庆市,重庆市,南岸区,106.59053785181557,29.53532061893896
故宫文物南迁纪念馆,风景名胜,风景名胜,纪念馆,慈云老街1号,重庆市,重庆市,南岸区,106.59116971598985,29.567513820964553
广阳营1-3号营房,风景名胜,风景名胜,风景名胜,广阳岛,重庆市,重庆市,南岸区,106.71820737711458,29.578848479752292
登园民国风情园,风景名胜,风景名胜,风景名胜,重庆市南岸区迎龙镇北斗村,重庆市,重庆市,南岸区,106.704143903238,29.522543670412027
孔香园,风景名胜,风景名胜,风景名胜,铁路疗养院内,重庆市,重庆市,南岸区,106.59303084576104,29.533686495646656
铜锣花谷生态园,风景名胜,风景名胜,风景名胜,弹广路北50米,重庆市,重庆市,南岸区,106.6541637963095,29.59051860517914
自在南山,风景名胜,风景名胜,风景名胜,黄金公路北50米,重庆市,重庆市,南岸区,106.58732333802818,29.50897358468073
民国邮政总局别墅旧址,风景名胜,风景名胜,风景名胜,黄桷垭正街西200米,重庆市,重庆市,南岸区,106.59615859224267,29.540837642494285
基督教一德堂,风景名胜,风景名胜,风景名胜,长嘉汇弹子石老街13号,重庆市,重庆市,南岸区,106.58483734042245,29.58337675982542
云岫楼,风景名胜,风景名胜,纪念馆,,重庆市,重庆市,南岸区,106.6139542873578,29.569850721262867
百岁坊,风景名胜,风景名胜,风景名胜,弹子石新街与群慧路交叉口西南200米,重庆市,重庆市,南岸区,106.58527330677249,29.58327196740428
日月岛芳香植物园-太极岛,风景名胜,风景名胜,风景名胜,江溪路与226县道交叉口东南50米,重庆市,重庆市,南岸区,106.66962769385029,29.524254251567218
建业岗别墅群,风景名胜,风景名胜,风景名胜,下浩路与涂山路交叉口西150米,重庆市,重庆市,南岸区,106.59154310658553,29.55817817828404
学庐,风景名胜,风景名胜,风景名胜,南坪西路60附33号,重庆市,重庆市,南岸区,106.55311393423763,29.531534331767276
南山桃花园,风景名胜,风景名胜,风景名胜,南山街道弹广路桃花山庄,重庆市,重庆市,南岸区,106.64329557034777,29.58699895756219
金山古城,风景名胜,风景名胜,风景名胜,龙黄公路东50米,重庆市,重庆市,南岸区,106.59843017164721,29.55407136080727
九井寺,风景名胜,风景名胜,寺庙道观,学府大道19号后山九井路,重庆市,重庆市,南岸区,106.57847840740996,29.5044121493528
九龙寺,风景名胜,风景名胜,寺庙道观,南滨路,重庆市,重庆市,南岸区,106.53733141698481,29.51769827194935
云端观景平台,风景名胜,风景名胜,观景点,烟雨路9号重庆万豪酒店51层,重庆市,重庆市,南岸区,106.58266491901628,29.540207152747964
乌龟石,风景名胜,风景名胜,风景名胜,东水门大桥下江边礁石,重庆市,重庆市,南岸区,106.59011055842105,29.56006430177283
大法国水师军,风景名胜,风景名胜,纪念馆,滨江路弹子石谦泰巷142号,重庆市,重庆市,南岸区,106.58085529775978,29.58241809975837
南山长寿坡观音新庙,风景名胜,风景名胜,寺庙道观,,重庆市,重庆市,南岸区,106.61310325472394,29.558085570261913
观音堂,风景名胜,风景名胜,寺庙道观,,重庆市,重庆市,南岸区,106.60425854209979,29.592072487014317
杨芳龄墓,风景名胜,风景名胜,风景名胜,,重庆市,重庆市,南岸区,106.59704833251283,29.534814864373246
广阳岛机场抗战遗址群(文物),风景名胜,风景名胜,风景名胜,,重庆市,重庆市,南岸区,106.71818341120262,29.57900645125646
广阳岛观景台休息点,风景名胜,风景名胜,风景名胜,环岛路,重庆市,重庆市,南岸区,106.70823887532096,29.569950224502172
东岛头,风景名胜,风景名胜,风景名胜,,重庆市,重庆市,南岸区,106.72536010904436,29.58130921518863
广阳营,风景名胜,风景名胜,风景名胜,广阳岛,重庆市,重庆市,南岸区,106.717939886824,29.57853285968594
广阳岛西岛头,风景名胜,风景名胜,风景名胜,,重庆市,重庆市,南岸区,106.69198738270192,29.559201781458942
五尺道古遗址,风景名胜,风景名胜,风景名胜,敦厚坡,重庆市,重庆市,南岸区,106.59540990874858,29.543704611622328
涂山寺-日月观音殿,风景名胜,风景名胜,寺庙道观,南山街道真武山15号涂山寺内,重庆市,重庆市,南岸区,106.60448961538528,29.552598940373898
红溪穿山堰(文物),风景名胜,风景名胜,风景名胜,渔溪河大桥,重庆市,重庆市,南岸区,106.72746857193523,29.554465014193738
广阳岛山顶观景平台,风景名胜,风景名胜,风景名胜,广阳岛内,重庆市,重庆市,南岸区,106.71054010196919,29.56787597779384
南山泉山炮台山遗址,风景名胜,风景名胜,风景名胜,,重庆市,重庆市,南岸区,106.60367292662681,29.49388702353429
万福桥(古道遗址),风景名胜,风景名胜,风景名胜,,重庆市,重庆市,南岸区,106.60099441134271,29.47892172099678
水墨禅院,风景名胜,风景名胜,风景名胜,东水门大桥南立交桥,重庆市,重庆市,南岸区,106.59129216408647,29.559008850880915
杜月笙别墅旧址,风景名胜,风景名胜,风景名胜,南山公园路101号植物园内,重庆市,重庆市,南岸区,106.62697762123673,29.560121428872844
同盟国驻渝外交机构旧址群(印度专员公署旧址),风景名胜,风景名胜,风景名胜,南山植物园山茶园内,重庆市,重庆市,南岸区,106.62232881931898,29.5579017839569
范家花园,风景名胜,风景名胜,风景名胜,南山植物园,重庆市,重庆市,南岸区,106.62456447398586,29.559353674638388
西班牙公使馆旧址,风景名胜,风景名胜,风景名胜,南山植物园兰园内,重庆市,重庆市,南岸区,106.62255940447966,29.557637620242442
美军招待所旧址,风景名胜,风景名胜,风景名胜,南山公园路11号,重庆市,重庆市,南岸区,106.61698706680528,29.56010448789129
王陵基别墅旧居,风景名胜,风景名胜,风景名胜,南山月亮湖上,重庆市,重庆市,南岸区,106.61474995711805,29.554763421464063
朱之洪先生纪念碑,风景名胜,风景名胜,风景名胜,玉马公园,重庆市,重庆市,南岸区,106.62133024214828,29.497196098675836
市政府再就业亭,风景名胜,风景名胜,风景名胜,南坪正街88号附近,重庆市,重庆市,南岸区,106.5653936390188,29.53838944999118
中国银行发行部旧址,风景名胜,风景名胜,风景名胜,南山镇盆景园内,重庆市,重庆市,南岸区,106.61975678437813,29.55272743935906
亚细亚石油公司旧址,风景名胜,风景名胜,风景名胜,上新街街道马鞍山52号,重庆市,重庆市,南岸区,106.5897450701697,29.55349061964801
王朴烈士故居,风景名胜,风景名胜,风景名胜,G65(真武山隧道),重庆市,重庆市,南岸区,106.60244921108104,29.510101520970817
原国民政府邮政总局局长官邸,风景名胜,风景名胜,风景名胜,海棠溪街道敦厚社区中段43-50号,重庆市,重庆市,南岸区,106.58899484251366,29.5443658635939
英国协会医院旧址,风景名胜,风景名胜,风景名胜,上新街街道马鞍山68号,重庆市,重庆市,南岸区,106.58886149046128,29.551043338178964
邮政总局旧址,风景名胜,风景名胜,风景名胜,海棠溪新街(和泓南山道东侧约100米),重庆市,重庆市,南岸区,106.58892685206229,29.544545780556238
重庆南滨公园,风景名胜,公园广场,公园,喜来登大酒店附近,重庆市,重庆市,南岸区,106.58216848587384,29.547202247735665
南湖公园,风景名胜,公园广场,公园,湖滨路,重庆市,重庆市,南岸区,106.55390937349578,29.527372383398138
南坪广场,风景名胜,公园广场,城市广场,惠工路15号,重庆市,重庆市,南岸区,106.56624298433366,29.52858935002517
重庆南山植物园,风景名胜,公园广场,植物园,南山公园路101号,重庆市,重庆市,南岸区,106.6242970559024,29.558298372490842
后堡公园,风景名胜,公园广场,公园,南坪正街83号(沁园蛋糕旁),重庆市,重庆市,南岸区,106.5672440462179,29.542271245234765
融侨公园,风景名胜,公园广场,公园,风临路融侨城(近南开中学),重庆市,重庆市,南岸区,106.53616799701976,29.532462606981678
上海城长江旅游广场,风景名胜,公园广场,城市广场,南坪西路32号,重庆市,重庆市,南岸区,106.55597193079603,29.534299171143626
重庆正扬广场,风景名胜,公园广场,公园广场,南城大道与惠工路交叉口西南100米,重庆市,重庆市,南岸区,106.55949904283953,29.525614230084056
宏声文化广场,风景名胜,公园广场,城市广场,江南大道13号,重庆市,重庆市,南岸区,106.56538405001585,29.531216232775975
国会山公园,风景名胜,公园广场,公园,南坪镇辅仁大道,重庆市,重庆市,南岸区,106.57117760701728,29.53090100339609
长嘉汇海洋乐园,风景名胜,公园广场,水族馆,长嘉汇购物公园4层,重庆市,重庆市,南岸区,106.58252451685938,29.581119446295215
玉马公园,风景名胜,公园广场,公园,茶园新区,重庆市,重庆市,南岸区,106.62201200628104,29.496935463818957
凉风垭森林公园,风景名胜,公园广场,公园,S103(黄明路),重庆市,重庆市,南岸区,106.60906624687291,29.534432337762727
水体湿地公园,风景名胜,公园广场,公园,天韵路与桐福路交叉口西北150米,重庆市,重庆市,南岸区,106.64339028750055,29.503846126086827
腾滨公园,风景名胜,公园广场,公园,腾龙大道23附36号西南方向70米,重庆市,重庆市,南岸区,106.5885120543532,29.594261432846654
融创·伊顿湖滨公园,风景名胜,公园广场,公园,长生桥镇内环快速路,重庆市,重庆市,南岸区,106.61882592264664,29.47607620802381
马鞍山社区公园,风景名胜,公园广场,公园,龙门浩与龙门路交叉口西南150米,重庆市,重庆市,南岸区,106.58937216650446,29.55392538770619
壹华里夜景公园,风景名胜,公园广场,公园,福寿路,重庆市,重庆市,南岸区,106.58824401616954,29.510796070691363
龙井公园,风景名胜,公园广场,公园,文峰正街88号对面,重庆市,重庆市,南岸区,106.59620864563064,29.50522603896238
迎龙湖国家湿地公园,风景名胜,公园广场,公园,,重庆市,重庆市,南岸区,106.71736978029173,29.499829698594308
蓝天阁,风景名胜,公园广场,公园,崇文路256号,重庆市,重庆市,南岸区,106.6127268707072,29.557019251205407
CBD滨江公园,风景名胜,公园广场,公园,南滨路西50米,重庆市,重庆市,南岸区,106.58011595589339,29.58637035554128
金辉运动公园,风景名胜,公园广场,公园,大田坝街西200米,重庆市,重庆市,南岸区,106.53939585115883,29.534194417191244
中央公园,风景名胜,公园广场,公园,,重庆市,重庆市,南岸区,106.58764996868015,29.59939159989038
滨江大道西段体育公园,风景名胜,公园广场,公园,江苑路与黄葛渡立交桥交叉口西南200米,重庆市,重庆市,南岸区,106.55662239833697,29.54156444384142
新民园小区小公园,风景名胜,公园广场,公园,学府大道19号正西方向180米,重庆市,重庆市,南岸区,106.56904632591235,29.510569007178635
南滨游艇广场,风景名胜,公园广场,城市广场,南滨路316号附近,重庆市,重庆市,南岸区,106.56924449714725,29.54433076292939
尚都公园,风景名胜,公园广场,公园,辅仁路6号,重庆市,重庆市,南岸区,106.5727576881876,29.52846952271086
踏水公园,风景名胜,公园广场,公园,茶园地铁站2号口东北150米,重庆市,重庆市,南岸区,106.6409042128774,29.49149162569218
和泓阳光音乐广场,风景名胜,公园广场,城市广场,桃源路160号附147号正北方向60米,重庆市,重庆市,南岸区,106.5439590289061,29.51683838850367
桐梓山体育文化公园,风景名胜,公园广场,公园,山千院西苑,重庆市,重庆市,南岸区,106.5586774647275,29.500997214109617
铜滨公园,风景名胜,公园广场,公园,南滨路与铜元局正街路口,重庆市,重庆市,南岸区,106.54163701877172,29.541546584922774
金隅公园,风景名胜,公园广场,公园,,重庆市,重庆市,南岸区,106.59681329487441,29.5212253063565
广阳岛体育公园,风景名胜,公园广场,公园,峡口镇桂花园,重庆市,重庆市,南岸区,106.71729001591731,29.56347372961584
南岸区辅仁公园,风景名胜,公园广场,公园,辅仁路4号,重庆市,重庆市,南岸区,106.57224648197713,29.527043599432513
鲨鱼公园,风景名胜,公园广场,公园,南坪上海城鲨鱼公园儿童大学,重庆市,重庆市,南岸区,106.55746004256572,29.532637255520967
石门社区公园,风景名胜,公园广场,公园,重庆市南岸区盘龙山18号正东方向60米,重庆市,重庆市,南岸区,106.60296638434187,29.600540362159798
仰天窝体育文化公园,风景名胜,公园广场,公园,辅向路与烟雨路交汇处西北侧,重庆市,重庆市,南岸区,106.57519186363666,29.528766584790482
敦厚中段社区公园,风景名胜,公园广场,公园,敦厚街中段,重庆市,重庆市,南岸区,106.58928171849466,29.54499068903652
健康主题公园,风景名胜,公园广场,公园,天文大道,重庆市,重庆市,南岸区,106.64268130184324,29.51672489881222
呼归石花阶公园,风景名胜,公园广场,公园,南滨路,重庆市,重庆市,南岸区,106.5854576044369,29.57785784217123
北斗锄禾农耕体验公园,风景名胜,公园广场,公园,北斗锄禾农耕体验公园(黄明路南),重庆市,重庆市,南岸区,106.70648178601536,29.520077396611562
味觉星球创业公园,风景名胜,公园广场,公园,慈云路,重庆市,重庆市,南岸区,106.59167074931203,29.563328349743678
黄桷湾公园,风景名胜,公园广场,公园,福民路底,重庆市,重庆市,南岸区,106.59859507334426,29.58759375456177
南滨路钟楼广场,风景名胜,公园广场,城市广场,南滨路千佛寺旁,重庆市,重庆市,南岸区,106.58827621339017,29.575575502539266
黄葛渡公园,风景名胜,公园广场,公园,南坪北路,重庆市,重庆市,南岸区,106.5614846681635,29.53761544673226
清水溪健身公园,风景名胜,公园广场,公园,涂山路240号,重庆市,重庆市,南岸区,106.59783919841968,29.561330844836103
广阳镇安全生产主题公园,风景名胜,公园广场,公园,黄明路,重庆市,重庆市,南岸区,106.7757773207925,29.600375765597768
兰馨园,风景名胜,公园广场,公园广场,海铜路与花园路交叉口东南150米,重庆市,重庆市,南岸区,106.55439191944497,29.530187104526195
教育广场,风景名胜,公园广场,城市广场,,重庆市,重庆市,南岸区,106.53877178146035,29.53002663221378
太阳广场,风景名胜,公园广场,城市广场,崇文路35号(近南山植物园)重庆海昌加勒比海水世界内,重庆市,重庆市,南岸区,106.60992563282613,29.55965532774075
涂山湖广场,风景名胜,公园广场,城市广场,崇文路136号-附1号东北60米,重庆市,重庆市,南岸区,106.60331841198018,29.542969038179393
银杏广场,风景名胜,公园广场,城市广场,学府大道附近,重庆市,重庆市,南岸区,106.57365321367813,29.493390065636785
国瑞尚都生活广场,风景名胜,公园广场,城市广场,南坪镇辅仁路6号,重庆市,重庆市,南岸区,106.57102762149776,29.529015595945413
古楼湾社区文化广场,风景名胜,公园广场,城市广场,桃源路支路,重庆市,重庆市,南岸区,106.54852582733626,29.525692087785963
城市广场,风景名胜,公园广场,城市广场,,重庆市,重庆市,南岸区,106.56119983160127,29.529323279642544
宏馨文化广场,风景名胜,公园广场,城市广场,南坪南路1-200号附近,重庆市,重庆市,南岸区,106.56460230823183,29.531201230212066
日月岛芳香植物园,风景名胜,公园广场,植物园,长生桥长江工业园,重庆市,重庆市,南岸区,106.66990896644077,29.523177146537883
放牛村幸福广场,风景名胜,公园广场,城市广场,腊梅园公路和南山公园北路的交叉口附近,重庆市,重庆市,南岸区,106.63727819359971,29.5717397839768
茶园典园广场,风景名胜,公园广场,城市广场,,重庆市,重庆市,南岸区,106.64067804264897,29.52052863519695
正街社区法治文化小游园,风景名胜,公园广场,公园广场,南坪新街90号东北方向80米,重庆市,重庆市,南岸区,106.56397135661604,29.53683619607807
高山流水广场,风景名胜,公园广场,城市广场,龙黄公路与崇文路交口东,重庆市,重庆市,南岸区,106.60386165853058,29.546217586917187
论语公园,风景名胜,公园广场,公园广场,福民社区,重庆市,重庆市,南岸区,106.59078387448123,29.601526598269384
群慧公园(建设中),风景名胜,公园广场,公园广场,盘龙立交东50米,重庆市,重庆市,南岸区,106.59833596843579,29.592832121244328
安纳溪湖公园,风景名胜,公园广场,公园广场,内环快速路与雷家桥立交交叉口东200米,重庆市,重庆市,南岸区,106.6197546991899,29.486398554170016
好奇号夜宿海洋馆,风景名胜,公园广场,水族馆,长嘉汇海洋探索中心(长嘉汇购物公园5楼),重庆市,重庆市,南岸区,106.58244454119371,29.580644563347832
皓月广场,风景名胜,公园广场,公园广场,前驱路与龙黄公路交叉口东150米,重庆市,重庆市,南岸区,106.59235020294066,29.550332118698552
南山竹园,风景名胜,公园广场,植物园,植物园路78号(双龙村村委会对面),重庆市,重庆市,南岸区,106.61724780588386,29.557229278628345
腊梅观光园,风景名胜,公园广场,植物园,南山风景区,重庆市,重庆市,南岸区,106.61558327482983,29.561132397279195
重庆海洋探索中心,风景名胜,公园广场,水族馆,泰昌路57号长嘉汇购物公园4楼,重庆市,重庆市,南岸区,106.58252752378324,29.581003486401894
万友·七季广场,风景名胜,公园广场,城市广场,兰花路与回龙路交汇处南50米,重庆市,重庆市,南岸区,106.56658169953523,29.504353761569377
印爱摄影主题公园,风景名胜,公园广场,公园,庆隆·南山高尔夫国际社区,重庆市,重庆市,南岸区,106.60911944788307,29.495799308318
同景公园,风景名胜,公园广场,公园,同景国际城小区附近,重庆市,重庆市,南岸区,106.65137180644064,29.49901025654209
铜元局街道云满庭社区文化广场,风景名胜,公园广场,城市广场,南坪长江村,重庆市,重庆市,南岸区,106.55309864310429,29.53610251932459
凉水井步道广场,风景名胜,公园广场,城市广场,涂山路382号附7号正南方向150米,重庆市,重庆市,南岸区,106.59776987104509,29.567792575886294
茶园典园广场,风景名胜,公园广场,城市广场,,重庆市,重庆市,南岸区,106.64067804264897,29.52052863519695
正街社区法治文化小游园,风景名胜,公园广场,公园广场,南坪新街90号东北方向80米,重庆市,重庆市,南岸区,106.56397135661604,29.53683619607807
高山流水广场,风景名胜,公园广场,城市广场,龙黄公路与崇文路交口东,重庆市,重庆市,南岸区,106.60386165853058,29.546217586917187
论语公园,风景名胜,公园广场,公园广场,福民社区,重庆市,重庆市,南岸区,106.59078387448123,29.601526598269384
群慧公园(建设中),风景名胜,公园广场,公园广场,盘龙立交东50米,重庆市,重庆市,南岸区,106.59833596843579,29.592832121244328
安纳溪湖公园,风景名胜,公园广场,公园广场,内环快速路与雷家桥立交交叉口东200米,重庆市,重庆市,南岸区,106.6197546991899,29.486398554170016
好奇号夜宿海洋馆,风景名胜,公园广场,水族馆,长嘉汇海洋探索中心(长嘉汇购物公园5楼),重庆市,重庆市,南岸区,106.58244454119371,29.580644563347832
皓月广场,风景名胜,公园广场,公园广场,前驱路与龙黄公路交叉口东150米,重庆市,重庆市,南岸区,106.59235020294066,29.550332118698552
南山竹园,风景名胜,公园广场,植物园,植物园路78号(双龙村村委会对面),重庆市,重庆市,南岸区,106.61724780588386,29.557229278628345
腊梅观光园,风景名胜,公园广场,植物园,南山风景区,重庆市,重庆市,南岸区,106.61558327482983,29.561132397279195
重庆海洋探索中心,风景名胜,公园广场,水族馆,泰昌路57号长嘉汇购物公园4楼,重庆市,重庆市,南岸区,106.58252752378324,29.581003486401894
万友·七季广场,风景名胜,公园广场,城市广场,兰花路与回龙路交汇处南50米,重庆市,重庆市,南岸区,106.56658169953523,29.504353761569377
印爱摄影主题公园,风景名胜,公园广场,公园,庆隆·南山高尔夫国际社区,重庆市,重庆市,南岸区,106.60911944788307,29.495799308318
同景公园,风景名胜,公园广场,公园,同景国际城小区附近,重庆市,重庆市,南岸区,106.65137180644064,29.49901025654209
铜元局街道云满庭社区文化广场,风景名胜,公园广场,城市广场,南坪长江村,重庆市,重庆市,南岸区,106.55309864310429,29.53610251932459
凉水井步道广场,风景名胜,公园广场,城市广场,涂山路382号附7号正南方向150米,重庆市,重庆市,南岸区,106.59776987104509,29.567792575886294
峡口镇温家溪社区公园,风景名胜,公园广场,公园,黄桷山居小区对面,重庆市,重庆市,南岸区,106.66898043131478,29.558836302213372
缙云山索道,风景名胜,风景名胜,风景名胜,云开路与北泉路交叉口南150米,重庆市,重庆市,北碚区,106.41344336800623,29.836223956879568
